,deposit_id,deposit_name,latitude,longitude,deposit_model,url
0,AC001,Chandalar River Headwaters,68.95,-144.07,"Lode; disseminated, Cu in sandstone",https://mrdata.usgs.gov/to-json.php?db=ardf&id=ardf_num&labno=AC001
1,AC002,Koness River Headwaters,68.42,-144.6,"Lode; disseminated, Cu in shale.",https://mrdata.usgs.gov/to-json.php?db=ardf&id=ardf_num&labno=AC002
2,AC003,Unnamed,68.97,-146.22,"Lode, disseminated Cu in sedimentary rocks.",https://mrdata.usgs.gov/to-json.php?db=ardf&id=ardf_num&labno=AC003
3,AC004,Unnamed,68.08,-146.35,"Lode; disseminated, Cu in volcanic tuff.",https://mrdata.usgs.gov/to-json.php?db=ardf&id=ardf_num&labno=AC004
4,AC005,Unnamed,68.27,-146.73,"Lode; disseminated, Cu in shale",https://mrdata.usgs.gov/to-json.php?db=ardf&id=ardf_num&labno=AC005
5,AC006,Porcupine Lake,68.82,-146.47,,https://mrdata.usgs.gov/to-json.php?db=ardf&id=ardf_num&labno=AC006
6,AC007,Ivishak River,68.85,-146.77,Lode; fluorite veinlets,https://mrdata.usgs.gov/to-json.php?db=ardf&id=ardf_num&labno=AC007
7,AC008,Unnamed,68.1,-146.58,Lode; Cu in carbonate,https://mrdata.usgs.gov/to-json.php?db=ardf&id=ardf_num&labno=AC008
8,AC009,Unknown,68.13,-144.66,,https://mrdata.usgs.gov/to-json.php?db=ardf&id=ardf_num&labno=AC009
9,AD001,Sweeper Cove,51.8478,-176.6439,Polymetallic vein,https://mrdata.usgs.gov/to-json.php?db=ardf&id=ardf_num&labno=AD001
10,AD002,Blind Cove,51.792,-176.454,Polymetallic vein?,https://mrdata.usgs.gov/to-json.php?db=ardf&id=ardf_num&labno=AD002
11,AD003,Beyer Bay,51.713,-176.73,Polymetallic vein?,https://mrdata.usgs.gov/to-json.php?db=ardf&id=ardf_num&labno=AD003
12,AD004,Bay of Islands,51.769,-176.691,,https://mrdata.usgs.gov/to-json.php?db=ardf&id=ardf_num&labno=AD004
13,AD005,Finger Bay,51.8283,-176.6069,,https://mrdata.usgs.gov/to-json.php?db=ardf&id=ardf_num&labno=AD005
14,AD006,Unnamed,51.8458,-176.6333,,https://mrdata.usgs.gov/to-json.php?db=ardf&id=ardf_num&labno=AD006
15,AD007,Boat Harbor,51.8508,-176.6483,Polymetallic vein,https://mrdata.usgs.gov/to-json.php?db=ardf&id=ardf_num&labno=AD007
16,AD008,Unnamed,51.8669,-176.6269,,https://mrdata.usgs.gov/to-json.php?db=ardf&id=ardf_num&labno=AD008
17,AD009,Unnamed,51.9161,-176.6131,,https://mrdata.usgs.gov/to-json.php?db=ardf&id=ardf_num&labno=AD009
18,AD010,Andrew Lake,51.9308,-176.6239,,https://mrdata.usgs.gov/to-json.php?db=ardf&id=ardf_num&labno=AD010
19,AF001,Wm. Douglas Group,58.857,-153.964,"Polymetallic vein ? (Cox and Singer, 1986; model 22c).",https://mrdata.usgs.gov/to-json.php?db=ardf&id=ardf_num&labno=AF001
20,AF002,Big River,58.68,-153.87,"Polymetallic vein, concealed porphyry copper or porphyry copper-molybdenum (Cox and Singer, 1986; models 22c, 17, 21a).",https://mrdata.usgs.gov/to-json.php?db=ardf&id=ardf_num&labno=AF002
21,AF003,Raspberry Beach,58.1,-153.34,"Gold placer (Cox and Singer, 1986; model 39a).",https://mrdata.usgs.gov/to-json.php?db=ardf&id=ardf_num&labno=AF003
22,AF004,Malina Bay,58.24,-153.05,Auriferous quartz vein,https://mrdata.usgs.gov/to-json.php?db=ardf&id=ardf_num&labno=AF004
23,AF005,Unnamed,58.3,-152.4,"Polymetallic vein ? (Cox and Singer, 1986; model 22c).",https://mrdata.usgs.gov/to-json.php?db=ardf&id=ardf_num&labno=AF005
24,AF006,Muskomee Bay,58.1,-153.07,"Polymetallic vein ? (Cox and Singer, 1986; model 22c).",https://mrdata.usgs.gov/to-json.php?db=ardf&id=ardf_num&labno=AF006
25,AK001,Unnamed (on Salt Island),52.17,-174.64,"Basaltic copper (Cox and Singer, 1986; model 23)",https://mrdata.usgs.gov/to-json.php?db=ardf&id=ardf_num&labno=AK001
26,AN001,Independence,61.792,-149.294,"Low-sulfide Au-quartz veins (Cox and Singer, 1986; model 36a)",https://mrdata.usgs.gov/to-json.php?db=ardf&id=ardf_num&labno=AN001
27,AN002,Lucky Shot; Willow Creek Mines Inc.,61.779,-149.4078,"Low-sulfide Au-quartz veins (Cox and Singer, 1986; model 36a).",https://mrdata.usgs.gov/to-json.php?db=ardf&id=ardf_num&labno=AN002
28,AN003,War Baby; Willow Creek Mines Inc.,61.7811,-149.4016,"Low-sulfide Au-quartz veins (Cox and Singer, 1986; model 36a).",https://mrdata.usgs.gov/to-json.php?db=ardf&id=ardf_num&labno=AN003
29,AN004,Gold Bullion; New Bullion; Ready Bullion; Willow Creek Mines Inc.,61.7898,-149.3292,"Low-sulfide Au-quartz veins (Cox and Singer, 1986; model 36a).",https://mrdata.usgs.gov/to-json.php?db=ardf&id=ardf_num&labno=AN004
30,AN005,Fern; Fern Gold Mining Co.; Fern Gold Leasing Co.; Fern & Goodell; Bartholf-Isaacs; Marmot,61.825,-149.241,"Low-sulfide Au-quartz veins (Cox and Singer, 1986; model 36a)",https://mrdata.usgs.gov/to-json.php?db=ardf&id=ardf_num&labno=AN005
31,AN006,Martin; Alaska Free Gold Mining Co.,61.786,-149.289,"Low-sulfide Au-quartz veins (Cox and Singer, 1986; model 36a)",https://mrdata.usgs.gov/to-json.php?db=ardf&id=ardf_num&labno=AN006
32,AN007,"Gold Cord; Gold Cord Mining, Milling, and Power Co.; Golden Bear Mining Co.",61.797,-149.286,"Low-sulfide Au-quartz veins (Cox and Singer, 1986; model 36a)",https://mrdata.usgs.gov/to-json.php?db=ardf&id=ardf_num&labno=AN007
33,AN008,Mabel,61.798,-149.215,"Low-sulfide Au-quartz veins (Cox and Singer, 1986; model 36a)",https://mrdata.usgs.gov/to-json.php?db=ardf&id=ardf_num&labno=AN008
34,AN009,High Grade; Kloss and Associates; Kloss and Snider,61.799,-149.297,"Low-sulfide Au-quartz veins (Cox and Singer, 1986; model 36a)",https://mrdata.usgs.gov/to-json.php?db=ardf&id=ardf_num&labno=AN009
35,AN010,Wet Gulch,61.76,-149.49,"Placer Au (Cox and Singer, 1986; model 39a)",https://mrdata.usgs.gov/to-json.php?db=ardf&id=ardf_num&labno=AN010
36,AN011,Grubstake Gulch and Willow Creek area,61.76,-149.43,"Placer Au (Cox and Singer, 1986; model 39a)",https://mrdata.usgs.gov/to-json.php?db=ardf&id=ardf_num&labno=AN011
37,AN012,Wolverine,61.79,-149.4,"Low-sulfide Au-quartz veins (Cox and Singer, 1986; model 36a)",https://mrdata.usgs.gov/to-json.php?db=ardf&id=ardf_num&labno=AN012
38,AN013,Panhandle,61.79,-149.39,"Low-sulfide Au-quartz veins (Cox and Singer, 1986; model 36a)",https://mrdata.usgs.gov/to-json.php?db=ardf&id=ardf_num&labno=AN013
39,AN015,"Gold Top, Gray Eagle",61.7984,-149.3776,"Low-sulfide Au-quartz veins (Cox and Singer, 1986; model 36a).",https://mrdata.usgs.gov/to-json.php?db=ardf&id=ardf_num&labno=AN015
40,AN016,Rainbow,61.79,-149.37,,https://mrdata.usgs.gov/to-json.php?db=ardf&id=ardf_num&labno=AN016
41,AN017,Golden Light,61.79,-149.36,,https://mrdata.usgs.gov/to-json.php?db=ardf&id=ardf_num&labno=AN017
42,AN018,Ryan,61.79,-149.35,,https://mrdata.usgs.gov/to-json.php?db=ardf&id=ardf_num&labno=AN018
43,AN019,Craigie Creek,61.79,-149.38,,https://mrdata.usgs.gov/to-json.php?db=ardf&id=ardf_num&labno=AN019
44,AN020,Purches Creek; Purchase Creek,61.81,-149.35,"Low-sulfide Au-quartz veins (Cox and Singer, 1986; model 36a)",https://mrdata.usgs.gov/to-json.php?db=ardf&id=ardf_num&labno=AN020
45,AN021,Gold King; Leona; Brassel Bros.,61.82,-149.33,"Low-sulfide Au-quartz veins (Cox and Singer, 1986; model 36a)",https://mrdata.usgs.gov/to-json.php?db=ardf&id=ardf_num&labno=AN021
46,AN022,Holland; Little Willie; Bronson and France,61.819,-149.291,"Low-sulfide Au-quartz veins ? (Cox and Singer, 1986; model 36a ?)",https://mrdata.usgs.gov/to-json.php?db=ardf&id=ardf_num&labno=AN022
47,AN023,Dixie; Galena-Gold,61.82,-149.29,,https://mrdata.usgs.gov/to-json.php?db=ardf&id=ardf_num&labno=AN023
48,AN024,Smith,61.83,-149.33,"Low-sulfide Au-quartz veins (Cox and Singer, 1986; model 36a)",https://mrdata.usgs.gov/to-json.php?db=ardf&id=ardf_num&labno=AN024
49,AN025,Talkeetna; Matanuska Gold Mining Company; Talkeetna Mining Company; Consolidated Mining Company; Fern Gold Mining Co.,61.824,-149.254,"Low-sulfide Au-quartz veins (Cox and Singer, 1986; model 36a)",https://mrdata.usgs.gov/to-json.php?db=ardf&id=ardf_num&labno=AN025
50,AN026,Marion Twin,61.812,-149.299,"Low-sulfide Au-quartz veins (Cox and Singer, 1986; model 36a)",https://mrdata.usgs.gov/to-json.php?db=ardf&id=ardf_num&labno=AN026
51,AN027,Schroff-O'Neil; Newman and Miller; Miller-Newman,61.811,-149.299,"Low-sulfide Au-quartz veins (Cox and Singer, 1986; model 36a)",https://mrdata.usgs.gov/to-json.php?db=ardf&id=ardf_num&labno=AN027
52,AN028,Black,61.807,-149.304,"Low-sulfide Au-quartz veins ? (Cox and Singer, 1986; model 36a ? )",https://mrdata.usgs.gov/to-json.php?db=ardf&id=ardf_num&labno=AN028
53,AN029,Bluebird,61.8,-149.29,"Low-sulfide Au-quartz veins (Cox and Singer, 1986; model 36a)",https://mrdata.usgs.gov/to-json.php?db=ardf&id=ardf_num&labno=AN029
54,AN030,Nippon; Jap,61.7903,-149.3124,"Low-sulfide Au-quartz veins (Cox and Singer, 1986; model 36a).",https://mrdata.usgs.gov/to-json.php?db=ardf&id=ardf_num&labno=AN030
55,AN032,Kelly-Willow; Gold Center; Brooklyn Development Co.; Brooklyn-Willow Creek Gold Mining Co.,61.784,-149.306,"Low-sulfide Au-quartz veins (Cox and Singer, 1986; model 36a)",https://mrdata.usgs.gov/to-json.php?db=ardf&id=ardf_num&labno=AN032
56,AN033,Eldorado; Alaska Free Gold Mining Co.,61.782,-149.29,"Low-sulfide Au-quartz veins (Cox and Singer, 1986; model 36a)",https://mrdata.usgs.gov/to-json.php?db=ardf&id=ardf_num&labno=AN033
57,AN034,Upper Willow Creek,61.78,-149.33,,https://mrdata.usgs.gov/to-json.php?db=ardf&id=ardf_num&labno=AN034
58,AN035,Mammoth,61.77,-149.32,"Low-sulfide Au-quartz veins ? (Cox and Singer, 1986; model 36a ?)",https://mrdata.usgs.gov/to-json.php?db=ardf&id=ardf_num&labno=AN035
59,AN036,Lydell,61.77,-149.31,,https://mrdata.usgs.gov/to-json.php?db=ardf&id=ardf_num&labno=AN036
60,AN037,Hatcher Creek,61.77,-149.29,"Placer Au (Cox and Singer, 1986; model 39a)",https://mrdata.usgs.gov/to-json.php?db=ardf&id=ardf_num&labno=AN037
61,AN038,Rae; San Juan; Jennings Group,61.78,-149.25,"Low-sulfide Au-quartz veins ? (Cox and Singer, 1986; model 36a ?)",https://mrdata.usgs.gov/to-json.php?db=ardf&id=ardf_num&labno=AN038
62,AN039,Fishhook Creek,61.76,-149.23,"Placer Au (Cox and Singer, 1986; model 39a)",https://mrdata.usgs.gov/to-json.php?db=ardf&id=ardf_num&labno=AN039
63,AN040,Miller,61.77,-149.21,,https://mrdata.usgs.gov/to-json.php?db=ardf&id=ardf_num&labno=AN040
64,AN041,Stiles; Styles; Shough,61.79,-149.22,"Low-sulfide Au-quartz veins (Cox and Singer, 1986; model 36a)",https://mrdata.usgs.gov/to-json.php?db=ardf&id=ardf_num&labno=AN041
65,AN042,Rae-Wallace; Alaska Free Gold Mining Co.; Rosenthal,61.791,-149.243,"Low-sulfide Au-quartz veins (Cox and Singer, 1986; model 36a)",https://mrdata.usgs.gov/to-json.php?db=ardf&id=ardf_num&labno=AN042
66,AN043,Mohawk,61.8,-149.25,"Low-sulfide Au-quartz veins (Cox and Singer, 1986; model 36a)",https://mrdata.usgs.gov/to-json.php?db=ardf&id=ardf_num&labno=AN043
67,AN044,Smith and Sutherland; Smith-Sargent (?),61.8,-149.22,"Low-sulfide Au-quartz veins ? (Cox and Singer, 1986; model 36a ?)",https://mrdata.usgs.gov/to-json.php?db=ardf&id=ardf_num&labno=AN044
68,AN045,Keystone,61.8,-149.24,"Low-sulfide Au-quartz veins ? (Cox and Singer, 1986; model 36a ?)",https://mrdata.usgs.gov/to-json.php?db=ardf&id=ardf_num&labno=AN045
69,AN046,"Arch; Fern, Taulman & Goodell; Sidney Ridge property",61.807,-149.234,"Low-sulfide Au-quartz veins (Cox and Singer, 1986; model 36a)",https://mrdata.usgs.gov/to-json.php?db=ardf&id=ardf_num&labno=AN046
70,AN047,Webfoot; Reed and Fiske; Grimes,61.811,-149.246,"Low-sulfide Au-quartz veins (Cox and Singer, 1986; model 36a)",https://mrdata.usgs.gov/to-json.php?db=ardf&id=ardf_num&labno=AN047
71,AN048,Gold Quartz; Alaska Quartz; Hilltoro,61.81,-149.22,"Low-sulfide Au-quartz veins (Cox and Singer, 1986; model 36a)",https://mrdata.usgs.gov/to-json.php?db=ardf&id=ardf_num&labno=AN048
72,AN049,Rutland,61.82,-149.25,"Low-sulfide Au-quartz veins ? (Cox and Singer, 1986; model 36a ?)",https://mrdata.usgs.gov/to-json.php?db=ardf&id=ardf_num&labno=AN049
73,AN050,Little Gem (Hatcher); Little Gem Gold Mining Company,61.83,-149.24,"Low-sulfide Au-quartz veins (Cox and Singer, 1986; model 36a)",https://mrdata.usgs.gov/to-json.php?db=ardf&id=ardf_num&labno=AN050
74,AN051,Giant Gold Mining Company,61.83,-149.25,"Low-sulfide Au-quartz veins ? (Cox and Singer, 1986; model 36a ?)",https://mrdata.usgs.gov/to-json.php?db=ardf&id=ardf_num&labno=AN051
75,AN052,Lane; Anchorage Gold Mines Co.; Glaciers,61.845,-149.232,"Low-sulfide Au-quartz veins (Cox and Singer, 1986; model 36a)",https://mrdata.usgs.gov/to-json.php?db=ardf&id=ardf_num&labno=AN052
76,AN053,Reed Creek,61.85,-149.15,,https://mrdata.usgs.gov/to-json.php?db=ardf&id=ardf_num&labno=AN053
77,AN054,Bailey,61.83,-149.18,,https://mrdata.usgs.gov/to-json.php?db=ardf&id=ardf_num&labno=AN054
78,AN055,Mogul,61.83,-149.17,"Low-sulfide Au-quartz veins (Cox and Singer, 1986; model 36a)",https://mrdata.usgs.gov/to-json.php?db=ardf&id=ardf_num&labno=AN055
79,AN056,Snowbird; Snow King; Sherry,61.832,-149.205,"Low-sulfide Au-quartz veins (Cox and Singer, 1986; model 36a)",https://mrdata.usgs.gov/to-json.php?db=ardf&id=ardf_num&labno=AN056
80,AN057,Homebuilder; McCoy; Babcock-McCoy; Idamar,61.82,-149.2,"Low-sulfide Au-quartz veins (Cox and Singer, 1986; model 36a)",https://mrdata.usgs.gov/to-json.php?db=ardf&id=ardf_num&labno=AN057
81,AN058,Mary Ann,61.82,-149.18,"Low-sulfide Au-quartz veins (Cox and Singer, 1986; model 36a)",https://mrdata.usgs.gov/to-json.php?db=ardf&id=ardf_num&labno=AN058
82,AN059,Good Hope,61.82,-149.19,"Low-sulfide Au-quartz veins (Cox and Singer, 1986; model 36a)",https://mrdata.usgs.gov/to-json.php?db=ardf&id=ardf_num&labno=AN059
83,AN060,Opal,61.82,-149.21,"Low-sulfide Au-quartz veins (Cox and Singer, 1986; model 36a)",https://mrdata.usgs.gov/to-json.php?db=ardf&id=ardf_num&labno=AN060
84,AN061,Archangel; Le Roi Mining Co.; Alaska-Willow Creek,61.8,-149.17,"Low-sulfide Au-quartz veins (Cox and Singer, 1986; model 36a)",https://mrdata.usgs.gov/to-json.php?db=ardf&id=ardf_num&labno=AN061
85,AN062,Little Susitna River,61.79,-149.14,,https://mrdata.usgs.gov/to-json.php?db=ardf&id=ardf_num&labno=AN062
86,AN063,Lonesome; Gold Mint; Kelly Gold Mint; Hatcher,61.786,-149.122,"Low-sulfide Au-quartz veins (Cox and Singer, 1986; model 36a)",https://mrdata.usgs.gov/to-json.php?db=ardf&id=ardf_num&labno=AN063
87,AN064,Maverick,61.79,-149.11,"Low-sulfide Au-quartz veins (Cox and Singer, 1986; model 36a)",https://mrdata.usgs.gov/to-json.php?db=ardf&id=ardf_num&labno=AN064
88,AN065,Lone Tree Gulch,61.78,-149.08,,https://mrdata.usgs.gov/to-json.php?db=ardf&id=ardf_num&labno=AN065
89,AN066,Moose Creek; Northwestern,61.79,-149.05,,https://mrdata.usgs.gov/to-json.php?db=ardf&id=ardf_num&labno=AN066
90,AN067,Kashwitna River,61.92,-148.96,,https://mrdata.usgs.gov/to-json.php?db=ardf&id=ardf_num&labno=AN067
91,AN068,Blue Quartz Mining Co.,61.9,-149.28,"Low-sulfide Au-quartz veins (Cox and Singer, 1986; model 36a)",https://mrdata.usgs.gov/to-json.php?db=ardf&id=ardf_num&labno=AN068
92,AN069,Peters Creek; Peterson Creek,61.88,-149.29,,https://mrdata.usgs.gov/to-json.php?db=ardf&id=ardf_num&labno=AN069
93,AN070,Little Willow Creek,61.93,-149.53,,https://mrdata.usgs.gov/to-json.php?db=ardf&id=ardf_num&labno=AN070
94,AN071,Thorpe,61.743,-149.425,,https://mrdata.usgs.gov/to-json.php?db=ardf&id=ardf_num&labno=AN071
95,AN072,Wheeler; Betts and Dimmick,61.74,-149.4,,https://mrdata.usgs.gov/to-json.php?db=ardf&id=ardf_num&labno=AN072
96,AN073,Unnamed,61.73,-149.39,Low-temperature metmorhpism of ultramafic rocks.,https://mrdata.usgs.gov/to-json.php?db=ardf&id=ardf_num&labno=AN073
97,AN074,Kings River,61.95,-148.5,,https://mrdata.usgs.gov/to-json.php?db=ardf&id=ardf_num&labno=AN074
98,AN075,Schoonoven Creek; Boulder Creek,61.83,-148.37,"Placer Au (Cox and Singer, 1986; model 39a)",https://mrdata.usgs.gov/to-json.php?db=ardf&id=ardf_num&labno=AN075
99,AN076,Chickaloon River,61.82,-148.42,"Placer Au (Cox and Singer, 1986; model 39a)",https://mrdata.usgs.gov/to-json.php?db=ardf&id=ardf_num&labno=AN076
100,AN077,Marshall Creek,61.8,-148.5,"Placer Au (Cox and Singer, 1986; model 39a)",https://mrdata.usgs.gov/to-json.php?db=ardf&id=ardf_num&labno=AN077
101,AN078,Horn Mountain,61.98,-147.5,"Burial diagenesis and low-grade regional metamorphism of tuffaceous rocks (Hawkins, 1976).",https://mrdata.usgs.gov/to-json.php?db=ardf&id=ardf_num&labno=AN078
102,AN079,Alfred Creek; Alaska Gold Mining. Co.; Caribou Creek,61.95,-147.48,"Placer Au (Cox and Singer, 1986; model 39a)",https://mrdata.usgs.gov/to-json.php?db=ardf&id=ardf_num&labno=AN079
103,AN080,Sheep Mountain,61.84,-147.47,,https://mrdata.usgs.gov/to-json.php?db=ardf&id=ardf_num&labno=AN080
104,AN081,Rusaw Creek,61.74,-147.44,"Porphyry Cu ? (Cox and Singer, 1986; model 17 ?)",https://mrdata.usgs.gov/to-json.php?db=ardf&id=ardf_num&labno=AN081
105,AN082,Poorman Creek,62.0,-147.28,"Placer Au (Cox and Singer, 1986; model 39a)",https://mrdata.usgs.gov/to-json.php?db=ardf&id=ardf_num&labno=AN082
106,AN083,South Creek,61.99,-147.31,"Placer Au (Cox and Singer, 1986; model 39a)",https://mrdata.usgs.gov/to-json.php?db=ardf&id=ardf_num&labno=AN083
107,AN084,Glacier Fork; Knik River - Glacier Fork,61.59,-148.2,"Polymetallic vein (Cox and Singer, 1986; model 22c)",https://mrdata.usgs.gov/to-json.php?db=ardf&id=ardf_num&labno=AN084
108,AN085,Metal Creek; Sumner and Andrulli,61.5,-148.4,"Placer Au (Cox and Singer, 1986; model 39a)",https://mrdata.usgs.gov/to-json.php?db=ardf&id=ardf_num&labno=AN085
109,AN086,Unnamed,61.63,-148.65,"Podiform chromite or Alaskan PGE (Cox and Singer, 1986; models 8a or 9)",https://mrdata.usgs.gov/to-json.php?db=ardf&id=ardf_num&labno=AN086
110,AN087,Jim Creek,61.57,-148.8,"Polymetallic vein (Cox and Singer, 1986; model 22c)",https://mrdata.usgs.gov/to-json.php?db=ardf&id=ardf_num&labno=AN087
111,AN088,Fall Creek,61.46,-148.58,,https://mrdata.usgs.gov/to-json.php?db=ardf&id=ardf_num&labno=AN088
112,AN089,Jim Lake,61.55,-148.89,,https://mrdata.usgs.gov/to-json.php?db=ardf&id=ardf_num&labno=AN089
113,AN090,Unnamed,61.58,-148.95,,https://mrdata.usgs.gov/to-json.php?db=ardf&id=ardf_num&labno=AN090
114,AN091,McRoberts Creek,61.59,-148.99,,https://mrdata.usgs.gov/to-json.php?db=ardf&id=ardf_num&labno=AN091
115,AN092,Matanuska River,61.78,-148.48,"Placer Au (Cox and Singer, 1986; model 39a)",https://mrdata.usgs.gov/to-json.php?db=ardf&id=ardf_num&labno=AN092
116,AN093,Eklutna Tunnel,61.47,-149.15,"Almaden Hg ? (Cox and Singer, 1986; model 27b ?)",https://mrdata.usgs.gov/to-json.php?db=ardf&id=ardf_num&labno=AN093
117,AN094,Pioneer Creek,61.46,-149.19,"Podiform chromite or Alaskan PGE (Cox and Singer, 1986; models 8a or 9)",https://mrdata.usgs.gov/to-json.php?db=ardf&id=ardf_num&labno=AN094
118,AN095,Highway,61.47,-149.2,"Podiform chromite or Alaskan PGE (Cox and Singer, 1986; models 8a or 9)",https://mrdata.usgs.gov/to-json.php?db=ardf&id=ardf_num&labno=AN095
119,AN096,West Twin Peak; West Ridge; Eklutna Creek,61.45,-149.23,"Podiform chromite or Alaskan PGE (Cox and Singer, 1986; models 8a or 9)",https://mrdata.usgs.gov/to-json.php?db=ardf&id=ardf_num&labno=AN096
120,AN097,Thunderbird Creek,61.43,-149.3,"Podiform chromite or Alaskan PGE (Cox and Singer, 1986; models 8a or 9)",https://mrdata.usgs.gov/to-json.php?db=ardf&id=ardf_num&labno=AN097
121,AN098,Myers,61.42,-149.39,"Kuroko massive sulfide ? (Cox and Singer, 1986; model 28a ?)",https://mrdata.usgs.gov/to-json.php?db=ardf&id=ardf_num&labno=AN098
122,AN099,Mount Eklutna,61.4,-149.36,"Podiform chromite or Alaskan PGE (Cox and Singer, 1986; models 8a or 9)",https://mrdata.usgs.gov/to-json.php?db=ardf&id=ardf_num&labno=AN099
123,AN100,Peters Creek; Jessie B.,61.24,-149.18,"Low-sulfide Au-quartz veins ? (Cox and Singer, 1986; model 36a ? ) or Chugach-type low-sulfide Au-quartz vein 36a.1 ? (Bliss, 1992; model 36a.1 ?)",https://mrdata.usgs.gov/to-json.php?db=ardf&id=ardf_num&labno=AN100
124,AN101,Potter,61.05,-149.77,,https://mrdata.usgs.gov/to-json.php?db=ardf&id=ardf_num&labno=AN101
125,AN102,Rainbow Creek,61.01,-149.64,"Placer Au (Cox and Singer, 1986; model 39a)",https://mrdata.usgs.gov/to-json.php?db=ardf&id=ardf_num&labno=AN102
126,AN103,Bird Creek,61.02,-149.41,"Placer Au (Cox and Singer, 1986; model 39a)",https://mrdata.usgs.gov/to-json.php?db=ardf&id=ardf_num&labno=AN103
127,AN104,Crow Creek; Erickson; Holmgren-Erickson property; Crow Creek Mining Co.; Girdwood property; Girdwood Mining Co.,61.0,-149.08,"Placer Au (Cox and Singer, 1986; model 39a)",https://mrdata.usgs.gov/to-json.php?db=ardf&id=ardf_num&labno=AN104
128,AN105,California Creek,61.01,-149.18,"Placer Au (Cox and Singer, 1986; model 39a)",https://mrdata.usgs.gov/to-json.php?db=ardf&id=ardf_num&labno=AN105
129,AN106,Unnamed (on Raggedtop Mountain),61.02,-149.13,"Chugach-type low-sulfide Au-quartz veins (Bliss, 1992; model 36a.1)",https://mrdata.usgs.gov/to-json.php?db=ardf&id=ardf_num&labno=AN106
130,AN107,Jewel; Monarch-Jewel; Crow Creek Gold Corporation; Gunnysack,61.043,-149.104,"Chugach-type low-sulfide Au-quartz veins (Bliss, 1992; model 36a.1)",https://mrdata.usgs.gov/to-json.php?db=ardf&id=ardf_num&labno=AN107
131,AN108,Brenner,61.045,-149.115,"Chugach-type low-sulfide Au-quartz veins (Bliss, 1992; model 36a.1)",https://mrdata.usgs.gov/to-json.php?db=ardf&id=ardf_num&labno=AN108
132,AN109,Agostino; Barnes Property; Monarch Mining Co.; Crow Creek Mining Co.,61.047,-149.11,"Chugach-type low-sulfide Au-quartz veins (Bliss, 1992; model 36a.1)",https://mrdata.usgs.gov/to-json.php?db=ardf&id=ardf_num&labno=AN109
133,AN110,Bahrenberg; Treasure Box; Hottentot,61.053,-149.098,"Chugach-type low-sulfide Au-quartz veins (Bliss, 1992; model 36a.1)",https://mrdata.usgs.gov/to-json.php?db=ardf&id=ardf_num&labno=AN110
134,AN111,Summit Mountain,61.06,-149.1,"Chugach-type low-sulfide Au-quartz veins (Bliss, 1992; model 36a.1)",https://mrdata.usgs.gov/to-json.php?db=ardf&id=ardf_num&labno=AN111
135,AN112,Raven Creek,61.1,-149.1,"Placer Au (Cox and Singer, 1986; model 39a)",https://mrdata.usgs.gov/to-json.php?db=ardf&id=ardf_num&labno=AN112
136,AN113,Eagle River; Mayflower,61.13,-149.09,"Low-sulfide Au-quartz veins ? (Cox and Singer, 1986; model 36a ? ) or Chugach-type low-sulfide Au-quartz vein ? (Bliss, 1992; model 36a.1 ?) or Polymetallic veins ? (Cox and Singer, 1986; model 22c ?)",https://mrdata.usgs.gov/to-json.php?db=ardf&id=ardf_num&labno=AN113
137,AN114,Twentymile River,61.0,-148.9,"Placer Au (Cox and Singer, 1986; model 39a)",https://mrdata.usgs.gov/to-json.php?db=ardf&id=ardf_num&labno=AN114
138,AN115,Alaska Homestake; Black and Hogan; SSSS; Bruno #4,61.08,-148.28,"Chugach-type low-sulfide Au-quartz veins (Bliss, 1992; model 36a.1)",https://mrdata.usgs.gov/to-json.php?db=ardf&id=ardf_num&labno=AN115
139,AN116,Singletary-O'Neil,61.04,-148.31,,https://mrdata.usgs.gov/to-json.php?db=ardf&id=ardf_num&labno=AN116
140,AN117,Roth and Johnson; Fiord #1 and #2,61.04,-148.27,"Chugach-type low-sulfide Au-quartz veins (Bliss, 1992; model 36a.1)",https://mrdata.usgs.gov/to-json.php?db=ardf&id=ardf_num&labno=AN117
141,AN118,Olson and Viette; Dominick Ledge,61.0,-148.25,,https://mrdata.usgs.gov/to-json.php?db=ardf&id=ardf_num&labno=AN118
142,AN119,Lagoon Creek,61.0,-148.24,"Chugach-type low-sulfide Au-quartz veins (Bliss, 1992; model 36a.1 ?) or Epithermal Au vein ?",https://mrdata.usgs.gov/to-json.php?db=ardf&id=ardf_num&labno=AN119
143,AN120,Mitchell and Myers,61.02,-148.2,"Chugach-type low-sulfide Au-quartz veins (Bliss, 1992; model 36a.1 ?) or Epithermal Au vein ?",https://mrdata.usgs.gov/to-json.php?db=ardf&id=ardf_num&labno=AN120
144,AN121,H.G. Cloes,61.03,-148.17,"Chugach-type low-sulfide Au-quartz vein ? (Bliss, 1992; model 36a.1 ?) or Polymetallic veins ? (Cox and Singer, 1986; model 22c ?)",https://mrdata.usgs.gov/to-json.php?db=ardf&id=ardf_num&labno=AN121
145,AN122,Reiter and Olson; Point Doran; Bruno 1-3,61.07,-148.16,"Chugach-type low-sulfide Au-quartz veins (Bliss, 1992; model 36a.1 ?) or Epithermal Au vein ?",https://mrdata.usgs.gov/to-json.php?db=ardf&id=ardf_num&labno=AN122
146,AN123,Barry Arm; Barry Arm antimony,61.1,-148.15,"Simple Sb deposits (Cox and Singer, 1986; model 27d)",https://mrdata.usgs.gov/to-json.php?db=ardf&id=ardf_num&labno=AN123
147,AN124,Capitol Hill,61.1,-148.15,"Chugach-type low-sulfide Au-quartz veins (Bliss, 1992; model 36a.1 ?) or Epithermal Au vein ?",https://mrdata.usgs.gov/to-json.php?db=ardf&id=ardf_num&labno=AN124
148,AN125,Paymaster; Golden Seal,61.09,-148.12,"Chugach-type low-sulfide Au-quartz veins (Bliss, 1992; model 36a.1 ?) or Epithermal Au vein ?",https://mrdata.usgs.gov/to-json.php?db=ardf&id=ardf_num&labno=AN125
149,AN126,Mount Curtis,61.08,-148.1,"Chugach-type low-sulfide Au-quartz veins (Bliss, 1992; model 36a.1 ?) or Epithermal Au vein ?",https://mrdata.usgs.gov/to-json.php?db=ardf&id=ardf_num&labno=AN126
150,AN127,Simonton & Mills; Alaska Wonder Ledge,61.07,-148.11,"Chugach-type low-sulfide Au-quartz veins (Bliss, 1992; model 36a.1 ?) or Epithermal Au vein ?",https://mrdata.usgs.gov/to-json.php?db=ardf&id=ardf_num&labno=AN127
151,AN128,"Walters, Brasslin, & Atkinson",61.05,-148.06,"Chugach-type low-sulfide Au-quartz veins (Bliss, 1992; model 36a.1 ?) or Epithermal Au vein ?",https://mrdata.usgs.gov/to-json.php?db=ardf&id=ardf_num&labno=AN128
152,AN129,Last Chance No. 2; Last Chance,61.02,-148.08,"Chugach-type low-sulfide Au-quartz vein ? (Bliss, 1992; model 36a.1 ?) or Polymetallic veins ? (Cox and Singer, 1986; model 22c ?)",https://mrdata.usgs.gov/to-json.php?db=ardf&id=ardf_num&labno=AN129
153,AN130,Cameron; Charles Cameron,61.01,-148.08,"Chugach-type low-sulfide Au-quartz veins (Bliss, 1992; model 36a.1)",https://mrdata.usgs.gov/to-json.php?db=ardf&id=ardf_num&labno=AN130
154,AN131,Griset and Benson; Eureka and Spruce Groups,61.02,-148.05,"Chugach-type low-sulfide Au-quartz vein ? (Bliss, 1992; model 36a.1 ?)",https://mrdata.usgs.gov/to-json.php?db=ardf&id=ardf_num&labno=AN131
155,AN132,Q. & Q.,61.06,-147.97,"Chugach-type low-sulfide Au-quartz vein ? (Bliss, 1992; model 36a.1 ?)",https://mrdata.usgs.gov/to-json.php?db=ardf&id=ardf_num&labno=AN132
156,AN133,Osceola,61.1,-147.9,"Chugach-type low-sulfide Au-quartz vein ? (Bliss, 1992; model 36a.1 ?)",https://mrdata.usgs.gov/to-json.php?db=ardf&id=ardf_num&labno=AN133
157,AN134,Cann and Minor,61.09,-147.9,"Chugach-type low-sulfide Au-quartz veins (Bliss, 1992; model 36a.1 ?) or Epithermal Au vein ?",https://mrdata.usgs.gov/to-json.php?db=ardf&id=ardf_num&labno=AN134
158,AN135,Lafayette Glacier,61.05,-147.85,"Placer Au (Cox and Singer, 1986; model 39a)",https://mrdata.usgs.gov/to-json.php?db=ardf&id=ardf_num&labno=AN135
159,AN136,Unnamed (near Crescent Glacier),61.02,-147.91,"Placer Au (Cox and Singer, 1986; model 39a)",https://mrdata.usgs.gov/to-json.php?db=ardf&id=ardf_num&labno=AN136
160,AN137,Unnamed (northwestern tributary to Jonah Bay),61.04,-147.68,"Placer Au (Cox and Singer, 1986; model 39a)",https://mrdata.usgs.gov/to-json.php?db=ardf&id=ardf_num&labno=AN137
161,AN138,Unnamed (western tributary to Unakwik Inlet),61.07,-147.63,"Placer Au (Cox and Singer, 1986; model 39a)",https://mrdata.usgs.gov/to-json.php?db=ardf&id=ardf_num&labno=AN138
162,AN139,Northwest Fork of Coghill River,61.14,-147.74,"Placer Au (Cox and Singer, 1986; model 39a)",https://mrdata.usgs.gov/to-json.php?db=ardf&id=ardf_num&labno=AN139
163,AN140,Unnamed (near Dartmouth Glacier),61.17,-147.66,"Chugach-type low-sulfide Au-quartz veins (Bliss, 1992; model 36a.1 ?) or Epithermal Au vein ?",https://mrdata.usgs.gov/to-json.php?db=ardf&id=ardf_num&labno=AN140
164,AN141,Unnamed (near Yale Glacier),61.19,-147.67,"Simple Sb deposit (Cox and Singer, 1986; model 27d)",https://mrdata.usgs.gov/to-json.php?db=ardf&id=ardf_num&labno=AN141
165,AN142,Unnamed (near Mears Glacier),61.19,-147.49,"Polymetallic veins ? (Cox and Singer, 1986; model 22c ? )",https://mrdata.usgs.gov/to-json.php?db=ardf&id=ardf_num&labno=AN142
166,AN143,War Eagle,61.12,-147.36,,https://mrdata.usgs.gov/to-json.php?db=ardf&id=ardf_num&labno=AN143
167,AN144,Miners River; Miners River Nickel; Miners Bay,61.09,-147.41,,https://mrdata.usgs.gov/to-json.php?db=ardf&id=ardf_num&labno=AN144
168,AN145,Miners River; Miners Bay Discovery,61.11,-147.38,"Placer Au (Cox and Singer, 1986; model 39a)",https://mrdata.usgs.gov/to-json.php?db=ardf&id=ardf_num&labno=AN145
169,AN146,Brown Bear; Norris Lead-Zinc Inc.,61.09,-147.37,"Polymetallic veins ? (Cox and Singer, 1986; model 22c ? )",https://mrdata.usgs.gov/to-json.php?db=ardf&id=ardf_num&labno=AN146
170,AN147,Miners River No. 1,61.09,-147.33,"Polymetallic veins ? (Cox and Singer, 1986; model 22c ? )",https://mrdata.usgs.gov/to-json.php?db=ardf&id=ardf_num&labno=AN147
171,AN148,Four-in-One,61.09,-147.29,,https://mrdata.usgs.gov/to-json.php?db=ardf&id=ardf_num&labno=AN148
172,AN149,Miners River No. 2,61.08,-147.35,,https://mrdata.usgs.gov/to-json.php?db=ardf&id=ardf_num&labno=AN149
173,AN150,Wells Bay,61.02,-147.39,"Kuroko massive sulfide ? (Cox and Singer, 1986; model 28a ?)",https://mrdata.usgs.gov/to-json.php?db=ardf&id=ardf_num&labno=AN150
174,AN151,Wells Bay No. 1,61.02,-147.33,Hydrothermal vein,https://mrdata.usgs.gov/to-json.php?db=ardf&id=ardf_num&labno=AN151
175,AN152,Wells Bay No. 2,61.06,-147.3,,https://mrdata.usgs.gov/to-json.php?db=ardf&id=ardf_num&labno=AN152
176,AN153,Wells Bay No. 3,61.07,-147.29,,https://mrdata.usgs.gov/to-json.php?db=ardf&id=ardf_num&labno=AN153
177,AN154,Wells Bay No. 4,61.05,-147.4,,https://mrdata.usgs.gov/to-json.php?db=ardf&id=ardf_num&labno=AN154
178,AN155,Globe; Long Bay,61.02,-147.21,Submarine volcanogenic massive sulfide ?,https://mrdata.usgs.gov/to-json.php?db=ardf&id=ardf_num&labno=AN155
179,AN156,Long Bay No. 1,61.04,-147.28,,https://mrdata.usgs.gov/to-json.php?db=ardf&id=ardf_num&labno=AN156
180,AN157,Terentiev Lake,61.06,-147.17,"Low-sulfide Au-quartz veins ? (Cox and Singer, 1986; model 36a ?) or Chugach-type low-sulfide Au-quartz vein ? (Bliss, 1992; model 36a.1 ?)",https://mrdata.usgs.gov/to-json.php?db=ardf&id=ardf_num&labno=AN157
181,AN158,"Idle Claim, Columbia Red Metals Group",61.11,-147.14,"Chugach-type low-sulfide Au-quartz vein ? (Bliss, 1992; model 36a.1 ?)",https://mrdata.usgs.gov/to-json.php?db=ardf&id=ardf_num&labno=AN158
182,AN159,"Columbia Claim, Columbia Red Metals Group",61.11,-147.13,,https://mrdata.usgs.gov/to-json.php?db=ardf&id=ardf_num&labno=AN159
183,AN160,Unnamed (near Columbia Glacier),61.1,-147.03,"Placer Au (Cox and Singer, 1986; model 39a)",https://mrdata.usgs.gov/to-json.php?db=ardf&id=ardf_num&labno=AN160
184,AN161,Homesteader-Martha,61.8,-149.3,"Low-sulfide Au-quartz veins ? (Cox and Singer, 1986; model 36a ?)",https://mrdata.usgs.gov/to-json.php?db=ardf&id=ardf_num&labno=AN161
185,AN162,Metal Creek,61.63,-148.39,,https://mrdata.usgs.gov/to-json.php?db=ardf&id=ardf_num&labno=AN162
186,AR001,Kobuk River,67.15,-158.9,,https://mrdata.usgs.gov/to-json.php?db=ardf&id=ardf_num&labno=AR001
187,AR002,Unnamed Occurence,67.3,-158.85,Serpentine-hosted asbestos,https://mrdata.usgs.gov/to-json.php?db=ardf&id=ardf_num&labno=AR002
188,AR003,Unnamed,67.31,-158.8,Serpentine-hosted asbestos,https://mrdata.usgs.gov/to-json.php?db=ardf&id=ardf_num&labno=AR003
189,AR004,Hunt River,67.33,-158.55,Serpentine-hosted asbestos,https://mrdata.usgs.gov/to-json.php?db=ardf&id=ardf_num&labno=AR004
190,AR005,Unnamed,67.25,-158.18,Kipushi ?,https://mrdata.usgs.gov/to-json.php?db=ardf&id=ardf_num&labno=AR005
191,AR006,Jade Mountain,67.21,-158.05,Serpentine-hosted asbestos,https://mrdata.usgs.gov/to-json.php?db=ardf&id=ardf_num&labno=AR006
192,AR007,Jade Hills,67.17,-157.8,Serpentine-hosted asbestos,https://mrdata.usgs.gov/to-json.php?db=ardf&id=ardf_num&labno=AR007
193,AR008,Bismark Creek,67.006,-157.29,Placer,https://mrdata.usgs.gov/to-json.php?db=ardf&id=ardf_num&labno=AR008
194,AR009,Shungnak Rivers; Shingnek Creek,67.031,-157.235,Placer,https://mrdata.usgs.gov/to-json.php?db=ardf&id=ardf_num&labno=AR009
195,AR010,Bismark Mountain,67.05,-157.26,Serpentine-hosted asbestos,https://mrdata.usgs.gov/to-json.php?db=ardf&id=ardf_num&labno=AR010
196,AR011,Cosmos Creek,67.01,-157.14,Serpentine-hosted asbestos/placer Au,https://mrdata.usgs.gov/to-json.php?db=ardf&id=ardf_num&labno=AR011
197,AR012,Aurora Mt.,67.062,-157.092,Kipushi,https://mrdata.usgs.gov/to-json.php?db=ardf&id=ardf_num&labno=AR012
198,AR013,Pardner's Hill; Partners Hill; Eightmile Mt.,67.064,-157.017,Kipushi ?,https://mrdata.usgs.gov/to-json.php?db=ardf&id=ardf_num&labno=AR013
199,AR014,Iron Mountain,67.1,-157.0,Superior Fe ??,https://mrdata.usgs.gov/to-json.php?db=ardf&id=ardf_num&labno=AR014
200,AR015,Unnamed,67.01,-157.01,Kipushi ?,https://mrdata.usgs.gov/to-json.php?db=ardf&id=ardf_num&labno=AR015
201,AR016,"Dahl Creek Head; Asbestos Mountain, Ing-Ink",67.009,-156.825,Serpentine-hosted asbestos,https://mrdata.usgs.gov/to-json.php?db=ardf&id=ardf_num&labno=AR016
202,AR017,Riley Creek,67.039,-156.897,Placer,https://mrdata.usgs.gov/to-json.php?db=ardf&id=ardf_num&labno=AR017
203,AR018,Bornite; Ruby Creek,67.0624,-156.948,"Mississippi Valley or Olympic Dan similarities? Kipushi Cu-Co deposit? (Cox and Singer, 1986, model 32c).",https://mrdata.usgs.gov/to-json.php?db=ardf&id=ardf_num&labno=AR018
204,AR019,Jay Creek,67.07,-156.96,Placer,https://mrdata.usgs.gov/to-json.php?db=ardf&id=ardf_num&labno=AR019
205,AR020,Pearl Creek,67.1,-156.8,Placer,https://mrdata.usgs.gov/to-json.php?db=ardf&id=ardf_num&labno=AR020
206,AR021,Canyon Creek,67.0,-156.63,Placer,https://mrdata.usgs.gov/to-json.php?db=ardf&id=ardf_num&labno=AR021
207,AR022,Tom Tom; Que Creek,67.136,-156.153,Kuroko,https://mrdata.usgs.gov/to-json.php?db=ardf&id=ardf_num&labno=AR022
208,AR023,Diane Creek,67.15,-156.22,Kuroko,https://mrdata.usgs.gov/to-json.php?db=ardf&id=ardf_num&labno=AR023
209,AR024,Luk-Imp,67.28,-156.2,Kuroko,https://mrdata.usgs.gov/to-json.php?db=ardf&id=ardf_num&labno=AR024
210,AR025,Arctic; Ambler,67.174,-156.3875,"Kuroko massive sulfide (Cox and Singer, 1986; model 28a).",https://mrdata.usgs.gov/to-json.php?db=ardf&id=ardf_num&labno=AR025
211,AR026,Dead Creek; Steptoes,67.2,-156.5,Kuroko,https://mrdata.usgs.gov/to-json.php?db=ardf&id=ardf_num&labno=AR026
212,AR027,SK,67.24,-156.51,Kuroko,https://mrdata.usgs.gov/to-json.php?db=ardf&id=ardf_num&labno=AR027
213,AR028,"Sunshine Creek (CS), Bud Group",67.22,-156.63,Kuroko,https://mrdata.usgs.gov/to-json.php?db=ardf&id=ardf_num&labno=AR028
214,AR029,"Horse Creek; Cliff; Dh, Lost",67.31,-156.7,Kuroko,https://mrdata.usgs.gov/to-json.php?db=ardf&id=ardf_num&labno=AR029
215,AR030,Snow,67.25,-157.0,Kuroko,https://mrdata.usgs.gov/to-json.php?db=ardf&id=ardf_num&labno=AR030
216,AR031,Unnamed,67.28,-157.03,Kuroko ?,https://mrdata.usgs.gov/to-json.php?db=ardf&id=ardf_num&labno=AR031
217,AR032,Sleet Creek,67.28,-157.19,Kuroko ?,https://mrdata.usgs.gov/to-json.php?db=ardf&id=ardf_num&labno=AR032
218,AR033,"Smucker; Charlie, Patti, Puzzle, Ambler 4-B",67.292,-157.167,Kuroko,https://mrdata.usgs.gov/to-json.php?db=ardf&id=ardf_num&labno=AR033
219,AR034,Unnamed,67.31,-157.19,,https://mrdata.usgs.gov/to-json.php?db=ardf&id=ardf_num&labno=AR034
220,AR035,Cobre,67.38,-157.2,Kuroko ?,https://mrdata.usgs.gov/to-json.php?db=ardf&id=ardf_num&labno=AR035
221,AR036,Agnes Creek,67.23,-157.49,Placer,https://mrdata.usgs.gov/to-json.php?db=ardf&id=ardf_num&labno=AR036
222,AR037,Unnamed,67.42,-156.28,Skarn,https://mrdata.usgs.gov/to-json.php?db=ardf&id=ardf_num&labno=AR037
223,AR038,Unnamed,67.42,-156.32,Skarn,https://mrdata.usgs.gov/to-json.php?db=ardf&id=ardf_num&labno=AR038
224,AR039,Unnamed,67.42,-156.38,,https://mrdata.usgs.gov/to-json.php?db=ardf&id=ardf_num&labno=AR039
225,AR040,Unnamed,67.39,-156.44,,https://mrdata.usgs.gov/to-json.php?db=ardf&id=ardf_num&labno=AR040
226,AR041,Unnamed,67.4,-156.49,Skarn,https://mrdata.usgs.gov/to-json.php?db=ardf&id=ardf_num&labno=AR041
227,AR042,Unnamed,67.44,-156.45,Skarn,https://mrdata.usgs.gov/to-json.php?db=ardf&id=ardf_num&labno=AR042
228,AR043,Unnamed,67.41,-156.59,Skarn?,https://mrdata.usgs.gov/to-json.php?db=ardf&id=ardf_num&labno=AR043
229,AR044,Unnamed,67.41,-156.65,Skarn,https://mrdata.usgs.gov/to-json.php?db=ardf&id=ardf_num&labno=AR044
230,AR045,Unnamed; Cutler River,67.42,-157.58,,https://mrdata.usgs.gov/to-json.php?db=ardf&id=ardf_num&labno=AR045
231,AR046,Unnamed,67.46,-158.13,,https://mrdata.usgs.gov/to-json.php?db=ardf&id=ardf_num&labno=AR046
232,AR047,Kalvich Area,67.56,-158.2,Skarn,https://mrdata.usgs.gov/to-json.php?db=ardf&id=ardf_num&labno=AR047
233,AR048,Kaluich Creek,67.64,-158.37,"Shale-hosted? (Schmidt and Werdon, 1993, p. 143)",https://mrdata.usgs.gov/to-json.php?db=ardf&id=ardf_num&labno=AR048
234,AR049,Malfiatti,67.53,-158.99,,https://mrdata.usgs.gov/to-json.php?db=ardf&id=ardf_num&labno=AR049
235,AR050,Unnamed,67.61,-158.79,,https://mrdata.usgs.gov/to-json.php?db=ardf&id=ardf_num&labno=AR050
236,AR051,Natmotirak Creek,67.69,-158.89,Sediment-hosted Pb-Zn ?,https://mrdata.usgs.gov/to-json.php?db=ardf&id=ardf_num&labno=AR051
237,AR052,Nanielik Creek,67.92,-158.87,Sediment-hosted Pb-Zn?,https://mrdata.usgs.gov/to-json.php?db=ardf&id=ardf_num&labno=AR052
238,AR053,Unnamed,67.58,-156.01,,https://mrdata.usgs.gov/to-json.php?db=ardf&id=ardf_num&labno=AR053
239,AR054,Unnamed,67.59,-156.18,Kipushi (?),https://mrdata.usgs.gov/to-json.php?db=ardf&id=ardf_num&labno=AR054
240,AR055,Unnamed,67.53,-156.44,,https://mrdata.usgs.gov/to-json.php?db=ardf&id=ardf_num&labno=AR055
241,AR056,Ambler River Headwaters,67.59,-156.52,Polymetallic vein?,https://mrdata.usgs.gov/to-json.php?db=ardf&id=ardf_num&labno=AR056
242,AR057,Unnamed,67.55,-156.61,Skarn?,https://mrdata.usgs.gov/to-json.php?db=ardf&id=ardf_num&labno=AR057
243,AR058,Unnamed,67.62,-157.22,"Polymetallic vein? see Schmidt, 1996; Schmidt and Werdon, 1993",https://mrdata.usgs.gov/to-json.php?db=ardf&id=ardf_num&labno=AR058
244,AR059,Imelyak River,67.64,-157.22,"Polymetallic vein?  (see Schmidt and Werdon, 1993, p. 143)",https://mrdata.usgs.gov/to-json.php?db=ardf&id=ardf_num&labno=AR059
245,AR060,Tunukuchiak Creek,67.7,-156.5,Placer,https://mrdata.usgs.gov/to-json.php?db=ardf&id=ardf_num&labno=AR060
246,AR061,Midas Creek,67.85,-156.22,Stream placer,https://mrdata.usgs.gov/to-json.php?db=ardf&id=ardf_num&labno=AR061
247,AR062,"Ningyoyak Creek, EXP Prospect",67.88,-156.31,"Polymetallic vein (Schmidt and Werdon, 1993)",https://mrdata.usgs.gov/to-json.php?db=ardf&id=ardf_num&labno=AR062
248,AR063,Kav,67.81,-156.76,Kipushi?,https://mrdata.usgs.gov/to-json.php?db=ardf&id=ardf_num&labno=AR063
249,AR064,Unnamed,67.84,-156.81,"Polymetallic vein? (see Schmidt and Werdon, 1993, p. 143)",https://mrdata.usgs.gov/to-json.php?db=ardf&id=ardf_num&labno=AR064
250,AR065,Unnamed,67.87,-157.04,"Pollymetallic vein? (see Schmidt and Werdon, 1993, p. 143)",https://mrdata.usgs.gov/to-json.php?db=ardf&id=ardf_num&labno=AR065
251,AT001,Unknown (east of Abraham Bay),52.85,-172.82,,https://mrdata.usgs.gov/to-json.php?db=ardf&id=ardf_num&labno=AT001
252,AT002,Unnamed (west of Chirikof Point),52.82,-173.42,,https://mrdata.usgs.gov/to-json.php?db=ardf&id=ardf_num&labno=AT002
253,BB001,Unnamed (beach southwest of Cinder River),57.172,-158.479,"Shoreline placer titanium (Cox and Singer, 1986; model  39c)",https://mrdata.usgs.gov/to-json.php?db=ardf&id=ardf_num&labno=BB001
254,BC001,Huff; Spud,56.4843,-131.9864,Lead-zinc replacement deposit in marble; cut by fractures with pods and lenses of vuggy fluorite and quartz with minor galena and sphalerite.,https://mrdata.usgs.gov/to-json.php?db=ardf&id=ardf_num&labno=BC001
255,BC002,Copper King,56.4404,-131.9644,Quartz vein with sulfides.,https://mrdata.usgs.gov/to-json.php?db=ardf&id=ardf_num&labno=BC002
256,BC003,Berg,56.3967,-131.9435,,https://mrdata.usgs.gov/to-json.php?db=ardf&id=ardf_num&labno=BC003
257,BC004,Unnamed (near Cone Mountain),56.514,-131.735,Felsic plutonic uranium?,https://mrdata.usgs.gov/to-json.php?db=ardf&id=ardf_num&labno=BC004
258,BC005,Unnamed,56.222,-131.746,,https://mrdata.usgs.gov/to-json.php?db=ardf&id=ardf_num&labno=BC005
259,BC006,Waco,56.31,-131.61,,https://mrdata.usgs.gov/to-json.php?db=ardf&id=ardf_num&labno=BC006
260,BC007,Unnamed,56.26,-131.6,,https://mrdata.usgs.gov/to-json.php?db=ardf&id=ardf_num&labno=BC007
261,BC008,Zimovia,56.17,-131.57,,https://mrdata.usgs.gov/to-json.php?db=ardf&id=ardf_num&labno=BC008
262,BC009,North Bradfield River; Ptarmigan,56.4012,-131.4084,"Cu-Fe skarn (Cox and Singer, 1986; model 18d)",https://mrdata.usgs.gov/to-json.php?db=ardf&id=ardf_num&labno=BC009
263,BC010,Craig,56.4652,-131.2605,Layered and disseminated sulfides in metamorphic rocks and skarn.,https://mrdata.usgs.gov/to-json.php?db=ardf&id=ardf_num&labno=BC010
264,BC011,Unnamed,56.12,-131.17,Skarn,https://mrdata.usgs.gov/to-json.php?db=ardf&id=ardf_num&labno=BC011
265,BC012,Unnamed,56.39,-130.98,Porphyry molybdenum?,https://mrdata.usgs.gov/to-json.php?db=ardf&id=ardf_num&labno=BC012
266,BC013,Unuk River,56.33,-130.77,Polymetallic vein?,https://mrdata.usgs.gov/to-json.php?db=ardf&id=ardf_num&labno=BC013
267,BC014,Boundary,56.33,-130.78,Placer?,https://mrdata.usgs.gov/to-json.php?db=ardf&id=ardf_num&labno=BC014
268,BC015,Joker,56.201,-130.454,Polymetallic veins?,https://mrdata.usgs.gov/to-json.php?db=ardf&id=ardf_num&labno=BC015
269,BC016,Unnamed,56.047,-130.393,Polymetallic vein,https://mrdata.usgs.gov/to-json.php?db=ardf&id=ardf_num&labno=BC016
270,BC017,Glacier; Banded Mountain,56.04,-130.4,Polymetallic veins,https://mrdata.usgs.gov/to-json.php?db=ardf&id=ardf_num&labno=BC017
271,BC018,Goat; Cub,56.017,-130.417,Polymetallic veins,https://mrdata.usgs.gov/to-json.php?db=ardf&id=ardf_num&labno=BC018
272,BC019,"Marmot, upper basin",56.026,-130.369,Polymetallic veins,https://mrdata.usgs.gov/to-json.php?db=ardf&id=ardf_num&labno=BC019
273,BC020,Edelweiss; Marmot group,56.026,-130.354,Polymetallic veins,https://mrdata.usgs.gov/to-json.php?db=ardf&id=ardf_num&labno=BC020
274,BC021,"Jumbo; Marmot, lower basin",56.019,-130.35,Polymetallic veins,https://mrdata.usgs.gov/to-json.php?db=ardf&id=ardf_num&labno=BC021
275,BC022,Galena; Marmot group,56.031,-130.332,Polymetallic veins,https://mrdata.usgs.gov/to-json.php?db=ardf&id=ardf_num&labno=BC022
276,BC023,Greenpoint,56.025,-130.322,Polymetallic veins,https://mrdata.usgs.gov/to-json.php?db=ardf&id=ardf_num&labno=BC023
277,BC024,Heckla; Greenpoint,56.012,-130.329,Polymetallic veins,https://mrdata.usgs.gov/to-json.php?db=ardf&id=ardf_num&labno=BC024
278,BC025,Cathedral,56.075,-130.285,Polymetallic veins,https://mrdata.usgs.gov/to-json.php?db=ardf&id=ardf_num&labno=BC025
279,BC026,Marietta; Pecos; Solo Pecos,56.076,-130.258,Polymetallic veins,https://mrdata.usgs.gov/to-json.php?db=ardf&id=ardf_num&labno=BC026
280,BC027,Chickamin,56.071,-130.272,Polymetallic veins,https://mrdata.usgs.gov/to-json.php?db=ardf&id=ardf_num&labno=BC027
281,BC028,Silver King,56.068,-130.267,Polymetallic veins,https://mrdata.usgs.gov/to-json.php?db=ardf&id=ardf_num&labno=BC028
282,BC029,Hummel,56.065,-130.242,Polymetallic veins,https://mrdata.usgs.gov/to-json.php?db=ardf&id=ardf_num&labno=BC029
283,BC030,Double Anchor; Alaska State Mines Extension,56.064,-130.258,Polymetallic veins,https://mrdata.usgs.gov/to-json.php?db=ardf&id=ardf_num&labno=BC030
284,BC031,Dugas; Stampede; Blasher Extension,56.063,-130.271,Polymetallic veins,https://mrdata.usgs.gov/to-json.php?db=ardf&id=ardf_num&labno=BC031
285,BC032,Blasher; Lone Star Group,56.056,-130.265,Polymetallic veins,https://mrdata.usgs.gov/to-json.php?db=ardf&id=ardf_num&labno=BC032
286,BC033,Morning; Lakeside; Lone Star Group,56.053,-130.268,Polymetallic veins,https://mrdata.usgs.gov/to-json.php?db=ardf&id=ardf_num&labno=BC033
287,BC034,Lake,56.057,-130.274,Polymetallic veins,https://mrdata.usgs.gov/to-json.php?db=ardf&id=ardf_num&labno=BC034
288,BC035,Hummel Canyon,56.044,-130.292,,https://mrdata.usgs.gov/to-json.php?db=ardf&id=ardf_num&labno=BC035
289,BC036,Swennings Greenpoint,56.015,-130.264,Polymetallic veins,https://mrdata.usgs.gov/to-json.php?db=ardf&id=ardf_num&labno=BC036
290,BC037,Texas Creek Comstock; Hyder Lead; Texas Comstock; Joe Joe; Fortuna; Alaska-Comstock; Jackson-Hummel,56.042,-130.256,Polymetallic veins,https://mrdata.usgs.gov/to-json.php?db=ardf&id=ardf_num&labno=BC037
291,BC038,Raygold,56.04,-130.23,,https://mrdata.usgs.gov/to-json.php?db=ardf&id=ardf_num&labno=BC038
292,BC039,Keno,56.031,-130.232,Polymetallic veins,https://mrdata.usgs.gov/to-json.php?db=ardf&id=ardf_num&labno=BC039
293,BC040,Juneau,56.025,-130.214,Polymetallic veins,https://mrdata.usgs.gov/to-json.php?db=ardf&id=ardf_num&labno=BC040
294,BC041,Sunset,56.022,-130.21,Polymetallic veins,https://mrdata.usgs.gov/to-json.php?db=ardf&id=ardf_num&labno=BC041
295,BC042,Engineer,56.044,-130.218,Polymetallic veins,https://mrdata.usgs.gov/to-json.php?db=ardf&id=ardf_num&labno=BC042
296,BC043,North Star; Bevacque; Bervaqua,56.047,-130.222,Polymetallic veins,https://mrdata.usgs.gov/to-json.php?db=ardf&id=ardf_num&labno=BC043
297,BC044,Jumbo (near Texas Creek),56.053,-130.207,Polymetallic veins,https://mrdata.usgs.gov/to-json.php?db=ardf&id=ardf_num&labno=BC044
298,BC045,Iron Cap,56.068,-130.214,Polymetallic veins,https://mrdata.usgs.gov/to-json.php?db=ardf&id=ardf_num&labno=BC045
299,BC046,Silver Bell,56.075,-130.203,Polymetallic veins,https://mrdata.usgs.gov/to-json.php?db=ardf&id=ardf_num&labno=BC046
300,BC047,Silver Star,56.071,-130.192,Polymetallic veins,https://mrdata.usgs.gov/to-json.php?db=ardf&id=ardf_num&labno=BC047
301,BC048,Texas Discovery,56.064,-130.197,Polymetallic veins,https://mrdata.usgs.gov/to-json.php?db=ardf&id=ardf_num&labno=BC048
302,BC049,Ibex,56.076,-130.181,Polymetallic veins,https://mrdata.usgs.gov/to-json.php?db=ardf&id=ardf_num&labno=BC049
303,BC050,Silver Coin,56.0779,-130.167,Polymetallic vein,https://mrdata.usgs.gov/to-json.php?db=ardf&id=ardf_num&labno=BC050
304,BC051,Homestake,56.075,-130.169,Polymetallic veins,https://mrdata.usgs.gov/to-json.php?db=ardf&id=ardf_num&labno=BC051
305,BC052,Evening Star; Morning Star,56.069,-130.171,Polymetallic veins,https://mrdata.usgs.gov/to-json.php?db=ardf&id=ardf_num&labno=BC052
306,BC053,Nothiger; Standard,56.051,-130.178,Polymetallic veins,https://mrdata.usgs.gov/to-json.php?db=ardf&id=ardf_num&labno=BC053
307,BC054,Liberty,56.054,-130.171,Polymetallic veins,https://mrdata.usgs.gov/to-json.php?db=ardf&id=ardf_num&labno=BC054
308,BC055,Silver Bar; McVey,56.061,-130.144,Polymetallic veins,https://mrdata.usgs.gov/to-json.php?db=ardf&id=ardf_num&labno=BC055
309,BC056,Bartholf,56.088,-130.069,Polymetallic veins,https://mrdata.usgs.gov/to-json.php?db=ardf&id=ardf_num&labno=BC056
310,BC057,Cantu,56.076,-130.064,Polymetallic veins,https://mrdata.usgs.gov/to-json.php?db=ardf&id=ardf_num&labno=BC057
311,BC058,Charles; Nelson and Pitcher,56.054,-130.068,"Polymetallic veins; |Porphyry copper, North America(?)",https://mrdata.usgs.gov/to-json.php?db=ardf&id=ardf_num&labno=BC058
312,BC059,Ninety-six; Gold Eagle,56.043,-130.067,Polymetallic veins,https://mrdata.usgs.gov/to-json.php?db=ardf&id=ardf_num&labno=BC059
313,BC060,Gold Cliff Premier,56.053,-130.044,Polymetallic veins,https://mrdata.usgs.gov/to-json.php?db=ardf&id=ardf_num&labno=BC060
314,BC061,Border,56.046,-130.036,Polymetallic veins,https://mrdata.usgs.gov/to-json.php?db=ardf&id=ardf_num&labno=BC061
315,BC062,Virginia,56.04,-130.042,Polymetallic veins; Skarn Zn-Pb,https://mrdata.usgs.gov/to-json.php?db=ardf&id=ardf_num&labno=BC062
316,BC063,Stoner; Stoner Gold and Silver Mining Corporation,56.035,-130.029,Polymetallic veins,https://mrdata.usgs.gov/to-json.php?db=ardf&id=ardf_num&labno=BC063
317,BC064,Stoner-Clegg-O'Rourke,56.032,-130.033,Polymetallic veins,https://mrdata.usgs.gov/to-json.php?db=ardf&id=ardf_num&labno=BC064
318,BC065,Lower Daly-Alaska; Iron; Elevenmile,56.032,-130.043,Polymetallic veins,https://mrdata.usgs.gov/to-json.php?db=ardf&id=ardf_num&labno=BC065
319,BC066,Upper Daly-Alaska; Hoosier; Bertha; Western,56.0292,-130.0375,Polymetallic veins,https://mrdata.usgs.gov/to-json.php?db=ardf&id=ardf_num&labno=BC066
320,BC067,Alaska-Premier,56.026,-130.042,Polymetallic veins,https://mrdata.usgs.gov/to-json.php?db=ardf&id=ardf_num&labno=BC067
321,BC068,Martha Lee,56.026,-130.069,,https://mrdata.usgs.gov/to-json.php?db=ardf&id=ardf_num&labno=BC068
322,BC069,Cripple Creek,56.025,-130.067,Polymetallic veins,https://mrdata.usgs.gov/to-json.php?db=ardf&id=ardf_num&labno=BC069
323,BC070,Portland,56.022,-130.053,Polymetallic veins,https://mrdata.usgs.gov/to-json.php?db=ardf&id=ardf_num&labno=BC070
324,BC071,Hobo; Swede,56.021,-130.044,Polymetallic veins,https://mrdata.usgs.gov/to-json.php?db=ardf&id=ardf_num&labno=BC071
325,BC072,Crest,56.0167,-130.063,Polymetallic veins,https://mrdata.usgs.gov/to-json.php?db=ardf&id=ardf_num&labno=BC072
326,BC073,Butte; Brigadier; Hyder Butte,56.0167,-130.067,Polymetallic veins,https://mrdata.usgs.gov/to-json.php?db=ardf&id=ardf_num&labno=BC073
327,BC074,Bluebird,56.015,-130.054,Polymetallic veins,https://mrdata.usgs.gov/to-json.php?db=ardf&id=ardf_num&labno=BC074
328,BC075,Alaska-Premier (near Skookum Creek),56.01,-130.04,,https://mrdata.usgs.gov/to-json.php?db=ardf&id=ardf_num&labno=BC075
329,BC076,Hyder Skookum,56.011,-130.036,Polymetallic veins,https://mrdata.usgs.gov/to-json.php?db=ardf&id=ardf_num&labno=BC076
330,BC077,Titan; Titan Salmon River Syndicate,56.011,-130.022,Polymetallic veins,https://mrdata.usgs.gov/to-json.php?db=ardf&id=ardf_num&labno=BC077
331,BC078,Fish Creek; Olympia Extension; Last Chance; Single Rose; Mountain View; Summit; Climax,56.00278,-130.0444,Polymetallic veins,https://mrdata.usgs.gov/to-json.php?db=ardf&id=ardf_num&labno=BC078
332,BC079,Monarch,56.00694,-130.0556,Polymetallic veins,https://mrdata.usgs.gov/to-json.php?db=ardf&id=ardf_num&labno=BC079
333,BC080,Riverside; Riverview; Lindeborg,56.003,-130.069,Polymetallic veins,https://mrdata.usgs.gov/to-json.php?db=ardf&id=ardf_num&labno=BC080
334,BC081,Unnamed,56.185,-130.628,,https://mrdata.usgs.gov/to-json.php?db=ardf&id=ardf_num&labno=BC081
335,BC082,Iron Cap,56.075,-130.212,Polymetallic veins,https://mrdata.usgs.gov/to-json.php?db=ardf&id=ardf_num&labno=BC082
336,BC083,Dog Hole,56.033,-130.086,Polymetallic veins,https://mrdata.usgs.gov/to-json.php?db=ardf&id=ardf_num&labno=BC083
337,BC084,Ibex Saddle,56.083,-130.184,Polymetallic veins,https://mrdata.usgs.gov/to-json.php?db=ardf&id=ardf_num&labno=BC084
338,BC085,Casey Glacier Sphalerite,56.052,-130.203,Polymetallic veins,https://mrdata.usgs.gov/to-json.php?db=ardf&id=ardf_num&labno=BC085
339,BC086,Ronan,56.003,-130.048,Polymetallic veins,https://mrdata.usgs.gov/to-json.php?db=ardf&id=ardf_num&labno=BC086
340,BC087,Iron No. 1-4; Shaft Creek Copper,56.006,-130.038,Polymetallic veins,https://mrdata.usgs.gov/to-json.php?db=ardf&id=ardf_num&labno=BC087
341,BC088,Top,56.047,-130.06,Polymetallic veins,https://mrdata.usgs.gov/to-json.php?db=ardf&id=ardf_num&labno=BC088
342,BC089,Ronan Copper,56.001,-130.049,Polymetallic veins,https://mrdata.usgs.gov/to-json.php?db=ardf&id=ardf_num&labno=BC089
343,BC090,Unnamed (near Black Crag),56.5367,-131.6992,"Porphyry Cu-Mo (Cox and Singer, 1986; model 21a)",https://mrdata.usgs.gov/to-json.php?db=ardf&id=ardf_num&labno=BC090
344,BC091,Unnamed (west of the terminus of Nelson Glacier),56.4788,-131.999,Vuggy silicified zone in gneiss.,https://mrdata.usgs.gov/to-json.php?db=ardf&id=ardf_num&labno=BC091
345,BC092,Unnamed (Near Mt. Lewis Cass),56.3895,-131.1119,,https://mrdata.usgs.gov/to-json.php?db=ardf&id=ardf_num&labno=BC092
346,BC093,Unnamed (east of Upper Marten Lake),56.2889,-131.7921,Gold-quartz veinlets along a regional fault.,https://mrdata.usgs.gov/to-json.php?db=ardf&id=ardf_num&labno=BC093
347,BC094,Unnamed (near mouth of Harding River),56.2025,-131.6379,"Quartz vein with low values of gold, silver, copper, and zinc.",https://mrdata.usgs.gov/to-json.php?db=ardf&id=ardf_num&labno=BC094
348,BD001,Banner Creek,64.316,-146.346,"Placer Au (Cox and Singer, 1986; model 39a)",https://mrdata.usgs.gov/to-json.php?db=ardf&id=ardf_num&labno=BD001
349,BD002,Beaver Creek,64.764,-146.394,"Placer Au (Cox and Singer, 1986; model 39a)",https://mrdata.usgs.gov/to-json.php?db=ardf&id=ardf_num&labno=BD002
350,BD003,Blue Lead; Blue Lead Extension; Rob,64.3603,-144.20323,"Silver-gold-quartz veins and stockwork, +/- arsenic, copper, lead, antimony, tellurium, and tungsten (Cox and Singer, 1986; model 22c).",https://mrdata.usgs.gov/to-json.php?db=ardf&id=ardf_num&labno=BD003
351,BD004,Boulder Creek,64.37,-144.13,"Porphyry Mo? (Cox and Singer, 1986; model 21b)",https://mrdata.usgs.gov/to-json.php?db=ardf&id=ardf_num&labno=BD004
352,BD005,Buckeye Creek; Martha; Moore Creek,64.311,-146.303,"Placer Au (Cox and Singer, 1986; model 39a)",https://mrdata.usgs.gov/to-json.php?db=ardf&id=ardf_num&labno=BD005
353,BD006,Butte Creek; Twentymile Cr.,64.731,-145.715,"Placer Au (Cox and Singer, 1986; model 39a)",https://mrdata.usgs.gov/to-json.php?db=ardf&id=ardf_num&labno=BD006
354,BD007,May's Pit; Campbell-Monroe; Campbell,64.3008,-146.3002,"Residual gold placer, possibly above or near an intrusion-related gold deposit.",https://mrdata.usgs.gov/to-json.php?db=ardf&id=ardf_num&labno=BD007
355,BD008,Canyon Creek,64.304,-146.486,"Placer Au (Cox and Singer, 1986; model 39a)",https://mrdata.usgs.gov/to-json.php?db=ardf&id=ardf_num&labno=BD008
356,BD009,Caribou Creek,64.687,-145.714,"Placer Au (Cox and Singer, 1986; model 39a)",https://mrdata.usgs.gov/to-json.php?db=ardf&id=ardf_num&labno=BD009
357,BD010,Carrie Creek; Lynx Saddle; Missing Lynx; Tripper Ridge; West Carrie Creek,64.288,-144.263,"Shear-hosted, magmatic-hydrothermal vein",https://mrdata.usgs.gov/to-json.php?db=ardf&id=ardf_num&labno=BD010
358,BD011,Central Creek,64.342,-144.449,"Placer Au (Cox and Singer, 1986; model 39a)",https://mrdata.usgs.gov/to-json.php?db=ardf&id=ardf_num&labno=BD011
359,BD012,Colorado Creek; Willie Association,64.93,-146.619,"Placer Au (Cox and Singer, 1986; model 39a)",https://mrdata.usgs.gov/to-json.php?db=ardf&id=ardf_num&labno=BD012
360,BD013,Democrat Creek; Democrat Gulch; Democrat Pup,64.338,-146.362,"Residual Placer and Placer Au (Cox and Singer, 1986; model 39a)",https://mrdata.usgs.gov/to-json.php?db=ardf&id=ardf_num&labno=BD013
361,BD014,Democrat; John Mitchell Lode; Camp Pit,64.3341,-146.3553,"Intrusion-related gold deposit; part of a structurally controlled, boron-enriched, gold-silver-tin-polymetallic hydrothermal system.",https://mrdata.usgs.gov/to-json.php?db=ardf&id=ardf_num&labno=BD014
362,BD015,Gold Creek,64.882,-145.556,"Placer Au (Cox and Singer, 1986; model 39a)",https://mrdata.usgs.gov/to-json.php?db=ardf&id=ardf_num&labno=BD015
363,BD016,Gold Run Creek,64.434,-146.326,"Placer Au (Cox and Singer, 1986; model 39a)?",https://mrdata.usgs.gov/to-json.php?db=ardf&id=ardf_num&labno=BD016
364,BD017,Gray Lead; Hilltop; Rob,64.3445,-144.2523,"Silver-gold-quartz veins and stockwork, +/- arsenic, copper, lead, antimony, tellurium, and tungsten (Cox and Singer, 1986; model 22c).",https://mrdata.usgs.gov/to-json.php?db=ardf&id=ardf_num&labno=BD017
365,BD018,Grizzly Bear; Yellow Jacket,64.3512,-144.2093,"Silver-gold-quartz veins and stockwork, +/- arsenic, copper, lead, antimony, tellurium, and tungsten (Cox and Singer, 1986; model 22c).",https://mrdata.usgs.gov/to-json.php?db=ardf&id=ardf_num&labno=BD018
366,BD019,Hinkley Gulch,64.3061,-146.313,"Placer Au (Cox and Singer, 1986; model 39a).",https://mrdata.usgs.gov/to-json.php?db=ardf&id=ardf_num&labno=BD019
367,BD020,Jackie; Granite Creek; Granite Creek Lode,64.397,-144.247,"Shear-hosted, magmatic-hydrothermal vein",https://mrdata.usgs.gov/to-json.php?db=ardf&id=ardf_num&labno=BD020
368,BD021,Junction Creek,64.333,-146.403,"Placer Au (Cox and Singer, 1986; model 39a).",https://mrdata.usgs.gov/to-json.php?db=ardf&id=ardf_num&labno=BD021
369,BD022,Last Chance Creek,64.403,-144.302,"Placer Au (Cox and Singer, 1986; model 39a)",https://mrdata.usgs.gov/to-json.php?db=ardf&id=ardf_num&labno=BD022
370,BD023,Lost Creek,64.919,-144.326,"Placer Au (Cox and Singer, 1986; model 39a)",https://mrdata.usgs.gov/to-json.php?db=ardf&id=ardf_num&labno=BD023
371,BD024,Michigan Creek,64.164,-144.626,"Placer Au (Cox and Singer, 1986; model 39a)",https://mrdata.usgs.gov/to-json.php?db=ardf&id=ardf_num&labno=BD024
372,BD025,Michigan; Michigan Lode; Michigan Lead; Rob,64.3624,-144.1979,"Silver-gold-quartz veins and stockwork, +/- arsenic, copper, lead, antimony, tellurium, and tungsten (Cox and Singer, 1986; model 22c).",https://mrdata.usgs.gov/to-json.php?db=ardf&id=ardf_num&labno=BD025
373,BD026,Minton Creek,64.394,-146.267,Alluvial W placer,https://mrdata.usgs.gov/to-json.php?db=ardf&id=ardf_num&labno=BD026
374,BD027,Munzie Lode,64.957,-146.517,,https://mrdata.usgs.gov/to-json.php?db=ardf&id=ardf_num&labno=BD027
375,BD028,No Grub Creek,64.676,-145.611,"Placer Au (Cox and Singer, 1986; model 39a)",https://mrdata.usgs.gov/to-json.php?db=ardf&id=ardf_num&labno=BD028
376,BD029,Nugget Discovery,64.843,-146.498,"Placer Au (Cox and Singer, 1986; model 39a)",https://mrdata.usgs.gov/to-json.php?db=ardf&id=ardf_num&labno=BD029
377,BD030,Paldo Creek,64.796,-144.428,"Placer Au (Cox and Singer, 1986; model 39a)",https://mrdata.usgs.gov/to-json.php?db=ardf&id=ardf_num&labno=BD030
378,BD031,Pasco Creek,64.669,-145.551,"Placer Au (Cox and Singer, 1986; model 39a)",https://mrdata.usgs.gov/to-json.php?db=ardf&id=ardf_num&labno=BD031
379,BD032,Pine Creek; Pyne Creek,64.739,-146.302,"Placer Au (Cox and Singer, 1986; model 39a)",https://mrdata.usgs.gov/to-json.php?db=ardf&id=ardf_num&labno=BD032
380,BD033,Pogo,64.4526,-144.9136,"Intrusion-related mesothermal, porphyry gold deposit.",https://mrdata.usgs.gov/to-json.php?db=ardf&id=ardf_num&labno=BD033
381,BD034,Rainy Mountain Lode; Raven,64.15,-144.01,,https://mrdata.usgs.gov/to-json.php?db=ardf&id=ardf_num&labno=BD034
382,BD035,Redmond Creek; Mosquito Creek,64.366,-146.612,"Placer Au (Cox and Singer, 1986; model 39a)",https://mrdata.usgs.gov/to-json.php?db=ardf&id=ardf_num&labno=BD035
383,BD036,Rick's; Rick's Creek; Rick's Nickel; Rick's Prospect; Nickel Creek; Nail Allochthon; Nail Ridge,64.755,-144.872,Disseminated sulfides and chromite in serpentinite allochthon,https://mrdata.usgs.gov/to-json.php?db=ardf&id=ardf_num&labno=BD036
384,BD037,Serpentine Creek,64.836,-144.32,"Placer Au (Cox and Singer, 1986; model 39a)",https://mrdata.usgs.gov/to-json.php?db=ardf&id=ardf_num&labno=BD037
385,BD038,Shamrock; Shamrock/Buck; Buck,64.3816,-146.4323,"Distal, intrusion-related gold deposit.",https://mrdata.usgs.gov/to-json.php?db=ardf&id=ardf_num&labno=BD038
386,BD039,Tenderfoot Creek,64.275,-146.2299,"Placer Au (Cox and Singer, 1986; model 39a).",https://mrdata.usgs.gov/to-json.php?db=ardf&id=ardf_num&labno=BD039
387,BD040,Tibbs Creek; Lucky Star,64.383,-144.263,"Placer Au (Cox and Singer, 1986; model 39a)",https://mrdata.usgs.gov/to-json.php?db=ardf&id=ardf_num&labno=BD040
388,BD041,Unnamed (headwaters of Rick's Creek),64.83,-144.96,,https://mrdata.usgs.gov/to-json.php?db=ardf&id=ardf_num&labno=BD041
389,BD042,Unnamed (headwaters of Porcupine Creek),64.59,-144.44,,https://mrdata.usgs.gov/to-json.php?db=ardf&id=ardf_num&labno=BD042
390,BD043,Unnamed (headwaters of Rick's Creek),64.84,-144.95,Skarn,https://mrdata.usgs.gov/to-json.php?db=ardf&id=ardf_num&labno=BD043
391,BD044,Unnamed (headwaters of North Fork of Salcha River),64.96,-144.95,,https://mrdata.usgs.gov/to-json.php?db=ardf&id=ardf_num&labno=BD044
392,BD045,Unnamed (near Ohio Creek),64.99,-145.3,,https://mrdata.usgs.gov/to-json.php?db=ardf&id=ardf_num&labno=BD045
393,BD046,Wide Zone,64.3214,-146.3325,Intrusion-related gold deposit.,https://mrdata.usgs.gov/to-json.php?db=ardf&id=ardf_num&labno=BD046
394,BD047,Unnamed (near Wheeler Creek),64.83,-146.02,,https://mrdata.usgs.gov/to-json.php?db=ardf&id=ardf_num&labno=BD047
395,BD048,Buckeye; Buckeye Pup,64.334,-146.253,Distal intrusion-related gold deposit.,https://mrdata.usgs.gov/to-json.php?db=ardf&id=ardf_num&labno=BD048
396,BD049,Sonora Creek Ridge,64.412,-144.77,Plutonic-related mesothermal,https://mrdata.usgs.gov/to-json.php?db=ardf&id=ardf_num&labno=BD049
397,BD050,Teuchet Creek; TC,64.913,-145.495,"Sedimentary exhalative Zn-Pb? (Cox and Singer, 1986; model 31a). Volcanogenic massive sulfide deposit? (Cox and Singer, 1986; model 28a), similar to Selwyn Basin deposits in Yukon, Canada (Murphy and Abbott, 1995)",https://mrdata.usgs.gov/to-json.php?db=ardf&id=ardf_num&labno=BD050
398,BD051,Drone Creek; DC,64.86,-145.95,"Sedimentary exhalative Zn-Pb? (Cox and Singer, 1986; model 31a). Volcanogenic massive sulfide deposit? (Cox and Singer, 1986; model 28a), similar to Selwyn Basin deposits in Yukon, Canada (Murphy and Abbott, 1995)",https://mrdata.usgs.gov/to-json.php?db=ardf&id=ardf_num&labno=BD051
399,BD052,Unnamed,64.87,-145.62,,https://mrdata.usgs.gov/to-json.php?db=ardf&id=ardf_num&labno=BD052
400,BD053,Tan Creek Ridge,64.402,-144.703,Plutonic-related mesothermal,https://mrdata.usgs.gov/to-json.php?db=ardf&id=ardf_num&labno=BD053
401,BD054,Money Rock; Rainbow; Aurora; Indian,64.4614,-145.0272,Arsenopyrite-gold-quartz veins.,https://mrdata.usgs.gov/to-json.php?db=ardf&id=ardf_num&labno=BD054
402,BD055,West Pogo; ER,64.4486,-145.0867,"Gold-quartz veins that contain bismuth and tellurium (Cox and Singer, 1986; model 22c).",https://mrdata.usgs.gov/to-json.php?db=ardf&id=ardf_num&labno=BD055
403,BD056,LWM,64.2036,-145.5353,"Gold-quartz mineralization in a thick, silicified breccia zone in quartzite.",https://mrdata.usgs.gov/to-json.php?db=ardf&id=ardf_num&labno=BD056
404,BD057,Wolverine; Rob,64.3855,-144.227,"Silver-gold-quartz veins and stockwork, +/- arsenic, copper, lead, antimony, tellurium, and tungsten (Cox and Singer, 1986; model 22c).",https://mrdata.usgs.gov/to-json.php?db=ardf&id=ardf_num&labno=BD057
405,BD058,Upper Trench/ Lower Trench; Rob,64.3747,-144.2168,"Silver-gold-quartz veins and stockwork, +/- arsenic, copper, lead, antimony, tellurium, and tungsten (Cox and Singer, 1986; model 22c).",https://mrdata.usgs.gov/to-json.php?db=ardf&id=ardf_num&labno=BD058
406,BD059,O'Reely; Oreely; Rob,64.3404,-144.2148,"Silver-gold-quartz veins and stockwork, +/- arsenic, copper, lead, antimony, tellurium, and tungsten (Cox and Singer, 1986; model 22c).",https://mrdata.usgs.gov/to-json.php?db=ardf&id=ardf_num&labno=BD059
407,BD060,ER-Ogo-Fire,64.4433,-145.1239,Quartz veins and breccia related to nearby Cretaceous intrusions.,https://mrdata.usgs.gov/to-json.php?db=ardf&id=ardf_num&labno=BD060
408,BD061,Eagle,64.287,-145.4197,Quartz veins and stockwork zones related to nearby Cretaceous intrusions.,https://mrdata.usgs.gov/to-json.php?db=ardf&id=ardf_num&labno=BD061
409,BD062,Boundary,64.418,-144.3769,Quartz veins and stockwork zones related to nearby Cretaceous intrusions.,https://mrdata.usgs.gov/to-json.php?db=ardf&id=ardf_num&labno=BD062
410,BD063,Beverly,64.387,-144.5412,Quartz veins and stockwork zones related to nearby Cretaceous intrusions.,https://mrdata.usgs.gov/to-json.php?db=ardf&id=ardf_num&labno=BD063
411,BD064,Scott,64.4407,-144.6262,Quartz veins and stockwork zones related to nearby Cretaceous intrusions.,https://mrdata.usgs.gov/to-json.php?db=ardf&id=ardf_num&labno=BD064
412,BD065,Bou,64.3151,-144.2017,Quartz veins related to Cretaceous intrusives.,https://mrdata.usgs.gov/to-json.php?db=ardf&id=ardf_num&labno=BD065
413,BD066,Southeast Surf,64.3669,-144.2795,Quartz veins and stockworks related to nearby Cretaceous intrusions.,https://mrdata.usgs.gov/to-json.php?db=ardf&id=ardf_num&labno=BD066
414,BD067,Uncle Sam,64.5052,-146.2384,"Possibly an Intrusion related, Fort Knox type, gold porphyry.",https://mrdata.usgs.gov/to-json.php?db=ardf&id=ardf_num&labno=BD067
415,BD068,Junction,64.3375,-146.5412,Intrusion-related gold.,https://mrdata.usgs.gov/to-json.php?db=ardf&id=ardf_num&labno=BD068
416,BD069,First Chance Creek,64.4269,-146.4809,"Placer Au (Cox and Singer, 1986; model 39a).",https://mrdata.usgs.gov/to-json.php?db=ardf&id=ardf_num&labno=BD069
417,BD070,First Chance (lode),64.4309,-146.483,Intrusion-related gold.,https://mrdata.usgs.gov/to-json.php?db=ardf&id=ardf_num&labno=BD070
418,BD071,Hilltop,64.4237,-146.6563,Intrusion-related gold deposit.,https://mrdata.usgs.gov/to-json.php?db=ardf&id=ardf_num&labno=BD071
419,BD072,Gold Run,64.4001,-146.3842,Intrusion-related gold.,https://mrdata.usgs.gov/to-json.php?db=ardf&id=ardf_num&labno=BD072
420,BD073,Bald Knob,64.3551,-146.2451,Distal intrusion-related gold deposit.,https://mrdata.usgs.gov/to-json.php?db=ardf&id=ardf_num&labno=BD073
421,BD074,Banner; Banner Dikes,64.3516,-146.3465,Gold-silver-tin-polymetallic hydrothermal system with strong affinities to intrusion-related gold deposits.,https://mrdata.usgs.gov/to-json.php?db=ardf&id=ardf_num&labno=BD074
422,BG001,Bearhole Creek,60.9832,-142.4983,Shear zone with quartz-feldspar-graphite veins?,https://mrdata.usgs.gov/to-json.php?db=ardf&id=ardf_num&labno=BG001
423,BG002,Unnamed (head of Martin Creek),60.8559,-142.4401,"Low-sulfide Au-quartz vein (Cox and Singer, 1986; model 36a)",https://mrdata.usgs.gov/to-json.php?db=ardf&id=ardf_num&labno=BG002
424,BG003,Natural Arches (north of Bering Glacier),60.4962,-142.4555,Native copper in mafic volcanic rocks.,https://mrdata.usgs.gov/to-json.php?db=ardf&id=ardf_num&labno=BG003
425,BG004,White River,60.0721,-142.1798,"Placer Au (Cox and Singer, 1986; model 39a)",https://mrdata.usgs.gov/to-json.php?db=ardf&id=ardf_num&labno=BG004
426,BG005,Yakataga (west of Cape Yakataga),60.0747,-142.4561,"Placer Au-PGE (Cox and Singer, 1986, model 39a)",https://mrdata.usgs.gov/to-json.php?db=ardf&id=ardf_num&labno=BG005
427,BG006,Yakataga (between Cape Yakataga and White River),60.0583,-142.3224,"Placer Au-PGE (Cox and Singer, 1986, model 39a)",https://mrdata.usgs.gov/to-json.php?db=ardf&id=ardf_num&labno=BG006
428,BG007,Yakataga (east of White River),60.0319,-142.1318,"Placer Au-PGE (Cox and Singer, 1986; model 39a)",https://mrdata.usgs.gov/to-json.php?db=ardf&id=ardf_num&labno=BG007
429,BG008,Kiagna River,60.9568,-142.3341,"Placer Au (Cox and Singer, 1986; model 39a)",https://mrdata.usgs.gov/to-json.php?db=ardf&id=ardf_num&labno=BG008
430,BH001,Arsenic Creek,60.0,-160.13,Epithermal mercury.,https://mrdata.usgs.gov/to-json.php?db=ardf&id=ardf_num&labno=BH001
431,BH002,Rainy Creek,60.01,-160.14,"Placer Au-PGE; with cinnabar  (Cox and Singer, 1986; model 39a).",https://mrdata.usgs.gov/to-json.php?db=ardf&id=ardf_num&labno=BH002
432,BH003,Canyon Creek,60.18,-159.97,"Placer Au-PGE (Cox and Singer, 1986; model 39a).",https://mrdata.usgs.gov/to-json.php?db=ardf&id=ardf_num&labno=BH003
433,BH004,Unnamed (north end of Greenstone Ridge),60.49,-160.19,Copper-bearing minerals in fault zone.,https://mrdata.usgs.gov/to-json.php?db=ardf&id=ardf_num&labno=BH004
434,BH005,Golden Gate Falls,60.5,-160.17,"Placer Au-PGE (Cox and Singer, 1986; model 39a).",https://mrdata.usgs.gov/to-json.php?db=ardf&id=ardf_num&labno=BH005
435,BH006,Fisher Dome,60.82,-159.72,"Simple Sb deposit (Cox and Singer, 1986; model 27d).",https://mrdata.usgs.gov/to-json.php?db=ardf&id=ardf_num&labno=BH006
436,BH007,Cripple Creek (upper),60.71,-159.54,"Placer Au-PGE (Cox and Singer, 1986; model 39a).",https://mrdata.usgs.gov/to-json.php?db=ardf&id=ardf_num&labno=BH007
437,BH008,Cripple Creek (lower),60.74,-159.57,"Placer Au-PGE (Cox and Singer, 1986; model 39a).",https://mrdata.usgs.gov/to-json.php?db=ardf&id=ardf_num&labno=BH008
438,BH009,Fisher Creek,60.82,-159.54,"Placer Au-PGE (Cox and Singer, 1986; model 39a).",https://mrdata.usgs.gov/to-json.php?db=ardf&id=ardf_num&labno=BH009
439,BH010,Marvel Creek,60.91,-159.62,"Placer Au-PGE (Cox and Singer, 1986; model 39a).",https://mrdata.usgs.gov/to-json.php?db=ardf&id=ardf_num&labno=BH010
440,BH011,Dominion Creek,60.96,-159.4,"Placer Au-PGE (Cox and Singer, 1986; model 39a).",https://mrdata.usgs.gov/to-json.php?db=ardf&id=ardf_num&labno=BH011
441,BH012,Dominion Creek (upper),60.98,-159.51,"Placer Au-PGE (Cox and Singer, 1986; model 39a).",https://mrdata.usgs.gov/to-json.php?db=ardf&id=ardf_num&labno=BH012
442,BH013,Unnamed (south side of Tuluksak River),60.99,-159.97,,https://mrdata.usgs.gov/to-json.php?db=ardf&id=ardf_num&labno=BH013
443,BH014,Tuluksak River,60.9877,-159.9873,"Placer Au-PGE (Cox and Singer, 1986; model 39a).",https://mrdata.usgs.gov/to-json.php?db=ardf&id=ardf_num&labno=BH014
444,BH015,Granite Creek,60.98,-160.09,"Placer Au-PGE (Cox and Singer, 1986; model 39a).",https://mrdata.usgs.gov/to-json.php?db=ardf&id=ardf_num&labno=BH015
445,BH016,Tuluksak River (below Granite Creek),60.969,-160.1994,"Placer Au (Cox and Singer, 1986; model 39a).",https://mrdata.usgs.gov/to-json.php?db=ardf&id=ardf_num&labno=BH016
446,BH017,Columbia Creek,60.61,-160.75,"Placer Au-PGE (Cox and Singer, 1986; model 39a).",https://mrdata.usgs.gov/to-json.php?db=ardf&id=ardf_num&labno=BH017
447,BH018,Eureka Creek,60.98,-159.55,"Placer Au-PGE (Cox and Singer, 1986; model 39a).",https://mrdata.usgs.gov/to-json.php?db=ardf&id=ardf_num&labno=BH018
448,BH019,Rocky Creek,60.44,-159.63,"Placer Au-PGE (Cox and Singer, 1986; model 39a).",https://mrdata.usgs.gov/to-json.php?db=ardf&id=ardf_num&labno=BH019
449,BH020,Kapon Creek,60.11,-160.16,"Placer Au-PGE (Cox and Singer, 1986; model 39a).",https://mrdata.usgs.gov/to-json.php?db=ardf&id=ardf_num&labno=BH020
450,BH021,Kisaralik River (Riglagalik River),60.4,-159.6,"Placer Au-PGE; with cassiterite ? (Cox and Singer, 1986; model 39a).",https://mrdata.usgs.gov/to-json.php?db=ardf&id=ardf_num&labno=BH021
451,BH022,Robin Creek,61.0,-159.56,"Placer Au-PGE (Cox and Singer, 1986; model 39a).",https://mrdata.usgs.gov/to-json.php?db=ardf&id=ardf_num&labno=BH022
452,BH023,Golden Alder,60.2651,-159.4082,"Polymetallic veins (Cox and Singer, 1986; model 22c).",https://mrdata.usgs.gov/to-json.php?db=ardf&id=ardf_num&labno=BH023
453,BH024,Bell Creek,60.78,-159.5,"Placer Au-PGE (Cox and Singer, 1986; model 29a).",https://mrdata.usgs.gov/to-json.php?db=ardf&id=ardf_num&labno=BH024
454,BH025,Unnamed (lower Slate Creek),60.93,-159.93,"Silica-carbonate Hg (Cox and Singer, 1986; model 27c).",https://mrdata.usgs.gov/to-json.php?db=ardf&id=ardf_num&labno=BH025
455,BH026,Unnamed (Kipchuk River area),60.82,-159.29,"Polymetallic veins (Cox and Singer, 1986; model 22c).",https://mrdata.usgs.gov/to-json.php?db=ardf&id=ardf_num&labno=BH026
456,BH027,Unnamed (west of Aniak River),60.72,-159.12,"Polymetallic veins (Cox and Singer, 1986; model 22c).",https://mrdata.usgs.gov/to-json.php?db=ardf&id=ardf_num&labno=BH027
457,BH028,Kisa Breccia; Golden Dyke,60.3546,-159.3011,Mineralized breccia and rhyolite dikes  with gold values.,https://mrdata.usgs.gov/to-json.php?db=ardf&id=ardf_num&labno=BH028
458,BH029,Pirate's Pick,60.3782,-159.282,Mineralized breccia with gold values.,https://mrdata.usgs.gov/to-json.php?db=ardf&id=ardf_num&labno=BH029
459,BH030,Luna,60.3602,-159.4618,"Veins, disseminated mineralization, and layers of replacement massive sulfides.",https://mrdata.usgs.gov/to-json.php?db=ardf&id=ardf_num&labno=BH030
460,BH031,Gossan Ridge,60.2301,-159.3963,"Vein and disseminated mineralization in breccias, dikes, and altered country rock.",https://mrdata.usgs.gov/to-json.php?db=ardf&id=ardf_num&labno=BH031
461,BH032,Ako; East Ako; West Ako; Ako Saddle,60.2802,-159.6964,Polymetallic veining and stockworks in the periphery of a granitic pluton.,https://mrdata.usgs.gov/to-json.php?db=ardf&id=ardf_num&labno=BH032
462,BM001,Central Creek,67.12,-160.28,"Placer Au (Cox and Singer, 1986; model 39a).",https://mrdata.usgs.gov/to-json.php?db=ardf&id=ardf_num&labno=BM001
463,BM002,Boldrin Creek; Baldwin Creek,67.15,-160.47,"Placer Au (Cox and Singer, 1986; model 39a).",https://mrdata.usgs.gov/to-json.php?db=ardf&id=ardf_num&labno=BM002
464,BM003,Peluk Creek; Peluck Creek,67.15,-160.57,"Placer Au-PGE (Cox and Singer, 1986; model 39a).",https://mrdata.usgs.gov/to-json.php?db=ardf&id=ardf_num&labno=BM003
465,BM004,Bear Creek,67.16,-160.28,"Placer Au (Cox and Singer, 1986; model 39a).",https://mrdata.usgs.gov/to-json.php?db=ardf&id=ardf_num&labno=BM004
466,BM005,Klery Creek,67.18,-160.39,"Placer Au (Cox and Singer, 1986; model 39a).",https://mrdata.usgs.gov/to-json.php?db=ardf&id=ardf_num&labno=BM005
467,BM006,Gallahorn,67.18,-161.91,Chalcopyrite in quartz vein.,https://mrdata.usgs.gov/to-json.php?db=ardf&id=ardf_num&labno=BM006
468,BM007,Uhl,67.19,-161.75,Chalcopyrite in quartz vein.,https://mrdata.usgs.gov/to-json.php?db=ardf&id=ardf_num&labno=BM007
469,BM008,Gold Run Creek,67.29,-160.36,"Placer Au-PGE (Cox and Singer, 1986; model 39a).",https://mrdata.usgs.gov/to-json.php?db=ardf&id=ardf_num&labno=BM008
470,BM009,Homestake Creek,67.36,-160.41,"Placer Au-PGE (Cox and Singer, 1986; model 39a).",https://mrdata.usgs.gov/to-json.php?db=ardf&id=ardf_num&labno=BM009
471,BM010,Deadfall; Powdermilk,67.4616,-160.7957,"Southeast Missouri Pb-Zn (Cox and Singer, 1986; model 32a).",https://mrdata.usgs.gov/to-json.php?db=ardf&id=ardf_num&labno=BM010
472,BM011,Frost,67.4804,-160.6727,"Kipushi Cu-Pb-Zn (Cox and Singer, 1986; model 32c).",https://mrdata.usgs.gov/to-json.php?db=ardf&id=ardf_num&labno=BM011
473,BM012,Omar,67.4898,-160.8834,"Kipushi Cu-Pb-Zn (Cox and Singer, 1986; model 32c).",https://mrdata.usgs.gov/to-json.php?db=ardf&id=ardf_num&labno=BM012
474,BM013,Eskimo,67.51,-161.68,Sulfide-bearing quartz stringers in Paleozoic limestone.,https://mrdata.usgs.gov/to-json.php?db=ardf&id=ardf_num&labno=BM013
475,BM014,Salmon River,67.68,-159.82,Chalcopyrite-bearing quartz veins in a graphite-chlorite phyllite.,https://mrdata.usgs.gov/to-json.php?db=ardf&id=ardf_num&labno=BM014
476,BM015,Nakolikurok Creek,67.63,-160.39,Sulfide-bearing quartz vein.,https://mrdata.usgs.gov/to-json.php?db=ardf&id=ardf_num&labno=BM015
477,BM016,Eli River; Agashashok River,67.64,-161.43,Sulfide-bearing quartz veins cutting Paleozoic limestone.,https://mrdata.usgs.gov/to-json.php?db=ardf&id=ardf_num&labno=BM016
478,BM017,Ahua,67.73,-161.73,"Sedimentary exhalative Zn-Pb (Cox and Singer, 1986; model 31a).",https://mrdata.usgs.gov/to-json.php?db=ardf&id=ardf_num&labno=BM017
479,BM018,Hub,67.76,-159.61,Sulfide-bearing quartz calcite veins cutting limestone.,https://mrdata.usgs.gov/to-json.php?db=ardf&id=ardf_num&labno=BM018
480,BM019,Chevron,67.87,-159.77,"Kipushi Cu-Pb-Zn (Cox and Singer, 1986; model 32c).",https://mrdata.usgs.gov/to-json.php?db=ardf&id=ardf_num&labno=BM019
481,BM020,Kivivik,67.89,-161.77,"Basaltic copper (Cox and Singer, 1986; model 23).",https://mrdata.usgs.gov/to-json.php?db=ardf&id=ardf_num&labno=BM020
482,BM021,Temby; Salmon River,67.58,-159.54,Sulfide-bearing quartz veins cutting phyllite.,https://mrdata.usgs.gov/to-json.php?db=ardf&id=ardf_num&labno=BM021
483,BM022,Peak,67.5638,-160.7914,Zinc-lead mineralization in Paleozoic carbonates. Insufficient data to determine whether epigenetic or (remobilized?) syngenetic.,https://mrdata.usgs.gov/to-json.php?db=ardf&id=ardf_num&labno=BM022
484,BN001,Idaho Creek,65.241,-164.745,"Placer Au-PGE (Cox and Singer, 1986; model 39a)",https://mrdata.usgs.gov/to-json.php?db=ardf&id=ardf_num&labno=BN001
485,BN002,Camp Creek,65.302,-164.756,"Placer Au-PGE (Cox and Singer, 1986; model 39a)",https://mrdata.usgs.gov/to-json.php?db=ardf&id=ardf_num&labno=BN002
486,BN003,Coffee Creek,65.313,-164.699,"Placer Au-PGE (Cox and Singer, 1986; model 39a)",https://mrdata.usgs.gov/to-json.php?db=ardf&id=ardf_num&labno=BN003
487,BN004,Coffee Creek (the upper portion),65.302,-164.803,Placer Au-PGE (Cox and Singer; model 39a),https://mrdata.usgs.gov/to-json.php?db=ardf&id=ardf_num&labno=BN004
488,BN005,Wonder Gulch,65.315,-164.732,Gold-bearing quartz veins and schist,https://mrdata.usgs.gov/to-json.php?db=ardf&id=ardf_num&labno=BN005
489,BN006,Dahl Creek,65.36,-164.722,"Placer Au-PGE (Cox and Singer, 1986;  model 39a)",https://mrdata.usgs.gov/to-json.php?db=ardf&id=ardf_num&labno=BN006
490,BN007,Dahl Creek,65.365,-164.714,Gold-bearing quartz veins and schist,https://mrdata.usgs.gov/to-json.php?db=ardf&id=ardf_num&labno=BN007
491,BN008,Quartz Creek,65.361,-164.704,"Placer Au-PGE (Cox and Singer, 1986; model 39a)",https://mrdata.usgs.gov/to-json.php?db=ardf&id=ardf_num&labno=BN008
492,BN009,Joe Creek,65.371,-164.732,"Placer Au-PGE (Cox and Singer, 1986; model 39a)",https://mrdata.usgs.gov/to-json.php?db=ardf&id=ardf_num&labno=BN009
493,BN010,Atlas Creek,65.37,-164.752,"Placer Au-PGE (Cox and Singer, 1986; model 39a)",https://mrdata.usgs.gov/to-json.php?db=ardf&id=ardf_num&labno=BN010
494,BN011,Windy Creek; Anderson Gulch,65.447,-164.775,"Placer Au-PGE (Cox and Singer, 1986; model 39a)",https://mrdata.usgs.gov/to-json.php?db=ardf&id=ardf_num&labno=BN011
495,BN012,Neva Creek,65.462,-164.686,"Placer Au-PGE (Cox and Singer, 1986; model 39a)",https://mrdata.usgs.gov/to-json.php?db=ardf&id=ardf_num&labno=BN012
496,BN013,Garfield Creek,65.46,-164.505,"Placer Au-PGE (Cox and Singer, 1986; model 39a)",https://mrdata.usgs.gov/to-json.php?db=ardf&id=ardf_num&labno=BN013
497,BN014,Kougarok River (lower),65.505,-164.712,"Placer Au-PGE (Cox and Singer, 1986; model 39a)",https://mrdata.usgs.gov/to-json.php?db=ardf&id=ardf_num&labno=BN014
498,BN015,Boulder Creek,65.539,-164.323,"Placer Au-PGE (Cox and Singer, 1986; model 39a)",https://mrdata.usgs.gov/to-json.php?db=ardf&id=ardf_num&labno=BN015
499,BN016,Winona Creek,65.52,-164.25,"Placer Au-PGE (Cox and Singer, 1986; model 39a)",https://mrdata.usgs.gov/to-json.php?db=ardf&id=ardf_num&labno=BN016
500,BN017,Grouse Creek,65.52,-164.22,"Placer Au-PGE (Cox and Singer, 1986; model 39a)",https://mrdata.usgs.gov/to-json.php?db=ardf&id=ardf_num&labno=BN017
501,BN018,Black Gulch,65.522,-164.202,"Placer Au-PGE (Cox and Singer, 1986; model 39a)",https://mrdata.usgs.gov/to-json.php?db=ardf&id=ardf_num&labno=BN018
502,BN019,Buzzard Creek (Gulch),65.52,-164.18,"Placer Au-PGE (Cox and Singer, 1986; model 39a)",https://mrdata.usgs.gov/to-json.php?db=ardf&id=ardf_num&labno=BN019
503,BN020,Goose Creek,65.55,-164.13,"Placer Au-PGE (Cox and Singer, 1986; model 39a)",https://mrdata.usgs.gov/to-json.php?db=ardf&id=ardf_num&labno=BN020
504,BN021,Noxapaga River,65.55,-164.11,"Placer Au-PGE (Cox and Singer, 1986; model 39a)",https://mrdata.usgs.gov/to-json.php?db=ardf&id=ardf_num&labno=BN021
505,BN022,Frost Creek,65.573,-164.113,"Placer Au-PGE (Cox and Singer, 1986; model 39a)",https://mrdata.usgs.gov/to-json.php?db=ardf&id=ardf_num&labno=BN022
506,BN023,Coarse Gold Creek (central),65.564,-164.822,"Placer Au-PGE (Cox and Singer, 1986; model 39a)",https://mrdata.usgs.gov/to-json.php?db=ardf&id=ardf_num&labno=BN023
507,BN024,Coarse Gold Creek,65.592,-164.759,"Placer Au-PGE (Cox and Singer, 1986; model 39a)",https://mrdata.usgs.gov/to-json.php?db=ardf&id=ardf_num&labno=BN024
508,BN025,Eureka Creek,65.61,-164.7,"Placer Au-PGE (Cox and Singer, 1986; model 39a)",https://mrdata.usgs.gov/to-json.php?db=ardf&id=ardf_num&labno=BN025
509,BN026,North Fork (Kougarok River),65.61,-164.57,"Placer Au-PGE (Cox and Singer, 1986; model 39a)",https://mrdata.usgs.gov/to-json.php?db=ardf&id=ardf_num&labno=BN026
510,BN027,Harris Creek,65.625,-164.58,"Placer Au-PGE (Cox and Singer, 1986; model 39a)",https://mrdata.usgs.gov/to-json.php?db=ardf&id=ardf_num&labno=BN027
511,BN028,Arizona Creek,65.611,-164.786,"Placer Au-PGE (Cox and Singer, 1986; model 39a)",https://mrdata.usgs.gov/to-json.php?db=ardf&id=ardf_num&labno=BN028
512,BN029,Unnamed (Arctic Creek),65.646,-164.688,Siliceous zones in marble with pyrite and traces of chalcopyrite,https://mrdata.usgs.gov/to-json.php?db=ardf&id=ardf_num&labno=BN029
513,BN030,California Creek,65.632,-164.809,"Placer Au-PGE (Cox and Singer, 1986; model 39a)",https://mrdata.usgs.gov/to-json.php?db=ardf&id=ardf_num&labno=BN030
514,BN031,Henry Creek (including Merrit Gulch),65.655,-164.827,"Placer Au-PGE (Cox and Singer, 1986; model 39a)",https://mrdata.usgs.gov/to-json.php?db=ardf&id=ardf_num&labno=BN031
515,BN032,Dreamy Gulch,65.671,-164.791,"Placer Au-PGE (Cox and Singer, 1986; model 39a)",https://mrdata.usgs.gov/to-json.php?db=ardf&id=ardf_num&labno=BN032
516,BN033,Taylor Creek,65.685,-164.78,"Placer Au-PGE (Cox and Singer, 1986; model 39a)",https://mrdata.usgs.gov/to-json.php?db=ardf&id=ardf_num&labno=BN033
517,BN034,Unnamed (Kougarok River),65.67,-164.8,Chalcopyrite in marble ?,https://mrdata.usgs.gov/to-json.php?db=ardf&id=ardf_num&labno=BN034
518,BN035,Kougarok River,65.685,-164.789,"Placer Au-PGE (Cox and Singer, 1986; model 39a)",https://mrdata.usgs.gov/to-json.php?db=ardf&id=ardf_num&labno=BN035
519,BN036,Unnamed (along Kougarok River),65.68,-164.798,Gold-bearing quartz veins and schist (?),https://mrdata.usgs.gov/to-json.php?db=ardf&id=ardf_num&labno=BN036
520,BN037,Homestake Creek,65.684,-164.82,"Placer Au-PGE (Cox and Singer, 1986; model 39a)",https://mrdata.usgs.gov/to-json.php?db=ardf&id=ardf_num&labno=BN037
521,BN038,Upper Homestake Creek,65.679,-164.889,"Placer Au-PGE (Cox and Singer, 1986; model 39a)",https://mrdata.usgs.gov/to-json.php?db=ardf&id=ardf_num&labno=BN038
522,BN039,Salmon Creek; upper Taylor Creek,65.704,-164.591,"Placer Au-PGE (Cox and Singer, 1986; model 39a)",https://mrdata.usgs.gov/to-json.php?db=ardf&id=ardf_num&labno=BN039
523,BN040,Salmon Creek,65.706,-164.597,"Placer Au-PGE (Cox and Singer, 1986; model 39a)",https://mrdata.usgs.gov/to-json.php?db=ardf&id=ardf_num&labno=BN040
524,BN041,Kougarok River; Washington Creek,65.735,-164.855,"Placer Au-PGE (Cox and Singer, 1986; model 39a)",https://mrdata.usgs.gov/to-json.php?db=ardf&id=ardf_num&labno=BN041
525,BN042,Trinity Creek,65.733,-164.888,"Placer Au-PGE (Cox and Singer, 1986; model 39a)",https://mrdata.usgs.gov/to-json.php?db=ardf&id=ardf_num&labno=BN042
526,BN043,Columbia Creek,65.71,-164.99,"Placer Au-PGE (Cox and Singer, 1986; model 39a)",https://mrdata.usgs.gov/to-json.php?db=ardf&id=ardf_num&labno=BN043
527,BN044,Mascot Gulch,65.74,-164.97,"Placer Au-PGE (partly residual; Cox and Singer, 1986; model 39a)",https://mrdata.usgs.gov/to-json.php?db=ardf&id=ardf_num&labno=BN044
528,BN045,Macklin Creek,65.75,-164.819,"Placer Au-PGE (Cox and Singer, 1986; model 39a)",https://mrdata.usgs.gov/to-json.php?db=ardf&id=ardf_num&labno=BN045
529,BN046,Dick Creek,65.787,-164.981,"Placer Au-PGE (Cox and Singer, 1986; model 39a)",https://mrdata.usgs.gov/to-json.php?db=ardf&id=ardf_num&labno=BN046
530,BN047,Midnight Mountain,65.76,-164.59,Gold-bearing quartz veins and schist,https://mrdata.usgs.gov/to-json.php?db=ardf&id=ardf_num&labno=BN047
531,BN048,Unnamed (near headwaters of Midnight Creek),65.8,-164.52,Polymetallic veins developed peripheral to tin deposits,https://mrdata.usgs.gov/to-json.php?db=ardf&id=ardf_num&labno=BN048
532,BN049,Unnamed (northwest of headwaters of Humbolt Creek),65.82,-164.51,Quartz veins in schist,https://mrdata.usgs.gov/to-json.php?db=ardf&id=ardf_num&labno=BN049
533,BN050,Unnamed (Ferndale Creek),65.83,-164.54,Sulfide veining or impregnations in hornfels and granite dike,https://mrdata.usgs.gov/to-json.php?db=ardf&id=ardf_num&labno=BN050
534,BN051,Unnamed (near headwaters of Humbolt Creek),65.81,-164.48,Quartz and sulfide veins in schist,https://mrdata.usgs.gov/to-json.php?db=ardf&id=ardf_num&labno=BN051
535,BN052,Unnamed (near headwaters of Humbolt Creek),65.81,-164.49,Polymetallic quartz and sulfide-bearing veins and stringers along a fault zone in metasedimentary rocks,https://mrdata.usgs.gov/to-json.php?db=ardf&id=ardf_num&labno=BN052
536,BN053,Humboldt Creek,65.84,-164.42,"Placer Au-PGE (Cox and Singer, 1986; model 39a)",https://mrdata.usgs.gov/to-json.php?db=ardf&id=ardf_num&labno=BN053
537,BN054,Esperanza Creek,65.8,-163.8,"Placer Au-PGE (Cox and Singer, 1986; model 39a)",https://mrdata.usgs.gov/to-json.php?db=ardf&id=ardf_num&labno=BN054
538,BN055,Harrys Creek,65.9263,-163.3466,"Pods, veinlets, and disseminations of galena and sphalerite in silicified marble.",https://mrdata.usgs.gov/to-json.php?db=ardf&id=ardf_num&labno=BN055
539,BN056,Inmachuk; Hannum,65.9212,-163.3216,Sphalerite-galena replacement pods in marble.,https://mrdata.usgs.gov/to-json.php?db=ardf&id=ardf_num&labno=BN056
540,BN057,Hannum Creek,65.917,-163.232,"Placer Au-PGE (Cox and Singer, 1986; model 39a)",https://mrdata.usgs.gov/to-json.php?db=ardf&id=ardf_num&labno=BN057
541,BN058,Unnamed occurrence (Inmachuk River),65.9,-163.3,Galena in metasedimentary rocks; epigenetic (?); stratiform (?),https://mrdata.usgs.gov/to-json.php?db=ardf&id=ardf_num&labno=BN058
542,BN059,Unnamed (on Old Glory Creek),65.8468,-163.187,Gold-stibnite-arsenopyrite-quartz veins in marble.,https://mrdata.usgs.gov/to-json.php?db=ardf&id=ardf_num&labno=BN059
543,BN060,Nelson Creek; Nelson Gulch,65.848,-163.181,"Placer Au-PGE (Cox and Singer, 1986; model 39a)",https://mrdata.usgs.gov/to-json.php?db=ardf&id=ardf_num&labno=BN060
544,BN061,American Creek,65.84,-163.15,"Placer Au-PGE (Cox and Singer, 1986; model 39a)",https://mrdata.usgs.gov/to-json.php?db=ardf&id=ardf_num&labno=BN061
545,BN062,Perry Creek,65.819,-163.088,"Placer Au-PGE (Cox and Singer, 1986; model 39a)",https://mrdata.usgs.gov/to-json.php?db=ardf&id=ardf_num&labno=BN062
546,BN063,Old Glory Creek,65.849,-163.13,"Placer Au-PGE (Cox and Singer, 1986; model 39a)",https://mrdata.usgs.gov/to-json.php?db=ardf&id=ardf_num&labno=BN063
547,BN064,Pinnell River,65.86,-163.07,Vein and replacement in marble ?,https://mrdata.usgs.gov/to-json.php?db=ardf&id=ardf_num&labno=BN064
548,BN065,Old Glory,65.86,-163.1,Replacement in marble,https://mrdata.usgs.gov/to-json.php?db=ardf&id=ardf_num&labno=BN065
549,BN066,Pinnell River,65.878,-163.084,"Placer Au-PGE (Cox and Singer, 1986; model 39a)",https://mrdata.usgs.gov/to-json.php?db=ardf&id=ardf_num&labno=BN066
550,BN067,Inmachuk River,65.902,-163.0,"Placer Au-PGE (Cox and Singer, 1986; model 39a)",https://mrdata.usgs.gov/to-json.php?db=ardf&id=ardf_num&labno=BN067
551,BN068,Chicago Creek,65.905,-162.454,"Placer Au-PGE (Cox and Singer, 1986; model 39a)",https://mrdata.usgs.gov/to-json.php?db=ardf&id=ardf_num&labno=BN068
552,BN069,Kugruk River,65.873,-162.451,"Placer Au-PGE (Cox and Singer, 1986; model 39a)",https://mrdata.usgs.gov/to-json.php?db=ardf&id=ardf_num&labno=BN069
553,BN070,Jump Creek; Wild Bunch,65.891,-162.025,"Placer Au-PGE (Cox and Singer, 1986; model 39a)",https://mrdata.usgs.gov/to-json.php?db=ardf&id=ardf_num&labno=BN070
554,BN071,Wild Bunch (on headwater tributary to Patterson Creek),65.86,-162.12,Quartz-arsenopyrite veins in metasedimentary rocks ?,https://mrdata.usgs.gov/to-json.php?db=ardf&id=ardf_num&labno=BN071
555,BN072,Patterson Creek,65.841,-162.097,"Placer Au-PGE (Cox and Singer, 1986; model 39a)",https://mrdata.usgs.gov/to-json.php?db=ardf&id=ardf_num&labno=BN072
556,BN073,Patterson Creek,65.8,-162.1,Galena-bearing veins in metamorphic rocks,https://mrdata.usgs.gov/to-json.php?db=ardf&id=ardf_num&labno=BN073
557,BN074,Candle Creek,65.839,-162.029,"Placer Au-PGE (Cox and Singer, 1986; model 39a)",https://mrdata.usgs.gov/to-json.php?db=ardf&id=ardf_num&labno=BN074
558,BN075,Billiken; Kugruk,65.69,-162.4931,"Magnesian-iron skarn (Newberry and others, 1997; Cox and Singer, 1986; model 18d).",https://mrdata.usgs.gov/to-json.php?db=ardf&id=ardf_num&labno=BN075
559,BN076,Independence,65.6717,-162.467,"Massive to disseminated sulfide minerals along a deformed and faulted marble-schist contact.  Polymetallic veins ? (Cox and Singer, 1986; model 22c ?).",https://mrdata.usgs.gov/to-json.php?db=ardf&id=ardf_num&labno=BN076
560,BN077,Unnamed (Champion Creek),65.76,-162.38,Polymetallic sulfide mineralization in marble,https://mrdata.usgs.gov/to-json.php?db=ardf&id=ardf_num&labno=BN077
561,BN078,Glacier Creek,65.581,-162.149,"Placer Au-PGE (Cox and singer, 1986; model 39a)",https://mrdata.usgs.gov/to-json.php?db=ardf&id=ardf_num&labno=BN078
562,BN079,Unnamed (near headwaters of Glacier Creek),65.56,-162.18,"Base metal occurrences around Kiwalik Mountain may be epigenetic veins or replacements, volcanogenic massive sulfide deposits,  or skarns.",https://mrdata.usgs.gov/to-json.php?db=ardf&id=ardf_num&labno=BN079
563,BN080,Gold Run,65.548,-162.069,"Placer Au-PGE (Cox and Singer, 1986; model 39a)",https://mrdata.usgs.gov/to-json.php?db=ardf&id=ardf_num&labno=BN080
564,BN081,Dixie Creek,65.525,-162.37,"Placer Au-PGE (Cox and Singer, 1986; model 39a)",https://mrdata.usgs.gov/to-json.php?db=ardf&id=ardf_num&labno=BN081
565,BN082,French Creek,65.48,-162.54,Sulfide vein in marble,https://mrdata.usgs.gov/to-json.php?db=ardf&id=ardf_num&labno=BN082
566,BN083,Big Bar,65.43,-162.17,"Kuroko massive sulfide (Cox and Singer, 1986; model 28a)",https://mrdata.usgs.gov/to-json.php?db=ardf&id=ardf_num&labno=BN083
567,BN084,Timber Creek,65.28,-162.28,Copper-bearing greenstone,https://mrdata.usgs.gov/to-json.php?db=ardf&id=ardf_num&labno=BN084
568,BN085,Unnamed (north of the Tubutulik River),65.25,-162.38,Bismuth in metamorphic rocks,https://mrdata.usgs.gov/to-json.php?db=ardf&id=ardf_num&labno=BN085
569,BN086,Unnamed (near pass on upper Nutmoyuk Creek),65.26,-162.38,Sulfide-bearing veinlets in marble,https://mrdata.usgs.gov/to-json.php?db=ardf&id=ardf_num&labno=BN086
570,BN087,Foster (in headwaters of Otter Creek),65.1,-162.4,"Alluvial placer Sn (Cox and Singer, 1986; model 39e)",https://mrdata.usgs.gov/to-json.php?db=ardf&id=ardf_num&labno=BN087
571,BN088,Otter Creek,65.09,-162.4,"Low sulfide Au-quartz veins ? (Cox and Singer, 1986; model 36a ?)",https://mrdata.usgs.gov/to-json.php?db=ardf&id=ardf_num&labno=BN088
572,BN089,Boulder Creek; Death Valley,65.0507,-162.2467,"Sandstone U (Cox and Singer, 1986; model 30c).",https://mrdata.usgs.gov/to-json.php?db=ardf&id=ardf_num&labno=BN089
573,BN090,Boulder Creek (Grouse Creek),65.03,-162.22,"Placer Au-PGE (Cox and Singer, 1986; model 39a)",https://mrdata.usgs.gov/to-json.php?db=ardf&id=ardf_num&labno=BN090
574,BN091,Camp Creek,65.03,-162.11,"Placer Au-PGE (Cox and Singer, 1986; model 39a)",https://mrdata.usgs.gov/to-json.php?db=ardf&id=ardf_num&labno=BN091
575,BN092,Unnamed (near Granite Creek),65.23,-162.53,"Polymetallic veins ? (Cox and Singer, 1986; model 22c ?)",https://mrdata.usgs.gov/to-json.php?db=ardf&id=ardf_num&labno=BN092
576,BN093,Unnamed (near headwaters of Granite Creek),65.19,-162.59,Polymetallic sulfide mineralization in quartz monzonite,https://mrdata.usgs.gov/to-json.php?db=ardf&id=ardf_num&labno=BN093
577,BN094,Windy Creek,65.14,-162.59,"Porphyry Mo, low-F ? (Cox and Singer, 1986; model 21b ?)  However, the prospect is associated with an alkalic intrusive rock complex and highly polymetallic in character.",https://mrdata.usgs.gov/to-json.php?db=ardf&id=ardf_num&labno=BN094
578,BN095,"Unnamed (headwaters of North Fork, Mosquito Creek)",65.09,-162.6,Sulfide veins and/or replacements in carbonate rocks,https://mrdata.usgs.gov/to-json.php?db=ardf&id=ardf_num&labno=BN095
579,BN096,"Unnamed (north side of North Fork, Mosquito Creek)",65.07,-162.65,Sulfide veins and/or replacements in carbonate rocks,https://mrdata.usgs.gov/to-json.php?db=ardf&id=ardf_num&labno=BN096
580,BN097,Omilak,65.043,-162.66,"Polymetallic vein or replacement in marble (Cox and Singer, 1986; model 19a or 22c ?)",https://mrdata.usgs.gov/to-json.php?db=ardf&id=ardf_num&labno=BN097
581,BN098,Foster,65.03,-162.57,"Polymetallic vein or replacement in marble (Cox and Singer, 1986; model 19a or 22c ?)",https://mrdata.usgs.gov/to-json.php?db=ardf&id=ardf_num&labno=BN098
582,BN099,Ophir Creek,65.0,-163.662,"Placer Au-PGE (Cox and Singer, 1986; model 39a)",https://mrdata.usgs.gov/to-json.php?db=ardf&id=ardf_num&labno=BN099
583,BN100,Lower Crooked Creek,65.02,-163.67,Gold-bearing quartz veins in schistose marble,https://mrdata.usgs.gov/to-json.php?db=ardf&id=ardf_num&labno=BN100
584,BN101,Balm Of Gilead Gulch,65.018,-163.699,"Placer Au-PGE (Cox and Singer, 1986; model 39a)",https://mrdata.usgs.gov/to-json.php?db=ardf&id=ardf_num&labno=BN101
585,BN102,Crooked Creek,65.028,-163.697,"Placer Au-PGE (Cox and Singer, 1986; model 39a)",https://mrdata.usgs.gov/to-json.php?db=ardf&id=ardf_num&labno=BN102
586,BN103,Albion Creek,65.024,-163.705,"Placer Au-PGE (Cox and Singer, 1986; model 39a)",https://mrdata.usgs.gov/to-json.php?db=ardf&id=ardf_num&labno=BN103
587,BN104,Upper Crooked Creek,65.03,-163.75,Gold-bearing quartz veins in schistose marble,https://mrdata.usgs.gov/to-json.php?db=ardf&id=ardf_num&labno=BN104
588,BN105,Goldbottom Creek,65.013,-163.845,"Placer Au-PGE (Cox and Singer, 1986; model 39a)",https://mrdata.usgs.gov/to-json.php?db=ardf&id=ardf_num&labno=BN105
589,BN106,Upper Ophir Creek,65.057,-163.69,"Placer Au-PGE (Cox and Singer, 1986; model 39a)",https://mrdata.usgs.gov/to-json.php?db=ardf&id=ardf_num&labno=BN106
590,BN107,Oxide Creek,65.063,-163.726,"Placer Au-PGE (Cox and Singer, 1986; model 39a)",https://mrdata.usgs.gov/to-json.php?db=ardf&id=ardf_num&labno=BN107
591,BN108,Unnamed; Nesbit Creek ?,65.16,-163.83,Polymetallic veins and disseminations in high grade metamorphic rocks,https://mrdata.usgs.gov/to-json.php?db=ardf&id=ardf_num&labno=BN108
592,BN109,Unnamed (northeast of Chauik Mountain),65.15,-163.77,Galena-bearing vein in high grade metasedimentary rocks,https://mrdata.usgs.gov/to-json.php?db=ardf&id=ardf_num&labno=BN109
593,BN110,Unnamed (in headwaters of Niukluk River),65.19,-163.84,"Zn-Pb skarn (Cox and Singer, 1986; model 18c)",https://mrdata.usgs.gov/to-json.php?db=ardf&id=ardf_num&labno=BN110
594,BN111,Andesite Creek; Lava Lake,65.57,-163.93,Lacustrine sedimentary deposits,https://mrdata.usgs.gov/to-json.php?db=ardf&id=ardf_num&labno=BN111
595,BN112,Collins Creek,65.9,-163.2,"Placer Au-PGE (Cox and Singer, 1986; model 39a)",https://mrdata.usgs.gov/to-json.php?db=ardf&id=ardf_num&labno=BN112
596,BN113,Cunningham Creek,65.929,-163.331,"Placer Au-PGE (Cox and Singer, 1986; model 39a)",https://mrdata.usgs.gov/to-json.php?db=ardf&id=ardf_num&labno=BN113
597,BN114,Hot Springs Creek,65.86,-164.71,Placer cinnabar concentration (?),https://mrdata.usgs.gov/to-json.php?db=ardf&id=ardf_num&labno=BN114
598,BN115,Unnamed (near Omilak Creek),65.03,-162.56,"Polymetallic vein or replacement in marble (Cox and Singer, 1986; model  19a or 22c ?). May be similar to Foster propect (BN098).",https://mrdata.usgs.gov/to-json.php?db=ardf&id=ardf_num&labno=BN115
599,BN116,Unnamed (near Omilak Creek),65.02,-162.56,"Polymetallic vein or replacement in marble (Cox and Singer, 1986; model  19a or 22c ?). May be similar to Foster propect (BN098).",https://mrdata.usgs.gov/to-json.php?db=ardf&id=ardf_num&labno=BN116
600,BN117,Unnamed (Left Fork),65.52,-164.71,Unknown; possibly related to volcanogenic massive sulfide environment,https://mrdata.usgs.gov/to-json.php?db=ardf&id=ardf_num&labno=BN117
601,BN118,Harris Creek,65.63,-164.58,Galena-bearing veins in metamorphic rocks,https://mrdata.usgs.gov/to-json.php?db=ardf&id=ardf_num&labno=BN118
602,BN119,HOM (Mina Creek),65.75,-162.32,"Kuroko massive sulfide (Cox and Singer, 1986; model 28a)",https://mrdata.usgs.gov/to-json.php?db=ardf&id=ardf_num&labno=BN119
603,BN120,Unnamed (in the headwaters of French Creek),65.454,-162.542,Quartz veins in marble,https://mrdata.usgs.gov/to-json.php?db=ardf&id=ardf_num&labno=BN120
604,BN121,Unnamed (Copper Creek),65.18,-162.2,Malachite in marble,https://mrdata.usgs.gov/to-json.php?db=ardf&id=ardf_num&labno=BN121
605,BN122,Cold Spring,65.23,-162.35,Surface precipitates from a cold spring contain Bi,https://mrdata.usgs.gov/to-json.php?db=ardf&id=ardf_num&labno=BN122
606,BN123,Unnamed (in headwaters of Nutmoyuk Creek),65.253,-162.364,Quartz and fluorite vein in calc-silicate rock,https://mrdata.usgs.gov/to-json.php?db=ardf&id=ardf_num&labno=BN123
607,BN124,Unnamed (in the headwaters of Nutmoyuk Creek),65.26,-162.361,Polymetallic mineralization in siliceous rock,https://mrdata.usgs.gov/to-json.php?db=ardf&id=ardf_num&labno=BN124
608,BN125,Unnamed (near head of Albion Creek),65.02,-163.73,Anomalous gold in silicified (?) marble,https://mrdata.usgs.gov/to-json.php?db=ardf&id=ardf_num&labno=BN125
609,BN126,Unnamed (upper Ophir Creek),65.05,-163.69,Quartz boudin in chloritic schist,https://mrdata.usgs.gov/to-json.php?db=ardf&id=ardf_num&labno=BN126
610,BN127,Unnamed (upper Ophir Creek),65.058,-163.692,Calcite vein in marble,https://mrdata.usgs.gov/to-json.php?db=ardf&id=ardf_num&labno=BN127
611,BN128,Unnamed (near headwaters of Dillon Creek),65.208,-163.817,"Polymetallic vein in high grade metamorphic rocks (Cox and Singer, 1986; model 22c ?)",https://mrdata.usgs.gov/to-json.php?db=ardf&id=ardf_num&labno=BN128
612,BN129,Unnamed (on north side of Dillon Creek),65.222,-163.767,"Zn-Pb skarn?  Polymetallic vein ? (Cox and Singer, 1986; model 18c or 22c ?)",https://mrdata.usgs.gov/to-json.php?db=ardf&id=ardf_num&labno=BN129
613,BN130,Unnamed (near upper Niukluk River),65.199,-163.866,"Polymetallic vein in high-grade metamorphic rocks (Cox and Singer, 1986; model 22c ?)",https://mrdata.usgs.gov/to-json.php?db=ardf&id=ardf_num&labno=BN130
614,BN131,Unnamed (along tributary to the Niukluk River),65.2,-163.87,Pyritized zone at greenstone-marble contact,https://mrdata.usgs.gov/to-json.php?db=ardf&id=ardf_num&labno=BN131
615,BN132,Unnamed (northwest side of upper Niukluk River),65.2,-163.93,Base metal mineralization near marble-schist contact,https://mrdata.usgs.gov/to-json.php?db=ardf&id=ardf_num&labno=BN132
616,BN133,Unnamed (Omilak Creek),65.04,-162.53,"Polymetallic vein or replacement in marble (Cox and Singer, 1986; model  19a or 22c ?). May be similar to Foster propect (BN098).",https://mrdata.usgs.gov/to-json.php?db=ardf&id=ardf_num&labno=BN133
617,BN134,Pargon Mountain,65.137,-163.473,Granite pegmatite,https://mrdata.usgs.gov/to-json.php?db=ardf&id=ardf_num&labno=BN134
618,BN135,Unnamed (in headwaters of upper Niukluk River),65.18,-163.87,Duftite (?) in metamorphic rocks,https://mrdata.usgs.gov/to-json.php?db=ardf&id=ardf_num&labno=BN135
619,BN136,Unnamed (upper Niukluk River),65.2,-163.875,"Polymetallic vein (and breccia) in high grade metamorphic rocks (Cox and Singer, 1986; model 22c ?)",https://mrdata.usgs.gov/to-json.php?db=ardf&id=ardf_num&labno=BN136
620,BN137,Arctic Creek,65.627,-164.78,"Placer Au-PGE (Cox and Singer, 1986; model 39a)",https://mrdata.usgs.gov/to-json.php?db=ardf&id=ardf_num&labno=BN137
621,BN138,Omilak East,65.05,-162.56,"Polymetallic vein or replacement (Cox and Singer, 1986; model 19a or 22c ?)",https://mrdata.usgs.gov/to-json.php?db=ardf&id=ardf_num&labno=BN138
622,BN139,Dome Creek,65.7,-162.1,"Placer Au-PGE (Cox and Singer, 1986; model 39a)",https://mrdata.usgs.gov/to-json.php?db=ardf&id=ardf_num&labno=BN139
623,BN140,Milroy Creek,65.9,-163.3,"Placer Au-PGE ? (Cox and Singer, 1986; model 39a)",https://mrdata.usgs.gov/to-json.php?db=ardf&id=ardf_num&labno=BN140
624,BN141,Turner Creek,65.5,-164.4,"Placer Au-PGE (Cox and Singer, 1986; model 39a)",https://mrdata.usgs.gov/to-json.php?db=ardf&id=ardf_num&labno=BN141
625,BN142,Gold Dome,65.62,-164.54,Gold-bearing quartz veins in metamorphic rocks,https://mrdata.usgs.gov/to-json.php?db=ardf&id=ardf_num&labno=BN142
626,BN143,RWM,65.8572,-163.2146,"Probably quartz veins and segregations in metasedimentary rocks (Cox and Singer, 1986, model 36a?)",https://mrdata.usgs.gov/to-json.php?db=ardf&id=ardf_num&labno=BN143
627,BN144,Fireweed,65.2284,-162.4863,"Uraniferous, hematite-quartz  zones in syenite.",https://mrdata.usgs.gov/to-json.php?db=ardf&id=ardf_num&labno=BN144
628,BN145,Unnamed (on Albion Creek),65.0232,-163.7217,"Gold-quartz vein(?) (Cox and Singer, 1986; model 36a).",https://mrdata.usgs.gov/to-json.php?db=ardf&id=ardf_num&labno=BN145
629,BR001,Unnamed (near VABM Fort),66.7578,-141.1196,"Mississippi Valley type lead-zinc deposit? (Cox and Singer, 1986; model 32?)",https://mrdata.usgs.gov/to-json.php?db=ardf&id=ardf_num&labno=BR001
630,BR002,Unnamed (west of Rice Gulch Creek),66.5172,-141.3142,Asbestos and chalcopyrite associated with a small ultramafic body.,https://mrdata.usgs.gov/to-json.php?db=ardf&id=ardf_num&labno=BR002
631,BR003,Unnamed (base of Pink Bluff),66.4411,-141.5205,"Southeast Missouri Pb-Zn (Cox and Singer, 1986; model 32a)",https://mrdata.usgs.gov/to-json.php?db=ardf&id=ardf_num&labno=BR003
632,BR004,Unnamed (east-southeast of Racquet Creek),66.399,-141.0285,Molybdenite in hornfels,https://mrdata.usgs.gov/to-json.php?db=ardf&id=ardf_num&labno=BR004
