,path,deposit_id,name,longitude,latitude,deposit_type,url
0,mrdata_json/phosphate/1350.json,1350,['Ridgeland Basin-Beaufort District'],-80.917,32.583,['Marine chemical sediment; residual enrichment'],https://mrdata.usgs.gov/to-json.php?db=phosphate&id=rec_no&labno=1350
1,mrdata_json/phosphate/223.json,223,['McQuade Brook'],-64.78972,46.23222,['Nonmarine sedimentary'],https://mrdata.usgs.gov/to-json.php?db=phosphate&id=rec_no&labno=223
2,mrdata_json/phosphate/1227.json,1227,['Gafsa Basin'],8.416667,34.316667,['Marine chemical sediment'],https://mrdata.usgs.gov/to-json.php?db=phosphate&id=rec_no&labno=1227
3,mrdata_json/phosphate/1110.json,1110,['Casamance/Ziguinchor'],-16.25,12.583333,['Marine chemical sediment'],https://mrdata.usgs.gov/to-json.php?db=phosphate&id=rec_no&labno=1110
4,mrdata_json/phosphate/232.json,232,['Nemegosenda Complex (Dominion Gulf)'],-83.08333,48.0,"['Magmatic, carbonatite/alkalic']",https://mrdata.usgs.gov/to-json.php?db=phosphate&id=rec_no&labno=232
5,mrdata_json/phosphate/749.json,749,[nan],35.7,33.4,[nan],https://mrdata.usgs.gov/to-json.php?db=phosphate&id=rec_no&labno=749
6,mrdata_json/phosphate/817.json,817,['Dulces Nombres'],-100.5,23.5,['Marine chemical sediment; residual enrichment'],https://mrdata.usgs.gov/to-json.php?db=phosphate&id=rec_no&labno=817
7,mrdata_json/phosphate/1353.json,1353,['Brown-rock phosphate district/Hooker Chemical'],-87.249722,35.723333,['Marine chemical sediment; residual enrichment'],https://mrdata.usgs.gov/to-json.php?db=phosphate&id=rec_no&labno=1353
8,mrdata_json/phosphate/7.json,7,[nan],8.15,35.5166666666667,['Marine chemical sediment'],https://mrdata.usgs.gov/to-json.php?db=phosphate&id=rec_no&labno=7
9,mrdata_json/phosphate/1220.json,1220,['Djebel Gouraya'],8.770833,35.783333,['Marine chemical sediment'],https://mrdata.usgs.gov/to-json.php?db=phosphate&id=rec_no&labno=1220
10,mrdata_json/phosphate/183.json,183,['Morro Do Serrote (Serrote Complex)'],-47.78,-24.5,"['Magmatic, carbonatite/alkalic']",https://mrdata.usgs.gov/to-json.php?db=phosphate&id=rec_no&labno=183
11,mrdata_json/phosphate/1192.json,1192,['Khodzha Achkan (Khodzhaachkan)'],71.2333,39.61667,"['Magmatic, carbonatite/alkalic']",https://mrdata.usgs.gov/to-json.php?db=phosphate&id=rec_no&labno=1192
12,mrdata_json/phosphate/95.json,95,['Georgina Basin/Lady Anne (Annie)-Lady Jane'],139.166667,-19.666667,['Marine chemical sediment'],https://mrdata.usgs.gov/to-json.php?db=phosphate&id=rec_no&labno=95
13,mrdata_json/phosphate/1579.json,1579,['Baliw cave II'],122.95,9.7,['Guano and replacement by guano-derived phosphate'],https://mrdata.usgs.gov/to-json.php?db=phosphate&id=rec_no&labno=1579
14,mrdata_json/phosphate/1040.json,1040,"['Tra-Tau, Shiknanchik, Novii Shikhan']",56.08333,53.58333,['Marine chemical sediment'],https://mrdata.usgs.gov/to-json.php?db=phosphate&id=rec_no&labno=1040
15,mrdata_json/phosphate/523.json,523,"['Quercy, Saint Jean de Laur, etc.']",1.833333,44.416667,['Marine chemical sediment'],https://mrdata.usgs.gov/to-json.php?db=phosphate&id=rec_no&labno=523
16,mrdata_json/phosphate/176.json,176,['Picos'],-41.35,-7.11667,['Marine chemical sediment'],https://mrdata.usgs.gov/to-json.php?db=phosphate&id=rec_no&labno=176
17,mrdata_json/phosphate/607.json,607,['Rassori'],74.466667,22.95,['Marine chemical sediment'],https://mrdata.usgs.gov/to-json.php?db=phosphate&id=rec_no&labno=607
18,mrdata_json/phosphate/1506.json,1506,['Baturong'],118.0,4.716667,['Guano and replacement by guano-derived phosphate'],https://mrdata.usgs.gov/to-json.php?db=phosphate&id=rec_no&labno=1506
19,mrdata_json/phosphate/1558.json,1558,['Talisoy cave'],124.18,13.52,['Guano and replacement by guano-derived phosphate'],https://mrdata.usgs.gov/to-json.php?db=phosphate&id=rec_no&labno=1558
20,mrdata_json/phosphate/1070.json,1070,['Khibiny Complex/Kukisvumchorr deposit'],33.7,67.75,[nan],https://mrdata.usgs.gov/to-json.php?db=phosphate&id=rec_no&labno=1070
21,mrdata_json/phosphate/199.json,199,['Phnom Thom and Prasat'],103.016666666667,13.4666666666667,['Secondary replacement'],https://mrdata.usgs.gov/to-json.php?db=phosphate&id=rec_no&labno=199
22,mrdata_json/phosphate/323.json,323,['Hejiayan'],106.316667,33.26667,['Marine chemical sediment'],https://mrdata.usgs.gov/to-json.php?db=phosphate&id=rec_no&labno=323
23,mrdata_json/phosphate/972.json,972,['Baska'],70.141944,31.491944,[nan],https://mrdata.usgs.gov/to-json.php?db=phosphate&id=rec_no&labno=972
24,mrdata_json/phosphate/253.json,253,['El Pingo'],-70.9667,-28.75,['metamorphic?'],https://mrdata.usgs.gov/to-json.php?db=phosphate&id=rec_no&labno=253
25,mrdata_json/phosphate/732.json,732,['Aktyubinsk Basin/Verkhna-Kara'],57.166667,50.283333,['Marine chemical sediment'],https://mrdata.usgs.gov/to-json.php?db=phosphate&id=rec_no&labno=732
26,mrdata_json/phosphate/883.json,883,"['Hubsgul Basin (Khubsugul)/Mankhan Uul (Manhanulin, Mankhan-ula)']",100.13333,50.31667,['Marine chemical sediment'],https://mrdata.usgs.gov/to-json.php?db=phosphate&id=rec_no&labno=883
27,mrdata_json/phosphate/1478.json,1478,['Kangean Island'],122.21667,-6.9,['Guano and replacement by guano-derived phosphate'],https://mrdata.usgs.gov/to-json.php?db=phosphate&id=rec_no&labno=1478
28,mrdata_json/phosphate/503.json,503,"['Pisseloup les Suancourt, Vitrey']",5.65,47.68333,[nan],https://mrdata.usgs.gov/to-json.php?db=phosphate&id=rec_no&labno=503
29,mrdata_json/phosphate/1282.json,1282,"['Iron Hill (Powderhorn, Cebolla Creek)']",-107.05,38.25,"['Magmatic, carbonatite/alkalic']",https://mrdata.usgs.gov/to-json.php?db=phosphate&id=rec_no&labno=1282
30,mrdata_json/phosphate/1416.json,1416,['Bramble Cay'],143.866667,-19.133333,['Guano and replacement by guano-derived phosphate'],https://mrdata.usgs.gov/to-json.php?db=phosphate&id=rec_no&labno=1416
31,mrdata_json/phosphate/249.json,249,['Le Soledad'],-70.04167,-25.90333,['Volcanic?'],https://mrdata.usgs.gov/to-json.php?db=phosphate&id=rec_no&labno=249
32,mrdata_json/phosphate/205.json,205,['Phnom Totung'],104.533333333333,10.6833333333333,['Residual enrichment'],https://mrdata.usgs.gov/to-json.php?db=phosphate&id=rec_no&labno=205
33,mrdata_json/phosphate/916.json,916,['Ganntour'],-7.16667,31.63333,['Marine chemical sediment'],https://mrdata.usgs.gov/to-json.php?db=phosphate&id=rec_no&labno=916
34,mrdata_json/phosphate/1301.json,1301,['Land Pebble phosphate district/Central Florida district'],-81.938889,27.781111,['Marine chemical sediment'],https://mrdata.usgs.gov/to-json.php?db=phosphate&id=rec_no&labno=1301
35,mrdata_json/phosphate/566.json,566,['Zakinthos'],20.78333,37.78333,['Marine chemical sediment; local residual enrichment'],https://mrdata.usgs.gov/to-json.php?db=phosphate&id=rec_no&labno=566
36,mrdata_json/phosphate/1549.json,1549,['Abayala cave'],123.98,13.7,['Guano and replacement by guano-derived phosphate'],https://mrdata.usgs.gov/to-json.php?db=phosphate&id=rec_no&labno=1549
37,mrdata_json/phosphate/1580.json,1580,['Botokon cave'],122.97,9.72,['Guano and replacement by guano-derived phosphate'],https://mrdata.usgs.gov/to-json.php?db=phosphate&id=rec_no&labno=1580
38,mrdata_json/phosphate/98.json,98,"[""Georgina Basin/Mt. O'Connor""]",138.333333,-18.666667,['Marine chemical sediment'],https://mrdata.usgs.gov/to-json.php?db=phosphate&id=rec_no&labno=98
39,mrdata_json/phosphate/97.json,97,['Georgina Basin/Mt. Jennifer'],138.666667,-18.666667,['Marine chemical sediment'],https://mrdata.usgs.gov/to-json.php?db=phosphate&id=rec_no&labno=97
40,mrdata_json/phosphate/968.json,968,['Al Hasikiyah'],55.6,17.46667,[nan],https://mrdata.usgs.gov/to-json.php?db=phosphate&id=rec_no&labno=968
41,mrdata_json/phosphate/277.json,277,"[""Wenfu/Weng'an""]",107.47917,27.07139,['Marine chemical sediment'],https://mrdata.usgs.gov/to-json.php?db=phosphate&id=rec_no&labno=277
42,mrdata_json/phosphate/597.json,597,['Hirapur Basin/Sagar deposits'],79.5,24.366667,['Sedimentary'],https://mrdata.usgs.gov/to-json.php?db=phosphate&id=rec_no&labno=597
43,mrdata_json/phosphate/1219.json,1219,[nan],8.43333,35.76667,[nan],https://mrdata.usgs.gov/to-json.php?db=phosphate&id=rec_no&labno=1219
44,mrdata_json/phosphate/1271.json,1271,['Shublik Formation/Sadlerochit River deposit'],-145.233333,69.45,['Marine chemical sediment'],https://mrdata.usgs.gov/to-json.php?db=phosphate&id=rec_no&labno=1271
45,mrdata_json/phosphate/18.json,18,['Bordj Redir'],4.906111,35.908056,['Marine chemical sediment'],https://mrdata.usgs.gov/to-json.php?db=phosphate&id=rec_no&labno=18
46,mrdata_json/phosphate/1013.json,1013,['Castelo de Vide (Marvao)'],-7.466667,39.45,"['Veins, Secondary enrichment (?)']",https://mrdata.usgs.gov/to-json.php?db=phosphate&id=rec_no&labno=1013
47,mrdata_json/phosphate/975.json,975,['Hazara'],73.366667,34.416667,['Marine chemical sediment'],https://mrdata.usgs.gov/to-json.php?db=phosphate&id=rec_no&labno=975
48,mrdata_json/phosphate/1090.json,1090,['Kimovsk (Combine)'],38.533333,53.966667,['Marine chemical sediment'],https://mrdata.usgs.gov/to-json.php?db=phosphate&id=rec_no&labno=1090
49,mrdata_json/phosphate/448.json,448,['Nile Valley (Idfu-Qena district)'],32.666667,25.166667,['Marine chemical sediment'],https://mrdata.usgs.gov/to-json.php?db=phosphate&id=rec_no&labno=448
50,mrdata_json/phosphate/1078.json,1078,"['Vuoriyarvi (Vuori-Yarvi, Vuorijarbi)']",30.13333,66.78333,"['Magmatic, carbonatite']",https://mrdata.usgs.gov/to-json.php?db=phosphate&id=rec_no&labno=1078
51,mrdata_json/phosphate/1449.json,1449,['Islote Guanillo de Batuco'],-70.25,-22.38333,['Guano and replacement by guano-derived phosphate'],https://mrdata.usgs.gov/to-json.php?db=phosphate&id=rec_no&labno=1449
52,mrdata_json/phosphate/735.json,735,['Karatau District/Dzhanatas (Zhanatas) deposit'],69.969444,43.649722,['Marine chemical sediment'],https://mrdata.usgs.gov/to-json.php?db=phosphate&id=rec_no&labno=735
53,mrdata_json/phosphate/742.json,742,['Homa Complex (Ndiru Hill)'],34.41667,-0.38333,"['Magmatic, carbonatite']",https://mrdata.usgs.gov/to-json.php?db=phosphate&id=rec_no&labno=742
54,mrdata_json/phosphate/579.json,579,['Kasitpatnam'],83.116667,18.2,['Magmatic'],https://mrdata.usgs.gov/to-json.php?db=phosphate&id=rec_no&labno=579
55,mrdata_json/phosphate/79.json,79,['Georgina Basin/Alroy'],136.083333,-19.333333,['Marine chemical sediment'],https://mrdata.usgs.gov/to-json.php?db=phosphate&id=rec_no&labno=79
56,mrdata_json/phosphate/779.json,779,[nan],-12.76667,20.61667,['Marine chemical sediment'],https://mrdata.usgs.gov/to-json.php?db=phosphate&id=rec_no&labno=779
57,mrdata_json/phosphate/1092.json,1092,['Kamyshin Deposit'],45.4,50.1,['Marine chemical sediment'],https://mrdata.usgs.gov/to-json.php?db=phosphate&id=rec_no&labno=1092
58,mrdata_json/phosphate/1139.json,1139,['Saldanha Embayment/Langebaan (Varswater)'],18.15,-32.96667,['Marine chemical sediment'],https://mrdata.usgs.gov/to-json.php?db=phosphate&id=rec_no&labno=1139
59,mrdata_json/phosphate/300.json,300,['Huji'],112.4,31.183333,['Marine chemical sediment'],https://mrdata.usgs.gov/to-json.php?db=phosphate&id=rec_no&labno=300
60,mrdata_json/phosphate/1343.json,1343,['Aurora Embayment/Aurora District'],-76.5,35.5,['Marine chemical sediment'],https://mrdata.usgs.gov/to-json.php?db=phosphate&id=rec_no&labno=1343
61,mrdata_json/phosphate/1505.json,1505,['Batu Sapad'],118.166667,4.708333,['Guano and replacement by guano-derived phosphate'],https://mrdata.usgs.gov/to-json.php?db=phosphate&id=rec_no&labno=1505
62,mrdata_json/phosphate/1368.json,1368,['SE Wind River Range (combined)'],-108.75,42.666667,['Marine chemical sediment'],https://mrdata.usgs.gov/to-json.php?db=phosphate&id=rec_no&labno=1368
63,mrdata_json/phosphate/589.json,589,['Khejurdari'],86.566667,22.4,['Metasedimentary'],https://mrdata.usgs.gov/to-json.php?db=phosphate&id=rec_no&labno=589
64,mrdata_json/phosphate/1471.json,1471,['Laccadive Islands'],72.5,10.5,['Guano and replacement by guano-derived phosphate;'],https://mrdata.usgs.gov/to-json.php?db=phosphate&id=rec_no&labno=1471
65,mrdata_json/phosphate/1126.json,1126,['Kruidfontein'],27.5,-25.11667,"['Magmatic, carbonatite/alkalic']",https://mrdata.usgs.gov/to-json.php?db=phosphate&id=rec_no&labno=1126
66,mrdata_json/phosphate/96.json,96,['Georgina Basin/Lily Creek'],138.733333,-20.166667,['Marine chemical sediment'],https://mrdata.usgs.gov/to-json.php?db=phosphate&id=rec_no&labno=96
67,mrdata_json/phosphate/190.json,190,['Aloub Djouana (Abobo-Djuana)'],2.133333,11.8,['Marine chemical sediment; residual enrichment'],https://mrdata.usgs.gov/to-json.php?db=phosphate&id=rec_no&labno=190
68,mrdata_json/phosphate/771.json,771,['Adrar Tadhak (Tadhak)'],0.0,20.5,"['Magmatic, carbonatite/alkalic']",https://mrdata.usgs.gov/to-json.php?db=phosphate&id=rec_no&labno=771
69,mrdata_json/phosphate/544.json,544,['Paris Basin/Hallencourt'],1.883333,50.0,['Marine chemical sediment; residual enrichment'],https://mrdata.usgs.gov/to-json.php?db=phosphate&id=rec_no&labno=544
70,mrdata_json/phosphate/1530.json,1530,['North Long Island'],15.13333,-26.81667,['Guano'],https://mrdata.usgs.gov/to-json.php?db=phosphate&id=rec_no&labno=1530
71,mrdata_json/phosphate/358.json,358,['Jinning Erjie Phosphate Mine'],102.516667,24.75,['Marine chemical sediment'],https://mrdata.usgs.gov/to-json.php?db=phosphate&id=rec_no&labno=358
72,mrdata_json/phosphate/1102.json,1102,['Jabal Kharis North'],35.45,28.28333,['Marine chemical sediment'],https://mrdata.usgs.gov/to-json.php?db=phosphate&id=rec_no&labno=1102
73,mrdata_json/phosphate/901.json,901,['Oulad Abdoun Plateau'],-7.2,32.583333,['Marine chemical sediment'],https://mrdata.usgs.gov/to-json.php?db=phosphate&id=rec_no&labno=901
74,mrdata_json/phosphate/1221.json,1221,['El Kef Basin/Tebessa-Thala mining area/Kalaâ- Khasba Deposit'],8.666667,35.666667,['Marine chemical sediment'],https://mrdata.usgs.gov/to-json.php?db=phosphate&id=rec_no&labno=1221
75,mrdata_json/phosphate/368.json,368,['Deze'],103.783333,25.483333,['Marine chemical sediment'],https://mrdata.usgs.gov/to-json.php?db=phosphate&id=rec_no&labno=368
76,mrdata_json/phosphate/1567.json,1567,['McLintok cave'],120.7,18.48,['Guano and replacement by guano-derived phosphate'],https://mrdata.usgs.gov/to-json.php?db=phosphate&id=rec_no&labno=1567
77,mrdata_json/phosphate/471.json,471,['Red Sea Coastal Region/Quseir area'],34.05,26.18333,['Marine chemical sediment'],https://mrdata.usgs.gov/to-json.php?db=phosphate&id=rec_no&labno=471
78,mrdata_json/phosphate/690.json,690,['Lisdonvarna'],-9.283333,53.05,['Marine chemical sediment'],https://mrdata.usgs.gov/to-json.php?db=phosphate&id=rec_no&labno=690
79,mrdata_json/phosphate/1397.json,1397,['Chilembwe (Petauke)'],31.68333,-13.98333,"['Magmatic, alkalic']",https://mrdata.usgs.gov/to-json.php?db=phosphate&id=rec_no&labno=1397
80,mrdata_json/phosphate/1177.json,1177,['Alnö (Alno Island)'],17.183333,62.45,"['Magmatic, carbonatite/alkalic']",https://mrdata.usgs.gov/to-json.php?db=phosphate&id=rec_no&labno=1177
81,mrdata_json/phosphate/132.json,132,['Mons Basin/Ciply area'],3.95,50.416667,['Marine chemical sediment; local residual enrichment'],https://mrdata.usgs.gov/to-json.php?db=phosphate&id=rec_no&labno=132
82,mrdata_json/phosphate/1357.json,1357,['Eastern pelletal phosphorite'],-82.383333,35.8,['Marine chemical sediment (?)'],https://mrdata.usgs.gov/to-json.php?db=phosphate&id=rec_no&labno=1357
83,mrdata_json/phosphate/778.json,778,[nan],-13.86667,19.2,['Marine chemical sediment'],https://mrdata.usgs.gov/to-json.php?db=phosphate&id=rec_no&labno=778
84,mrdata_json/phosphate/851.json,851,['Panfilo Natera Mining District'],-102.11667,22.58333,['Contact metasomatic/hydrothermal'],https://mrdata.usgs.gov/to-json.php?db=phosphate&id=rec_no&labno=851
85,mrdata_json/phosphate/708.json,708,['Negev Desert'],35.983333,30.866667,['Marine chemical sediment'],https://mrdata.usgs.gov/to-json.php?db=phosphate&id=rec_no&labno=708
86,mrdata_json/phosphate/1114.json,1114,['Taiba Plateau'],-16.83333,15.08333,['Marine chemical sediment; residual enrichment'],https://mrdata.usgs.gov/to-json.php?db=phosphate&id=rec_no&labno=1114
87,mrdata_json/phosphate/1398.json,1398,['Kaluwe'],30.01667,-15.16667,"['Magmatic, carbonatite/alkalic, residual enrichment']",https://mrdata.usgs.gov/to-json.php?db=phosphate&id=rec_no&labno=1398
88,mrdata_json/phosphate/1084.json,1084,['Gayumskoe'],14.25,55.71667,['Magmatic'],https://mrdata.usgs.gov/to-json.php?db=phosphate&id=rec_no&labno=1084
89,mrdata_json/phosphate/1169.json,1169,['Skellefte District/Boliden'],20.383333,64.866667,['VMS-shallow marine (metamorphosed)'],https://mrdata.usgs.gov/to-json.php?db=phosphate&id=rec_no&labno=1169
90,mrdata_json/phosphate/68.json,68,['Continental margin'],153.231667,-31.176667,['Marine chemical sediment'],https://mrdata.usgs.gov/to-json.php?db=phosphate&id=rec_no&labno=68
91,mrdata_json/phosphate/1197.json,1197,"['Kwahera (Ufiome, Kawaraa, Kwaramu, Kwaraha, Galappo)']",35.81667,-4.21667,"['Magmatic, carbonatite/alkalic']",https://mrdata.usgs.gov/to-json.php?db=phosphate&id=rec_no&labno=1197
92,mrdata_json/phosphate/787.json,787,[nan],-12.11667,19.78333,['Marine chemical sediment'],https://mrdata.usgs.gov/to-json.php?db=phosphate&id=rec_no&labno=787
93,mrdata_json/phosphate/1525.json,1525,['Halifax Island'],15.08333,-26.65,['Guano'],https://mrdata.usgs.gov/to-json.php?db=phosphate&id=rec_no&labno=1525
94,mrdata_json/phosphate/1504.json,1504,['Kota Jin'],102.483333,3.883333,['Guano and replacement by guano-derived phosphate'],https://mrdata.usgs.gov/to-json.php?db=phosphate&id=rec_no&labno=1504
95,mrdata_json/phosphate/348.json,348,['Laoheba'],103.542778,28.840278,['Marine chemical sediment'],https://mrdata.usgs.gov/to-json.php?db=phosphate&id=rec_no&labno=348
96,mrdata_json/phosphate/38.json,38,['Lacunga River (Lucunga River)'],12.866667,-6.95,['Marine chemical sediment'],https://mrdata.usgs.gov/to-json.php?db=phosphate&id=rec_no&labno=38
97,mrdata_json/phosphate/1228.json,1228,['Gafsa Basin'],8.266667,34.483333,['Marine chemical sediment'],https://mrdata.usgs.gov/to-json.php?db=phosphate&id=rec_no&labno=1228
98,mrdata_json/phosphate/75.json,75,['Amadeus Basin/Ringwood'],135.0,-23.833333,['Marine chemical sediment'],https://mrdata.usgs.gov/to-json.php?db=phosphate&id=rec_no&labno=75
99,mrdata_json/phosphate/807.json,807,['Sierras Gomez Farias-La Carbonera'],-100.96667,24.95,['Marine chemical sediment'],https://mrdata.usgs.gov/to-json.php?db=phosphate&id=rec_no&labno=807
100,mrdata_json/phosphate/533.json,533,['Paris Basin/Hardivillers'],2.233333,49.583333,['Marine chemical sediment; residual enrichment'],https://mrdata.usgs.gov/to-json.php?db=phosphate&id=rec_no&labno=533
101,mrdata_json/phosphate/1529.json,1529,['Mercury Island'],14.66667,-25.71667,['Guano'],https://mrdata.usgs.gov/to-json.php?db=phosphate&id=rec_no&labno=1529
102,mrdata_json/phosphate/908.json,908,['Oulad Abdoun Plateau  (Khouribga)'],-6.96667,32.66667,['Marine chemical sediment; residual enrichment'],https://mrdata.usgs.gov/to-json.php?db=phosphate&id=rec_no&labno=908
103,mrdata_json/phosphate/198.json,198,['Phnom Thoch'],103.016666666667,13.4,['Secondary replacement'],https://mrdata.usgs.gov/to-json.php?db=phosphate&id=rec_no&labno=198
104,mrdata_json/phosphate/1093.json,1093,['Trioko Deposit'],43.716667,51.2,['Marine chemical sediment'],https://mrdata.usgs.gov/to-json.php?db=phosphate&id=rec_no&labno=1093
105,mrdata_json/phosphate/889.json,889,['Hubsgul Basin (Khubsugul)/Ukhaa Gol'],100.03333,51.7,['Marine chemical sediment'],https://mrdata.usgs.gov/to-json.php?db=phosphate&id=rec_no&labno=889
106,mrdata_json/phosphate/1125.json,1125,['Derdepoort'],28.28333,-25.68333,"['Magmatic, carbonatite/alkalic']",https://mrdata.usgs.gov/to-json.php?db=phosphate&id=rec_no&labno=1125
107,mrdata_json/phosphate/362.json,362,['Kunming'],102.683333,25.066667,['Marine chemical sediment'],https://mrdata.usgs.gov/to-json.php?db=phosphate&id=rec_no&labno=362
108,mrdata_json/phosphate/1309.json,1309,['Land Pebble phosphate district'],-81.866944,27.753889,['Marine chemical sediment'],https://mrdata.usgs.gov/to-json.php?db=phosphate&id=rec_no&labno=1309
109,mrdata_json/phosphate/1366.json,1366,['Beckwith Hills'],-110.967,41.883,['Marine chemical sediment'],https://mrdata.usgs.gov/to-json.php?db=phosphate&id=rec_no&labno=1366
110,mrdata_json/phosphate/1516.json,1516,['Selabor'],110.458333,0.916667,['Guano and replacement by guano-derived phosphate'],https://mrdata.usgs.gov/to-json.php?db=phosphate&id=rec_no&labno=1516
111,mrdata_json/phosphate/1269.json,1269,['Gilbert Quarries'],-87.04167,34.97167,['Marine sedimentary?'],https://mrdata.usgs.gov/to-json.php?db=phosphate&id=rec_no&labno=1269
112,mrdata_json/phosphate/341.json,341,['Shifang'],103.35,28.3167,"['Weathering, """"resedimented']",https://mrdata.usgs.gov/to-json.php?db=phosphate&id=rec_no&labno=341
113,mrdata_json/phosphate/1542.json,1542,['Curacao Island'],-68.93,12.16,['Guano and replacement by guano-derived phosphate; residual enrichment'],https://mrdata.usgs.gov/to-json.php?db=phosphate&id=rec_no&labno=1542
114,mrdata_json/phosphate/1495.json,1495,['Starbuck Island'],-155.88333,-5.61667,['Guano'],https://mrdata.usgs.gov/to-json.php?db=phosphate&id=rec_no&labno=1495
115,mrdata_json/phosphate/1319.json,1319,['North Florida-South Georgia district'],-82.857222,30.451944,['Marine chemical sediment'],https://mrdata.usgs.gov/to-json.php?db=phosphate&id=rec_no&labno=1319
116,mrdata_json/phosphate/1556.json,1556,['Marapad cave'],124.28,13.95,['Guano and replacement by guano-derived phosphate'],https://mrdata.usgs.gov/to-json.php?db=phosphate&id=rec_no&labno=1556
117,mrdata_json/phosphate/1142.json,1142,['Saldanha Embayment/Sandheuwel'],20.8,-31.76667,['Marine chemical sediment'],https://mrdata.usgs.gov/to-json.php?db=phosphate&id=rec_no&labno=1142
118,mrdata_json/phosphate/1095.json,1095,['Seligdar'],125.033333,58.383333,"['Magmatic, carbonatite/alkalic']",https://mrdata.usgs.gov/to-json.php?db=phosphate&id=rec_no&labno=1095
119,mrdata_json/phosphate/59.json,59,['Lago Argentino'],-72.5,-50.33333,['Marine chemical sediment'],https://mrdata.usgs.gov/to-json.php?db=phosphate&id=rec_no&labno=59
120,mrdata_json/phosphate/99.json,99,['Georgina Basin/Phantom Hills'],138.5,-18.833333,['Marine chemical sediment'],https://mrdata.usgs.gov/to-json.php?db=phosphate&id=rec_no&labno=99
121,mrdata_json/phosphate/159.json,159,['Ouvidor'],-47.78333,-18.25,"['Magmatic, carbonatite/alkalic; residual enrichment']",https://mrdata.usgs.gov/to-json.php?db=phosphate&id=rec_no&labno=159
122,mrdata_json/phosphate/1037.json,1037,"['Kush-Tau, Yurak-Tau-Tau']",56.16667,53.66667,['Marine chemical sediment'],https://mrdata.usgs.gov/to-json.php?db=phosphate&id=rec_no&labno=1037
123,mrdata_json/phosphate/108.json,108,['Tasman Basin/Mathinna'],147.916667,-41.416667,['Marine chemical sediment'],https://mrdata.usgs.gov/to-json.php?db=phosphate&id=rec_no&labno=108
124,mrdata_json/phosphate/839.json,839,[nan],-101.98333,23.8,['Marine chemical sediment?'],https://mrdata.usgs.gov/to-json.php?db=phosphate&id=rec_no&labno=839
125,mrdata_json/phosphate/1436.json,1436,['Baker Island'],-176.45,0.25,['Guano'],https://mrdata.usgs.gov/to-json.php?db=phosphate&id=rec_no&labno=1436
126,mrdata_json/phosphate/1454.json,1454,['Islote Huaqui'],-70.275,-22.68333,['Guano and replacement by guano-derived phosphate'],https://mrdata.usgs.gov/to-json.php?db=phosphate&id=rec_no&labno=1454
127,mrdata_json/phosphate/852.json,852,['Potrerillos'],-101.118056,24.458889,['Marine chemical sediment'],https://mrdata.usgs.gov/to-json.php?db=phosphate&id=rec_no&labno=852
128,mrdata_json/phosphate/116.json,116,['Howquahiver'],146.0,-37.166667,['Marine chemical sediment'],https://mrdata.usgs.gov/to-json.php?db=phosphate&id=rec_no&labno=116
129,mrdata_json/phosphate/1239.json,1239,['Kilis'],37.03333,36.81667,[nan],https://mrdata.usgs.gov/to-json.php?db=phosphate&id=rec_no&labno=1239
130,mrdata_json/phosphate/1160.json,1160,['Fontanarejo/Horcajo de los Montes'],-4.65,39.316667,['Sedimentary'],https://mrdata.usgs.gov/to-json.php?db=phosphate&id=rec_no&labno=1160
131,mrdata_json/phosphate/424.json,424,['Bingo (Bingu)'],29.28333,0.6,['Magmatic carbonatite/alkalic; residual enrichment'],https://mrdata.usgs.gov/to-json.php?db=phosphate&id=rec_no&labno=424
132,mrdata_json/phosphate/264.json,264,"[""Feng-T'ai (Fengtai)""]",116.75,32.666667,['Marine chemical sediment'],https://mrdata.usgs.gov/to-json.php?db=phosphate&id=rec_no&labno=264
133,mrdata_json/phosphate/308.json,308,['Huangjingping'],112.63333,27.61667,"['Weathering, secondary enrichment']",https://mrdata.usgs.gov/to-json.php?db=phosphate&id=rec_no&labno=308
134,mrdata_json/phosphate/115.json,115,['Gippsland Basin'],147.983333,-37.883333,['Marine chemical sediment'],https://mrdata.usgs.gov/to-json.php?db=phosphate&id=rec_no&labno=115
135,mrdata_json/phosphate/1362.json,1362,['Deseret Basin/Laketown'],-111.290278,41.826944,['Marine chemical sediment'],https://mrdata.usgs.gov/to-json.php?db=phosphate&id=rec_no&labno=1362
136,mrdata_json/phosphate/1150.json,1150,['Costanza vein'],-5.51666666666667,39.3333333333333,"['Veins, secondary enrichment (?)']",https://mrdata.usgs.gov/to-json.php?db=phosphate&id=rec_no&labno=1150
137,mrdata_json/phosphate/1472.json,1472,['Karangrayung'],110.76667,-7.11667,['Guano and replacement by guano-derived phosphate'],https://mrdata.usgs.gov/to-json.php?db=phosphate&id=rec_no&labno=1472
138,mrdata_json/phosphate/1312.json,1312,['Land Pebble phosphate district/Central Florida district'],-81.811111,27.725,['Marine chemical sediment'],https://mrdata.usgs.gov/to-json.php?db=phosphate&id=rec_no&labno=1312
139,mrdata_json/phosphate/180.json,180,['Anitapolis'],-49.1,-27.808333,['Magmatic carbonatite/alkalic; residual enrichment'],https://mrdata.usgs.gov/to-json.php?db=phosphate&id=rec_no&labno=180
140,mrdata_json/phosphate/442.json,442,[nan],32.85,25.2,[nan],https://mrdata.usgs.gov/to-json.php?db=phosphate&id=rec_no&labno=442
141,mrdata_json/phosphate/1136.json,1136,['Saldanha Embayment/Elandsfontyn'],24.91667,-31.71667,['Marine chemical sediment'],https://mrdata.usgs.gov/to-json.php?db=phosphate&id=rec_no&labno=1136
142,mrdata_json/phosphate/938.json,938,[nan],82.5166666666667,28.0166666666667,['Marine chemical sediment'],https://mrdata.usgs.gov/to-json.php?db=phosphate&id=rec_no&labno=938
143,mrdata_json/phosphate/1196.json,1196,['Kerimasi (Kerimasio)'],35.95,-2.86667,"['Magmatic, carbonatite/alkalic']",https://mrdata.usgs.gov/to-json.php?db=phosphate&id=rec_no&labno=1196
144,mrdata_json/phosphate/441.json,441,[nan],32.76667,25.18333,[nan],https://mrdata.usgs.gov/to-json.php?db=phosphate&id=rec_no&labno=441
145,mrdata_json/phosphate/312.json,312,"['Nantung (Nantong, Jinsha)']",120.883333,32.033333,['Marine chemical sediment'],https://mrdata.usgs.gov/to-json.php?db=phosphate&id=rec_no&labno=312
146,mrdata_json/phosphate/712.json,712,['Donnafugata (Donnalucata) region'],14.7,36.8,"['Marine chemical sediment, replacement']",https://mrdata.usgs.gov/to-json.php?db=phosphate&id=rec_no&labno=712
147,mrdata_json/phosphate/1501.json,1501,['Gua Musang'],101.908333,4.883333,['Guano and replacement by guano-derived phosphate'],https://mrdata.usgs.gov/to-json.php?db=phosphate&id=rec_no&labno=1501
148,mrdata_json/phosphate/289.json,289,[nan],112.3,31.433333,['Marine chemical sediment'],https://mrdata.usgs.gov/to-json.php?db=phosphate&id=rec_no&labno=289
149,mrdata_json/phosphate/803.json,803,['Mina Honda'],-101.98333,27.68333,['Marine chemical sediment'],https://mrdata.usgs.gov/to-json.php?db=phosphate&id=rec_no&labno=803
150,mrdata_json/phosphate/121.json,121,['Otaway Basin'],143.15,-38.683333,['Marine chemical sediment'],https://mrdata.usgs.gov/to-json.php?db=phosphate&id=rec_no&labno=121
151,mrdata_json/phosphate/1143.json,1143,['Agulhas Bank'],23.3,-34.3,['Marine chemical sediment'],https://mrdata.usgs.gov/to-json.php?db=phosphate&id=rec_no&labno=1143
152,mrdata_json/phosphate/1277.json,1277,['Wilson Corner (Indian Creek)'],-120.41667,35.46667,['Marine chemical sediment'],https://mrdata.usgs.gov/to-json.php?db=phosphate&id=rec_no&labno=1277
153,mrdata_json/phosphate/19.json,19,['Djebel Onk'],8.0,34.716667,['Marine chemical sediment'],https://mrdata.usgs.gov/to-json.php?db=phosphate&id=rec_no&labno=19
154,mrdata_json/phosphate/1473.json,1473,['Sukolilo; Brati'],111.0,-6.75,['Guano and replacement by guano-derived phosphate'],https://mrdata.usgs.gov/to-json.php?db=phosphate&id=rec_no&labno=1473
155,mrdata_json/phosphate/228.json,228,['Kapuskasing'],-82.43333,49.41667,['Magmatic?'],https://mrdata.usgs.gov/to-json.php?db=phosphate&id=rec_no&labno=228
156,mrdata_json/phosphate/1320.json,1320,['Savannah District'],-81.083,32.05,['Marine chemical sediment'],https://mrdata.usgs.gov/to-json.php?db=phosphate&id=rec_no&labno=1320
157,mrdata_json/phosphate/1432.json,1432,['Houtman Abrolhos'],113.8,-28.716667,['Guano and replacement by guano-derived phosphate'],https://mrdata.usgs.gov/to-json.php?db=phosphate&id=rec_no&labno=1432
158,mrdata_json/phosphate/836.json,836,[nan],-101.91667,22.56667,['Contact metasomatic'],https://mrdata.usgs.gov/to-json.php?db=phosphate&id=rec_no&labno=836
159,mrdata_json/phosphate/1560.json,1560,['Cave No. 3'],123.73,10.28,['Guano and replacement by guano-derived phosphate'],https://mrdata.usgs.gov/to-json.php?db=phosphate&id=rec_no&labno=1560
160,mrdata_json/phosphate/737.json,737,['Karatau District/Chulak-Tau (Chulak Tau) deposit'],70.466667,43.166667,['Marine chemical sediment'],https://mrdata.usgs.gov/to-json.php?db=phosphate&id=rec_no&labno=737
161,mrdata_json/phosphate/136.json,136,['Krichev'],31.71667,53.7,['Marine chemical sediment'],https://mrdata.usgs.gov/to-json.php?db=phosphate&id=rec_no&labno=136
162,mrdata_json/phosphate/937.json,937,['Swartbooisdrif'],13.81667,-17.33333,"['Magmatic, carbonatite/alkalic']",https://mrdata.usgs.gov/to-json.php?db=phosphate&id=rec_no&labno=937
163,mrdata_json/phosphate/846.json,846,['Fosforita'],-101.983,23.9,['Magmatic-related'],https://mrdata.usgs.gov/to-json.php?db=phosphate&id=rec_no&labno=846
164,mrdata_json/phosphate/158.json,158,['Nova Roma'],-46.95,-13.85,['Marine chemical sediment; residual enrichment'],https://mrdata.usgs.gov/to-json.php?db=phosphate&id=rec_no&labno=158
165,mrdata_json/phosphate/1328.json,1328,['SE Idaho phosphate district/Henry'],-111.463333,42.786667,['Marine chemical sediment; residual enrichment'],https://mrdata.usgs.gov/to-json.php?db=phosphate&id=rec_no&labno=1328
166,mrdata_json/phosphate/175.json,175,['Olinda'],-34.86667,-7.95,['Marine chemical sediment'],https://mrdata.usgs.gov/to-json.php?db=phosphate&id=rec_no&labno=175
167,mrdata_json/phosphate/443.json,443,['Abu Bayan Area/Dungul and Kurkur'],30.0,28.0,['Marine chemical sediment'],https://mrdata.usgs.gov/to-json.php?db=phosphate&id=rec_no&labno=443
168,mrdata_json/phosphate/1372.json,1372,['Lizardo'],-68.267,10.8,['Marine chemical sediment'],https://mrdata.usgs.gov/to-json.php?db=phosphate&id=rec_no&labno=1372
169,mrdata_json/phosphate/365.json,365,['Haikou'],102.583333,24.766667,['Marine chemical sediment'],https://mrdata.usgs.gov/to-json.php?db=phosphate&id=rec_no&labno=365
170,mrdata_json/phosphate/1034.json,1034,['Abdullino'],58.0,56.08333,['Marine chemical sediment'],https://mrdata.usgs.gov/to-json.php?db=phosphate&id=rec_no&labno=1034
171,mrdata_json/phosphate/12.json,12,[nan],2.85,35.86667,[nan],https://mrdata.usgs.gov/to-json.php?db=phosphate&id=rec_no&labno=12
172,mrdata_json/phosphate/13.json,13,[nan],2.81667,35.81667,[nan],https://mrdata.usgs.gov/to-json.php?db=phosphate&id=rec_no&labno=13
173,mrdata_json/phosphate/1423.json,1423,['Marum Island'],136.25,-34.516667,['Guano and replacement by guano-derived phosphate'],https://mrdata.usgs.gov/to-json.php?db=phosphate&id=rec_no&labno=1423
174,mrdata_json/phosphate/936.json,936,['Osongombe Complex'],16.51667,-20.88333,"['Magmatic, carbonatite/alkalic']",https://mrdata.usgs.gov/to-json.php?db=phosphate&id=rec_no&labno=936
175,mrdata_json/phosphate/590.json,590,['Parthargora; Nandup; Sunrgi; Kulamara'],85.5,22.5,['Igneous (metamorphosed)'],https://mrdata.usgs.gov/to-json.php?db=phosphate&id=rec_no&labno=590
176,mrdata_json/phosphate/970.json,970,['Lasbela'],66.31667,26.23333,['Sedimentary'],https://mrdata.usgs.gov/to-json.php?db=phosphate&id=rec_no&labno=970
177,mrdata_json/phosphate/461.json,461,['Nile Valley (Idfu-Qena district)/'],32.66667,27.16664,['Marine chemical sediment'],https://mrdata.usgs.gov/to-json.php?db=phosphate&id=rec_no&labno=461
178,mrdata_json/phosphate/639.json,639,['Tambesra'],74.25,23.5,['Marine chemical sediment'],https://mrdata.usgs.gov/to-json.php?db=phosphate&id=rec_no&labno=639
179,mrdata_json/phosphate/188.json,188,['Provadija'],27.43333,43.18333,['Marine chemical sediment'],https://mrdata.usgs.gov/to-json.php?db=phosphate&id=rec_no&labno=188
180,mrdata_json/phosphate/237.json,237,['Sept-Iles'],-66.38333,50.2,['Magmatic'],https://mrdata.usgs.gov/to-json.php?db=phosphate&id=rec_no&labno=237
181,mrdata_json/phosphate/1085.json,1085,['Ir-Nimiiskoe-2'],134.63333,54.13333,['Sedimentary'],https://mrdata.usgs.gov/to-json.php?db=phosphate&id=rec_no&labno=1085
182,mrdata_json/phosphate/1594.json,1594,[nan],-67.84444,18.09333,['Guano'],https://mrdata.usgs.gov/to-json.php?db=phosphate&id=rec_no&labno=1594
183,mrdata_json/phosphate/36.json,36,['Coluge; Tando'],12.9,-6.8,['Marine chemical sediment'],https://mrdata.usgs.gov/to-json.php?db=phosphate&id=rec_no&labno=36
184,mrdata_json/phosphate/1585.json,1585,[nan],-66.47555,18.08667,['Guano'],https://mrdata.usgs.gov/to-json.php?db=phosphate&id=rec_no&labno=1585
185,mrdata_json/phosphate/94.json,94,['Georgina Basin/Engine Creek'],138.89,-20.16667,['Marine chemical sediment'],https://mrdata.usgs.gov/to-json.php?db=phosphate&id=rec_no&labno=94
186,mrdata_json/phosphate/844.json,844,['Colorada'],-101.238889,24.803056,['Marine chemical sediment'],https://mrdata.usgs.gov/to-json.php?db=phosphate&id=rec_no&labno=844
187,mrdata_json/phosphate/1340.json,1340,['Montana phosphate district'],-111.957222,45.040556,['Marine chemical sediment'],https://mrdata.usgs.gov/to-json.php?db=phosphate&id=rec_no&labno=1340
188,mrdata_json/phosphate/1374.json,1374,['Sanare'],-69.65194,9.75139,['Marine chemical sediment'],https://mrdata.usgs.gov/to-json.php?db=phosphate&id=rec_no&labno=1374
189,mrdata_json/phosphate/427.json,427,['Loufika'],12.169444,-4.676389,['Marine chemical sediment'],https://mrdata.usgs.gov/to-json.php?db=phosphate&id=rec_no&labno=427
190,mrdata_json/phosphate/22.json,22,['Bou Saada'],4.166944,35.216944,['Marine chemical sediment'],https://mrdata.usgs.gov/to-json.php?db=phosphate&id=rec_no&labno=22
191,mrdata_json/phosphate/1241.json,1241,['Mazidagi'],40.5,37.516667,['Marine chemical sediment; residual enrichment'],https://mrdata.usgs.gov/to-json.php?db=phosphate&id=rec_no&labno=1241
192,mrdata_json/phosphate/125.json,125,['Murchison River'],115.5,-27.5,['Marine chemical sediment'],https://mrdata.usgs.gov/to-json.php?db=phosphate&id=rec_no&labno=125
193,mrdata_json/phosphate/1607.json,1607,[nan],-67.87861,18.11583,['Guano'],https://mrdata.usgs.gov/to-json.php?db=phosphate&id=rec_no&labno=1607
194,mrdata_json/phosphate/1255.json,1255,['Arsana'],52.56667,24.8,[nan],https://mrdata.usgs.gov/to-json.php?db=phosphate&id=rec_no&labno=1255
195,mrdata_json/phosphate/167.json,167,['Tapira'],-46.833333,-19.866667,"['Magmatic, carbonatite/alkalic; residual enrichment']",https://mrdata.usgs.gov/to-json.php?db=phosphate&id=rec_no&labno=167
196,mrdata_json/phosphate/1622.json,1622,"['Mae Tha (Mae Ta, Maeta)']",98.9778,18.3825,['Guano and replacement by guano-derived phosphate'],https://mrdata.usgs.gov/to-json.php?db=phosphate&id=rec_no&labno=1622
197,mrdata_json/phosphate/495.json,495,['Sokli Complex'],29.25,67.75,"['Magmatic, carbonatite/alkalic; residual enrichment']",https://mrdata.usgs.gov/to-json.php?db=phosphate&id=rec_no&labno=495
198,mrdata_json/phosphate/1519.json,1519,['El Chapote - La Casualidad (Chapopote 1 y 2)'],-100.75,26.41667,['Guano and replacement by guano-derived phosphate'],https://mrdata.usgs.gov/to-json.php?db=phosphate&id=rec_no&labno=1519
199,mrdata_json/phosphate/269.json,269,"[""Du'an""]",106.633333,23.333333,['Residual enrichment'],https://mrdata.usgs.gov/to-json.php?db=phosphate&id=rec_no&labno=269
200,mrdata_json/phosphate/548.json,548,['Mabounie'],11.7,-0.7,"['Magmatic, carbonatitic/alkalic; residual enrichment']",https://mrdata.usgs.gov/to-json.php?db=phosphate&id=rec_no&labno=548
201,mrdata_json/phosphate/268.json,268,['Balong'],107.1,23.133333,[nan],https://mrdata.usgs.gov/to-json.php?db=phosphate&id=rec_no&labno=268
202,mrdata_json/phosphate/1358.json,1358,['East Fork District'],-82.383333,35.8,['Marine chemical sediment (?)'],https://mrdata.usgs.gov/to-json.php?db=phosphate&id=rec_no&labno=1358
203,mrdata_json/phosphate/76.json,76,['Bathurst Island'],130.333333,-11.5,['Marine chemical sediment'],https://mrdata.usgs.gov/to-json.php?db=phosphate&id=rec_no&labno=76
204,mrdata_json/phosphate/1168.json,1168,['Påläng'],17.15,62.383333,['Marine chemical sediment (metamorphosed)'],https://mrdata.usgs.gov/to-json.php?db=phosphate&id=rec_no&labno=1168
205,mrdata_json/phosphate/947.json,947,['Bajhang zone'],80.9333333333333,29.5666666666667,['Marine chemical sediment'],https://mrdata.usgs.gov/to-json.php?db=phosphate&id=rec_no&labno=947
206,mrdata_json/phosphate/1526.json,1526,['Hollandsbird Island'],14.53333,-24.63333,['Guano'],https://mrdata.usgs.gov/to-json.php?db=phosphate&id=rec_no&labno=1526
207,mrdata_json/phosphate/537.json,537,['La Bastide de Serou; Castelnau Durban'],1.4,43.0,['Marine chemical sediment'],https://mrdata.usgs.gov/to-json.php?db=phosphate&id=rec_no&labno=537
208,mrdata_json/phosphate/683.json,683,['Zagros Mountains/Sheikhabil'],51.0666666666667,30.8333333333333,['Marine chemical sediment'],https://mrdata.usgs.gov/to-json.php?db=phosphate&id=rec_no&labno=683
209,mrdata_json/phosphate/1576.json,1576,['No. two cave'],123.43,10.77,['Guano and replacement by guano-derived phosphate'],https://mrdata.usgs.gov/to-json.php?db=phosphate&id=rec_no&labno=1576
210,mrdata_json/phosphate/963.json,963,[nan],9.63333333333333,58.95,['Magmatic-Hydrothermal; replacement'],https://mrdata.usgs.gov/to-json.php?db=phosphate&id=rec_no&labno=963
211,mrdata_json/phosphate/568.json,568,['Mount Parnon'],22.63333,37.2,[nan],https://mrdata.usgs.gov/to-json.php?db=phosphate&id=rec_no&labno=568
212,mrdata_json/phosphate/491.json,491,['Borena'],38.76667,10.75,['Magmatic'],https://mrdata.usgs.gov/to-json.php?db=phosphate&id=rec_no&labno=491
213,mrdata_json/phosphate/142.json,142,['Caranavi'],-67.55,-15.75,['Marine chemical sediment'],https://mrdata.usgs.gov/to-json.php?db=phosphate&id=rec_no&labno=142
214,mrdata_json/phosphate/1198.json,1198,['Luhombero - Pangani Gorge'],38.06667,-7.83333,"['Magmatic, carbonatite/alkalic']",https://mrdata.usgs.gov/to-json.php?db=phosphate&id=rec_no&labno=1198
215,mrdata_json/phosphate/165.json,165,['Patrocino'],-46.75,-19.0,"['Magmatic, carbonatite/alkalic; residual enrichment']",https://mrdata.usgs.gov/to-json.php?db=phosphate&id=rec_no&labno=165
216,mrdata_json/phosphate/437.json,437,['Rio Chingual'],-77.16667,0.05,['Marine chemical sediment'],https://mrdata.usgs.gov/to-json.php?db=phosphate&id=rec_no&labno=437
217,mrdata_json/phosphate/920.json,920,['Ganntour'],-8.533333,32.25,"['Marine chemical sediment, residual enrichment']",https://mrdata.usgs.gov/to-json.php?db=phosphate&id=rec_no&labno=920
218,mrdata_json/phosphate/583.json,583,['Gandhra'],73.691667,22.45,['Marine chemical sediment'],https://mrdata.usgs.gov/to-json.php?db=phosphate&id=rec_no&labno=583
219,mrdata_json/phosphate/337.json,337,['Emei (Omei)'],103.5,29.6,['Marine chemical sediment'],https://mrdata.usgs.gov/to-json.php?db=phosphate&id=rec_no&labno=337
220,mrdata_json/phosphate/1348.json,1348,['Blake Plateau/Charleston Bump'],-79.0,31.5,['Marine chemical sediment'],https://mrdata.usgs.gov/to-json.php?db=phosphate&id=rec_no&labno=1348
221,mrdata_json/phosphate/130.json,130,['Nethe (Fleuve) Petite et Grande'],5.03333,51.28333,['Marine chemical sediment'],https://mrdata.usgs.gov/to-json.php?db=phosphate&id=rec_no&labno=130
222,mrdata_json/phosphate/1.json,1,['Khanneshin'],63.58333,30.03333,[nan],https://mrdata.usgs.gov/to-json.php?db=phosphate&id=rec_no&labno=1
223,mrdata_json/phosphate/417.json,417,['Vanegas'],-73.315556,7.352778,['Marine chemical sediment'],https://mrdata.usgs.gov/to-json.php?db=phosphate&id=rec_no&labno=417
224,mrdata_json/phosphate/1155.json,1155,['Valencia de Alcantara'],-7.25,39.3666666666667,"['Veins, secondary enrichment (?)']",https://mrdata.usgs.gov/to-json.php?db=phosphate&id=rec_no&labno=1155
225,mrdata_json/phosphate/907.json,907,['Oulad Abdoun Plateau  (Khouribga)'],-6.666667,32.783333,['Marine chemical sediment; residual enrichment'],https://mrdata.usgs.gov/to-json.php?db=phosphate&id=rec_no&labno=907
226,mrdata_json/phosphate/806.json,806,['San Juan'],-101.1,27.25,['Marine chemical sediment'],https://mrdata.usgs.gov/to-json.php?db=phosphate&id=rec_no&labno=806
227,mrdata_json/phosphate/63.json,63,['Tres Lagos'],-71.33333,-49.5,['Marine chemical sediment'],https://mrdata.usgs.gov/to-json.php?db=phosphate&id=rec_no&labno=63
228,mrdata_json/phosphate/458.json,458,['Nile Valley (Idfu-Qena district)'],33.03333,26.2,['Marine chemical sediment'],https://mrdata.usgs.gov/to-json.php?db=phosphate&id=rec_no&labno=458
229,mrdata_json/phosphate/750.json,750,[nan],35.65,33.51667,[nan],https://mrdata.usgs.gov/to-json.php?db=phosphate&id=rec_no&labno=750
230,mrdata_json/phosphate/1003.json,1003,['Branica'],22.883333,51.733333,['Marine chemical sediment'],https://mrdata.usgs.gov/to-json.php?db=phosphate&id=rec_no&labno=1003
231,mrdata_json/phosphate/1592.json,1592,[nan],-67.93472,18.11278,['Guano'],https://mrdata.usgs.gov/to-json.php?db=phosphate&id=rec_no&labno=1592
232,mrdata_json/phosphate/795.json,795,['San Juan de la Costa'],-110.70222,24.3825,['Marine chemical sediment'],https://mrdata.usgs.gov/to-json.php?db=phosphate&id=rec_no&labno=795
233,mrdata_json/phosphate/952.json,952,['Ootmarsum'],6.883333,52.4,['Marine chemical sediment'],https://mrdata.usgs.gov/to-json.php?db=phosphate&id=rec_no&labno=952
234,mrdata_json/phosphate/1017.json,1017,[nan],-67.84639,18.08972,['Sedimentary? Biogenic?'],https://mrdata.usgs.gov/to-json.php?db=phosphate&id=rec_no&labno=1017
235,mrdata_json/phosphate/919.json,919,['Ganntour'],-8.45,32.25,['Marine chemical sediment; residual enrichment'],https://mrdata.usgs.gov/to-json.php?db=phosphate&id=rec_no&labno=919
236,mrdata_json/phosphate/1191.json,1191,['Wadi El Rachim (Wadi Erkheime;  Er Rakheime)'],37.56667,34.78333,['Marine chemical sediment'],https://mrdata.usgs.gov/to-json.php?db=phosphate&id=rec_no&labno=1191
237,mrdata_json/phosphate/981.json,981,['Mushal Khot'],70.041944,31.441944,[nan],https://mrdata.usgs.gov/to-json.php?db=phosphate&id=rec_no&labno=981
238,mrdata_json/phosphate/899.json,899,[nan],-7.66667,32.23333,[nan],https://mrdata.usgs.gov/to-json.php?db=phosphate&id=rec_no&labno=899
239,mrdata_json/phosphate/728.json,728,['Aktyubinsk Basin/Koktiubinsk'],57.166667,50.283333,['Marine chemical sediment'],https://mrdata.usgs.gov/to-json.php?db=phosphate&id=rec_no&labno=728
240,mrdata_json/phosphate/231.json,231,['Martison Lake'],-83.4,50.31667,"['Magmatic, carbonatite/alkalic; residual enrichment']",https://mrdata.usgs.gov/to-json.php?db=phosphate&id=rec_no&labno=231
241,mrdata_json/phosphate/467.json,467,['Red Sea Coastal Region/Quseir area'],32.2,24.21667,['Marine chemical sediment'],https://mrdata.usgs.gov/to-json.php?db=phosphate&id=rec_no&labno=467
242,mrdata_json/phosphate/847.json,847,['Lorenzena'],-102.036944,25.018889,['Marine chemical sediment'],https://mrdata.usgs.gov/to-json.php?db=phosphate&id=rec_no&labno=847
243,mrdata_json/phosphate/265.json,265,[nan],117.7,31.75,[nan],https://mrdata.usgs.gov/to-json.php?db=phosphate&id=rec_no&labno=265
244,mrdata_json/phosphate/1583.json,1583,['Luhok cave'],119.97,15.63,['Guano and replacement by guano-derived phosphate'],https://mrdata.usgs.gov/to-json.php?db=phosphate&id=rec_no&labno=1583
245,mrdata_json/phosphate/82.json,82,['Lee Point'],130.833333,-12.333333,['Marine chemical sediment'],https://mrdata.usgs.gov/to-json.php?db=phosphate&id=rec_no&labno=82
246,mrdata_json/phosphate/1606.json,1606,[nan],-67.88694,18.11389,['Guano'],https://mrdata.usgs.gov/to-json.php?db=phosphate&id=rec_no&labno=1606
247,mrdata_json/phosphate/144.json,144,['Sud Chichas area'],-65.28333,-19.41667,['Marine chemical sediment'],https://mrdata.usgs.gov/to-json.php?db=phosphate&id=rec_no&labno=144
248,mrdata_json/phosphate/763.json,763,['Kalambo Stream area'],34.98333,-14.95,"['Magmatic, carbonatite/alkalic']",https://mrdata.usgs.gov/to-json.php?db=phosphate&id=rec_no&labno=763
249,mrdata_json/phosphate/1608.json,1608,[nan],-67.93944,18.0875,['Guano'],https://mrdata.usgs.gov/to-json.php?db=phosphate&id=rec_no&labno=1608
250,mrdata_json/phosphate/924.json,924,['Cone Negosa (Negoza cone Negose)'],31.27444,-15.54028,"['Magmatic, carbonatite/alkalic, residual enrichment; metasomatic?']",https://mrdata.usgs.gov/to-json.php?db=phosphate&id=rec_no&labno=924
251,mrdata_json/phosphate/40.json,40,['Quindonacache'],12.9,-6.8,"['Marine chemical sediment, residual enrichment']",https://mrdata.usgs.gov/to-json.php?db=phosphate&id=rec_no&labno=40
252,mrdata_json/phosphate/1604.json,1604,[nan],-67.93861,18.08278,['Guano'],https://mrdata.usgs.gov/to-json.php?db=phosphate&id=rec_no&labno=1604
253,mrdata_json/phosphate/504.json,504,"['Verpillere, La']",5.18333,45.6,[nan],https://mrdata.usgs.gov/to-json.php?db=phosphate&id=rec_no&labno=504
254,mrdata_json/phosphate/1184.json,1184,['Dumeir'],36.88333,33.78333,[nan],https://mrdata.usgs.gov/to-json.php?db=phosphate&id=rec_no&labno=1184
255,mrdata_json/phosphate/1187.json,1187,['Hibari'],39.21667,34.11667,[nan],https://mrdata.usgs.gov/to-json.php?db=phosphate&id=rec_no&labno=1187
256,mrdata_json/phosphate/896.json,896,[nan],-8.833333,31.166667,['Marine chemical sediment'],https://mrdata.usgs.gov/to-json.php?db=phosphate&id=rec_no&labno=896
257,mrdata_json/phosphate/1081.json,1081,['Saratovskoe'],45.416667,51.333333,['Marine chemical sediment'],https://mrdata.usgs.gov/to-json.php?db=phosphate&id=rec_no&labno=1081
258,mrdata_json/phosphate/863.json,863,['Hubsgul Basin (Khubsugul)/Arasan group (Kharus Gol)'],100.2,50.86667,['Marine chemical sediment'],https://mrdata.usgs.gov/to-json.php?db=phosphate&id=rec_no&labno=863
259,mrdata_json/phosphate/1394.json,1394,['Keshya'],28.45,-15.88333,"['Magmatic, carbonatite/alkalic']",https://mrdata.usgs.gov/to-json.php?db=phosphate&id=rec_no&labno=1394
260,mrdata_json/phosphate/1569.json,1569,['Gegante cave'],122.53,10.62,['Guano and replacement by guano-derived phosphate'],https://mrdata.usgs.gov/to-json.php?db=phosphate&id=rec_no&labno=1569
261,mrdata_json/phosphate/35.json,35,['Coco Grande'],12.9,-7.02,['Marine chemical sediment'],https://mrdata.usgs.gov/to-json.php?db=phosphate&id=rec_no&labno=35
262,mrdata_json/phosphate/181.json,181,['Cajati'],-48.11667,-24.71667,[nan],https://mrdata.usgs.gov/to-json.php?db=phosphate&id=rec_no&labno=181
263,mrdata_json/phosphate/1234.json,1234,['Djebel Mechaib'],9.666667,35.0,[nan],https://mrdata.usgs.gov/to-json.php?db=phosphate&id=rec_no&labno=1234
264,mrdata_json/phosphate/297.json,297,['Yichang'],111.333333,30.8,['Marine chemical sediment'],https://mrdata.usgs.gov/to-json.php?db=phosphate&id=rec_no&labno=297
265,mrdata_json/phosphate/229.json,229,['Lackner Lake/Nemegos (Multi-Minerals)'],-83.16667,47.75,"['Magmatic, carbonatite/alkalic; metasomatic, residual enrichment?']",https://mrdata.usgs.gov/to-json.php?db=phosphate&id=rec_no&labno=229
266,mrdata_json/phosphate/1050.json,1050,['Kruchinskoye'],114.666667,52.0,['Magmatic'],https://mrdata.usgs.gov/to-json.php?db=phosphate&id=rec_no&labno=1050
267,mrdata_json/phosphate/799.json,799,['Tembabiche'],-110.96667,25.26667,['Marine chemical sediment'],https://mrdata.usgs.gov/to-json.php?db=phosphate&id=rec_no&labno=799
268,mrdata_json/phosphate/733.json,733,['Karatau District/Aksai (Ak Say) deposit'],70.15,43.4,['Marine chemical sediment'],https://mrdata.usgs.gov/to-json.php?db=phosphate&id=rec_no&labno=733
269,mrdata_json/phosphate/1118.json,1118,['Thies Plateau'],-16.883333,14.9,['Marine chemical sediment; residual enrichment'],https://mrdata.usgs.gov/to-json.php?db=phosphate&id=rec_no&labno=1118
270,mrdata_json/phosphate/466.json,466,['Red Sea Coastal Region/Quseir area'],34.63333,25.5,['Marine chemical sediment'],https://mrdata.usgs.gov/to-json.php?db=phosphate&id=rec_no&labno=466
271,mrdata_json/phosphate/1115.json,1115,['Taiba Plateau'],-16.86667,15.05,[nan],https://mrdata.usgs.gov/to-json.php?db=phosphate&id=rec_no&labno=1115
272,mrdata_json/phosphate/719.json,719,['Naqb Etaiyg'],36.45,29.75,['Marine chemical sediment'],https://mrdata.usgs.gov/to-json.php?db=phosphate&id=rec_no&labno=719
273,mrdata_json/phosphate/1295.json,1295,['Land Pebble phosphate district'],-81.92,27.906111,['Marine chemical sediment'],https://mrdata.usgs.gov/to-json.php?db=phosphate&id=rec_no&labno=1295
274,mrdata_json/phosphate/790.json,790,['Bahia Magdalena'],-112.15,24.63333,['Marine chemical sediment'],https://mrdata.usgs.gov/to-json.php?db=phosphate&id=rec_no&labno=790
275,mrdata_json/phosphate/1603.json,1603,[nan],-67.85028,18.08444,['Guano'],https://mrdata.usgs.gov/to-json.php?db=phosphate&id=rec_no&labno=1603
276,mrdata_json/phosphate/449.json,449,['Nile Valley (Idfu-Qena district)'],32.95,26.6,['Marine chemical sediment'],https://mrdata.usgs.gov/to-json.php?db=phosphate&id=rec_no&labno=449
277,mrdata_json/phosphate/1204.json,1204,['Ngualla'],32.83333,-7.7,"['Magmatic, carbonatite/alkalic']",https://mrdata.usgs.gov/to-json.php?db=phosphate&id=rec_no&labno=1204
278,mrdata_json/phosphate/758.json,758,[nan],35.85,33.85,[nan],https://mrdata.usgs.gov/to-json.php?db=phosphate&id=rec_no&labno=758
279,mrdata_json/phosphate/1134.json,1134,['Saldanha Embayment/Constable Hill'],18.01667,-33.13333,['Marine chemical sediment'],https://mrdata.usgs.gov/to-json.php?db=phosphate&id=rec_no&labno=1134
280,mrdata_json/phosphate/1004.json,1004,['Burzenin'],18.933333,51.4,['Marine chemical sediment'],https://mrdata.usgs.gov/to-json.php?db=phosphate&id=rec_no&labno=1004
281,mrdata_json/phosphate/204.json,204,['Phnom Loang'],104.383333333333,10.7666666666667,['Residual enrichment'],https://mrdata.usgs.gov/to-json.php?db=phosphate&id=rec_no&labno=204
282,mrdata_json/phosphate/1067.json,1067,['Gremyakha-Vyrmes Alkaline Complex'],32.5,68.916667,['Magmatic'],https://mrdata.usgs.gov/to-json.php?db=phosphate&id=rec_no&labno=1067
283,mrdata_json/phosphate/113.json,113,['Bulumwaal'],146.333333,-36.666667,['Marine chemical sediment'],https://mrdata.usgs.gov/to-json.php?db=phosphate&id=rec_no&labno=113
284,mrdata_json/phosphate/1052.json,1052,['Volga Basin'],35.10583,53.92917,['Marine chemical sediment'],https://mrdata.usgs.gov/to-json.php?db=phosphate&id=rec_no&labno=1052
285,mrdata_json/phosphate/388.json,388,['Nueva Vizcaya'],-73.55,4.75,['Marine chemical sediment'],https://mrdata.usgs.gov/to-json.php?db=phosphate&id=rec_no&labno=388
286,mrdata_json/phosphate/304.json,304,[nan],110.1,28.08333,['Marine chemical sediment'],https://mrdata.usgs.gov/to-json.php?db=phosphate&id=rec_no&labno=304
287,mrdata_json/phosphate/356.json,356,['Huote'],102.92806,24.194444,['Marine chemical sediment'],https://mrdata.usgs.gov/to-json.php?db=phosphate&id=rec_no&labno=356
288,mrdata_json/phosphate/745.json,745,['Tinderet'],35.33333,-0.06667,"['Magmatic, carbonatite/alkalic']",https://mrdata.usgs.gov/to-json.php?db=phosphate&id=rec_no&labno=745
289,mrdata_json/phosphate/39.json,39,['Lendiacolo'],12.9,-6.8,['Marine chemical sediment'],https://mrdata.usgs.gov/to-json.php?db=phosphate&id=rec_no&labno=39
290,mrdata_json/phosphate/824.json,824,[nan],-99.61667,20.81667,"['Marine chemical sediment, hydrothermal?']",https://mrdata.usgs.gov/to-json.php?db=phosphate&id=rec_no&labno=824
291,mrdata_json/phosphate/1006.json,1006,['Glimny Stok'],22.9,51.7,['Marine chemical sediment'],https://mrdata.usgs.gov/to-json.php?db=phosphate&id=rec_no&labno=1006
292,mrdata_json/phosphate/1310.json,1310,['Land Pebble phosphate district/Central Florida district'],-81.833889,28.033056,['Marine chemical sediment'],https://mrdata.usgs.gov/to-json.php?db=phosphate&id=rec_no&labno=1310
293,mrdata_json/phosphate/1048.json,1048,['Oshurkov Complex'],107.466667,51.966667,"['Magmatic, metasomatic']",https://mrdata.usgs.gov/to-json.php?db=phosphate&id=rec_no&labno=1048
294,mrdata_json/phosphate/1324.json,1324,['SE Idaho phosphate district/Conda'],-111.526667,42.728333,['Marine chemical sediment; residual enrichment'],https://mrdata.usgs.gov/to-json.php?db=phosphate&id=rec_no&labno=1324
295,mrdata_json/phosphate/962.json,962,['Kodal'],10.166667,59.25,"['Magmatic, alkaline']",https://mrdata.usgs.gov/to-json.php?db=phosphate&id=rec_no&labno=962
296,mrdata_json/phosphate/278.json,278,"[""Wenfu/Weng'an/Baiyan""]",106.833333,27.25,['Marine chemical sediment'],https://mrdata.usgs.gov/to-json.php?db=phosphate&id=rec_no&labno=278
297,mrdata_json/phosphate/143.json,143,['Chacarilla'],-65.451111,-19.533889,['Marine chemical sediment'],https://mrdata.usgs.gov/to-json.php?db=phosphate&id=rec_no&labno=143
298,mrdata_json/phosphate/110.json,110,['Tasman Basin/Smithton'],145.0,-40.666667,['Marine chemical sediment'],https://mrdata.usgs.gov/to-json.php?db=phosphate&id=rec_no&labno=110
299,mrdata_json/phosphate/1124.json,1124,['Bulhoekkop'],27.46667,-25.31667,"['Magmatic, carbonatite/alkalic']",https://mrdata.usgs.gov/to-json.php?db=phosphate&id=rec_no&labno=1124
300,mrdata_json/phosphate/1278.json,1278,['Cuyama Basin/Cuyama'],-119.703333,34.875,['Marine chemical sediment'],https://mrdata.usgs.gov/to-json.php?db=phosphate&id=rec_no&labno=1278
301,mrdata_json/phosphate/468.json,468,['Red Sea Coastal Region/Quseir area'],33.95,26.23333,['Marine chemical sediment'],https://mrdata.usgs.gov/to-json.php?db=phosphate&id=rec_no&labno=468
302,mrdata_json/phosphate/949.json,949,['Bajura'],81.25,29.4166666666667,['Marine chemical sediment'],https://mrdata.usgs.gov/to-json.php?db=phosphate&id=rec_no&labno=949
303,mrdata_json/phosphate/1222.json,1222,['Sra Ouertane (Stra Ouertane)'],8.75,36.21667,['Marine chemical sediment'],https://mrdata.usgs.gov/to-json.php?db=phosphate&id=rec_no&labno=1222
304,mrdata_json/phosphate/1424.json,1424,['Oroparinna'],138.83333,-31.25,['Guano and replacement by guano-derived phosphate'],https://mrdata.usgs.gov/to-json.php?db=phosphate&id=rec_no&labno=1424
305,mrdata_json/phosphate/1145.json,1145,['Phalaborwa'],31.133333,-24.05,"['Magmatic, carbonatite/alkalic']",https://mrdata.usgs.gov/to-json.php?db=phosphate&id=rec_no&labno=1145
306,mrdata_json/phosphate/1086.json,1086,['Kuznetsk Alatau/Talmalyk'],89.6,53.35,['Marine chemical sediment'],https://mrdata.usgs.gov/to-json.php?db=phosphate&id=rec_no&labno=1086
307,mrdata_json/phosphate/1008.json,1008,['Radom'],21.0,51.25,['Marine chemical sediment'],https://mrdata.usgs.gov/to-json.php?db=phosphate&id=rec_no&labno=1008
308,mrdata_json/phosphate/531.json,531,['Paris Basin/Bray (Pays de)'],1.866667,49.55,['Marine chemical sediment'],https://mrdata.usgs.gov/to-json.php?db=phosphate&id=rec_no&labno=531
309,mrdata_json/phosphate/1523.json,1523,['Albatros Island'],15.21667,-27.11667,['Guano'],https://mrdata.usgs.gov/to-json.php?db=phosphate&id=rec_no&labno=1523
310,mrdata_json/phosphate/31.json,31,['Cabinda'],12.51667,-5.03333,['Marine chemical sediment'],https://mrdata.usgs.gov/to-json.php?db=phosphate&id=rec_no&labno=31
311,mrdata_json/phosphate/1021.json,1021,"[""Bol'shoy Dzhebart Deposit""]",93.433333,54.35,[nan],https://mrdata.usgs.gov/to-json.php?db=phosphate&id=rec_no&labno=1021
312,mrdata_json/phosphate/990.json,990,['Peru continental shelf/ODP site 686'],-76.8,-13.6,['Marine chemical sediment'],https://mrdata.usgs.gov/to-json.php?db=phosphate&id=rec_no&labno=990
313,mrdata_json/phosphate/1496.json,1496,['Enderbury Island'],-171.083333,-3.1,['Guano and replacement by guano-derived phosphate'],https://mrdata.usgs.gov/to-json.php?db=phosphate&id=rec_no&labno=1496
314,mrdata_json/phosphate/106.json,106,['Orroroo'],138.66667,-32.75,['Replacement'],https://mrdata.usgs.gov/to-json.php?db=phosphate&id=rec_no&labno=106
315,mrdata_json/phosphate/438.json,438,[nan],32.73333,25.18333,[nan],https://mrdata.usgs.gov/to-json.php?db=phosphate&id=rec_no&labno=438
316,mrdata_json/phosphate/1030.json,1030,['Maimecha-Kotui'],101.43333,70.95,"['Magmatic, carbonatite/alkalic']",https://mrdata.usgs.gov/to-json.php?db=phosphate&id=rec_no&labno=1030
317,mrdata_json/phosphate/930.json,930,['Walvis Bay; Sylvia Hill'],14.0,-24.0,['Marine chemical sediment'],https://mrdata.usgs.gov/to-json.php?db=phosphate&id=rec_no&labno=930
318,mrdata_json/phosphate/1307.json,1307,['Land Pebble phosphate district/Central Florida district'],-81.8625,27.843056,['Marine chemical sediment'],https://mrdata.usgs.gov/to-json.php?db=phosphate&id=rec_no&labno=1307
319,mrdata_json/phosphate/832.json,832,[nan],-101.91667,22.88333,['Contact metasomatic'],https://mrdata.usgs.gov/to-json.php?db=phosphate&id=rec_no&labno=832
320,mrdata_json/phosphate/1434.json,1434,['Perth Area'],116.0,-32.0,['Guano and replacement by guano-derived phosphate'],https://mrdata.usgs.gov/to-json.php?db=phosphate&id=rec_no&labno=1434
321,mrdata_json/phosphate/72.json,72,['Tasman Basin/Moruya'],150.166667,-35.833333,['Marine chemical sediment'],https://mrdata.usgs.gov/to-json.php?db=phosphate&id=rec_no&labno=72
322,mrdata_json/phosphate/734.json,734,['Karatau District/Aktugay deposit'],70.06,43.3,['Marine chemical sediment'],https://mrdata.usgs.gov/to-json.php?db=phosphate&id=rec_no&labno=734
323,mrdata_json/phosphate/313.json,313,['Chaoyang'],117.966667,28.45,['Metasedimentary'],https://mrdata.usgs.gov/to-json.php?db=phosphate&id=rec_no&labno=313
324,mrdata_json/phosphate/1189.json,1189,['Khneifiss area'],37.66667,34.18333,['Marine chemical sediment'],https://mrdata.usgs.gov/to-json.php?db=phosphate&id=rec_no&labno=1189
325,mrdata_json/phosphate/1183.json,1183,['Charkiet'],38.0,34.23333,[nan],https://mrdata.usgs.gov/to-json.php?db=phosphate&id=rec_no&labno=1183
326,mrdata_json/phosphate/1393.json,1393,['Zezelj'],21.76889,43.74278,['Residual'],https://mrdata.usgs.gov/to-json.php?db=phosphate&id=rec_no&labno=1393
327,mrdata_json/phosphate/3.json,3,['Fush-Bardhe (Fushebardha)'],20.0,40.05,['Marine chemical sediment'],https://mrdata.usgs.gov/to-json.php?db=phosphate&id=rec_no&labno=3
328,mrdata_json/phosphate/1302.json,1302,['Land Pebble phosphate district/Central Florida district'],-82.034722,27.8,['Marine chemical sediment'],https://mrdata.usgs.gov/to-json.php?db=phosphate&id=rec_no&labno=1302
329,mrdata_json/phosphate/780.json,780,[nan],-13.75,16.416667,['Marine chemical sediment'],https://mrdata.usgs.gov/to-json.php?db=phosphate&id=rec_no&labno=780
330,mrdata_json/phosphate/602.json,602,['Kalikhet'],74.416667,22.966667,['Marine chemical sediment'],https://mrdata.usgs.gov/to-json.php?db=phosphate&id=rec_no&labno=602
331,mrdata_json/phosphate/81.json,81,['Georgina Basin/Carrarra Ranch'],138.0,-18.5,['Sedimentary'],https://mrdata.usgs.gov/to-json.php?db=phosphate&id=rec_no&labno=81
332,mrdata_json/phosphate/1349.json,1349,['Charleston-Beaufort District'],-80.0,32.75,['Marine chemical sediment'],https://mrdata.usgs.gov/to-json.php?db=phosphate&id=rec_no&labno=1349
333,mrdata_json/phosphate/489.json,489,['Saka-Ontika'],27.16667,59.3,[nan],https://mrdata.usgs.gov/to-json.php?db=phosphate&id=rec_no&labno=489
334,mrdata_json/phosphate/118.json,118,['Murray Basin'],141.183333,-35.266667,['Marine chemical sediment'],https://mrdata.usgs.gov/to-json.php?db=phosphate&id=rec_no&labno=118
335,mrdata_json/phosphate/192.json,192,['Diapega'],1.75,12.13333,['Marine chemical sediment'],https://mrdata.usgs.gov/to-json.php?db=phosphate&id=rec_no&labno=192
336,mrdata_json/phosphate/333.json,333,['Jiangjia'],119.921389,37.171667,['Magmatic'],https://mrdata.usgs.gov/to-json.php?db=phosphate&id=rec_no&labno=333
337,mrdata_json/phosphate/102.json,102,['Georgina Basin/Sherrin Creek'],139.0,-20.0,['Marine chemical sediment'],https://mrdata.usgs.gov/to-json.php?db=phosphate&id=rec_no&labno=102
338,mrdata_json/phosphate/1185.json,1185,['Eastern A and B (Sawwaneh)'],36.7,34.716667,['Marine chemical sediment; residual enrichment'],https://mrdata.usgs.gov/to-json.php?db=phosphate&id=rec_no&labno=1185
339,mrdata_json/phosphate/748.json,748,[nan],35.81667,34.35,[nan],https://mrdata.usgs.gov/to-json.php?db=phosphate&id=rec_no&labno=748
340,mrdata_json/phosphate/329.json,329,['Pingxingguan'],113.9,39.316667,"['Magmatic, alkaline?; Metamorphic']",https://mrdata.usgs.gov/to-json.php?db=phosphate&id=rec_no&labno=329
341,mrdata_json/phosphate/935.json,935,['Ondurakorume Complex (Kameelberg)'],16.25,-20.76667,"['Magmatic, carbonatite/alkalic']",https://mrdata.usgs.gov/to-json.php?db=phosphate&id=rec_no&labno=935
342,mrdata_json/phosphate/723.json,723,['Aktyubinsk'],57.166667,50.283333,['Marine chemical sediment'],https://mrdata.usgs.gov/to-json.php?db=phosphate&id=rec_no&labno=723
343,mrdata_json/phosphate/83.json,83,['Mud Tank'],135.083333,-23.0,['Magmatic'],https://mrdata.usgs.gov/to-json.php?db=phosphate&id=rec_no&labno=83
344,mrdata_json/phosphate/1101.json,1101,['Jabal Juraymiz'],39.46667,29.93333,['Marine chemical sediment'],https://mrdata.usgs.gov/to-json.php?db=phosphate&id=rec_no&labno=1101
345,mrdata_json/phosphate/1450.json,1450,['Islote Cobija'],-70.26667,-22.53333,['Guano and replacement by guano-derived phosphate'],https://mrdata.usgs.gov/to-json.php?db=phosphate&id=rec_no&labno=1450
346,mrdata_json/phosphate/1482.json,1482,['Ayamaru'],132.2,-1.23333,['Guano and replacement by guano-derived phosphate'],https://mrdata.usgs.gov/to-json.php?db=phosphate&id=rec_no&labno=1482
347,mrdata_json/phosphate/1500.json,1500,['Dalam Wang'],101.883333,5.2,['Guano and replacement by guano-derived phosphate'],https://mrdata.usgs.gov/to-json.php?db=phosphate&id=rec_no&labno=1500
348,mrdata_json/phosphate/1625.json,1625,['Wichianburi'],101.116667,15.65,['Guano and replacement by guano-derived phosphate'],https://mrdata.usgs.gov/to-json.php?db=phosphate&id=rec_no&labno=1625
349,mrdata_json/phosphate/1564.json,1564,['Baconay cave'],120.67,18.35,['Guano and replacement by guano-derived phosphate'],https://mrdata.usgs.gov/to-json.php?db=phosphate&id=rec_no&labno=1564
350,mrdata_json/phosphate/1270.json,1270,['Salmon Bay'],-133.16733,56.32,"['Magmatic, carbonatite/alkalic']",https://mrdata.usgs.gov/to-json.php?db=phosphate&id=rec_no&labno=1270
351,mrdata_json/phosphate/1297.json,1297,['Land Pebble phosphate district/Central Florida district'],-82.006944,27.668056,['Marine chemical sediment'],https://mrdata.usgs.gov/to-json.php?db=phosphate&id=rec_no&labno=1297
352,mrdata_json/phosphate/969.json,969,['Al Qibliyah'],56.33333,17.5,[nan],https://mrdata.usgs.gov/to-json.php?db=phosphate&id=rec_no&labno=969
353,mrdata_json/phosphate/987.json,987,['Mantaro (La Oroya Phosphorite)'],-75.75,-11.5,['Marine chemical sediment'],https://mrdata.usgs.gov/to-json.php?db=phosphate&id=rec_no&labno=987
354,mrdata_json/phosphate/153.json,153,['Campos Belos - Monte Alegre'],-46.88333,-13.05,['Marine chemical sediment; residual enrichment'],https://mrdata.usgs.gov/to-json.php?db=phosphate&id=rec_no&labno=153
355,mrdata_json/phosphate/1364.json,1364,['Uinta Mountains; Crawford Mountains; Wasatch Range/Vernal'],-109.490556,40.606667,['Marine chemical sediment'],https://mrdata.usgs.gov/to-json.php?db=phosphate&id=rec_no&labno=1364
356,mrdata_json/phosphate/203.json,203,['Phnom Kanlang'],104.566666666667,10.6333333333333,['Residual enrichment'],https://mrdata.usgs.gov/to-json.php?db=phosphate&id=rec_no&labno=203
357,mrdata_json/phosphate/1503.json,1503,['Gunong Keriang'],100.341667,6.2,['Guano and replacement by guano-derived phosphate'],https://mrdata.usgs.gov/to-json.php?db=phosphate&id=rec_no&labno=1503
358,mrdata_json/phosphate/695.json,695,['Ein Yahav'],35.183333,30.616667,['Marine chemical sediment'],https://mrdata.usgs.gov/to-json.php?db=phosphate&id=rec_no&labno=695
359,mrdata_json/phosphate/287.json,287,['Fanshan (Fangshan)'],115.216667,40.366667,"['Magmatic, carbonatite/alkalic']",https://mrdata.usgs.gov/to-json.php?db=phosphate&id=rec_no&labno=287
360,mrdata_json/phosphate/973.json,973,['Domanda Post'],70.191944,31.553889,[nan],https://mrdata.usgs.gov/to-json.php?db=phosphate&id=rec_no&labno=973
361,mrdata_json/phosphate/1299.json,1299,['Land Pebble phosphate district/Central Florida district/Ft. Meade'],-81.763333,27.666667,['Marine chemical sediment'],https://mrdata.usgs.gov/to-json.php?db=phosphate&id=rec_no&labno=1299
362,mrdata_json/phosphate/55.json,55,['Cabo Blanco'],-65.75,-47.2,['Marine chemical sediment'],https://mrdata.usgs.gov/to-json.php?db=phosphate&id=rec_no&labno=55
363,mrdata_json/phosphate/1557.json,1557,['Marilima cave'],124.17,13.55,['Guano and replacement by guano-derived phosphate'],https://mrdata.usgs.gov/to-json.php?db=phosphate&id=rec_no&labno=1557
364,mrdata_json/phosphate/1452.json,1452,['Guanillito Boliviano'],-70.26667,-22.61667,['Guano and replacement by guano-derived phosphate'],https://mrdata.usgs.gov/to-json.php?db=phosphate&id=rec_no&labno=1452
365,mrdata_json/phosphate/1447.json,1447,['Islote Algodones'],-70.2,-22.06667,['Guano and replacement by guano-derived phosphate'],https://mrdata.usgs.gov/to-json.php?db=phosphate&id=rec_no&labno=1447
366,mrdata_json/phosphate/1120.json,1120,['Thies Plateau'],-16.7,15.016667,['Marine chemical sediment; residual enrichment'],https://mrdata.usgs.gov/to-json.php?db=phosphate&id=rec_no&labno=1120
367,mrdata_json/phosphate/177.json,177,['Pimenteiras'],-41.45,-6.21667,['Marine chemical sediment'],https://mrdata.usgs.gov/to-json.php?db=phosphate&id=rec_no&labno=177
368,mrdata_json/phosphate/1044.json,1044,[nan],36.9,51.866667,['Marine chemical sediment'],https://mrdata.usgs.gov/to-json.php?db=phosphate&id=rec_no&labno=1044
369,mrdata_json/phosphate/385.json,385,['Sogamoso area'],-73.35,5.55,['Marine chemical sediment'],https://mrdata.usgs.gov/to-json.php?db=phosphate&id=rec_no&labno=385
370,mrdata_json/phosphate/786.json,786,[nan],-12.98333,19.08333,['Marine chemical sediment'],https://mrdata.usgs.gov/to-json.php?db=phosphate&id=rec_no&labno=786
371,mrdata_json/phosphate/1199.json,1199,['Makonde'],34.51667,-10.05,"['Magmatic, carbonatite/alkalic']",https://mrdata.usgs.gov/to-json.php?db=phosphate&id=rec_no&labno=1199
372,mrdata_json/phosphate/626.json,626,['Dakan Kotra (Dakankotra)'],73.733333,24.5,['Marine chemical sediment (metamorphosed)'],https://mrdata.usgs.gov/to-json.php?db=phosphate&id=rec_no&labno=626
373,mrdata_json/phosphate/576.json,576,['Carpathian Basin/Balaton Highlands/Pécsely'],17.78333,46.95,['Marine sedimentary'],https://mrdata.usgs.gov/to-json.php?db=phosphate&id=rec_no&labno=576
374,mrdata_json/phosphate/1487.json,1487,['Cibinong; Leuwiliang'],106.61667,-6.56667,['Guano and replacement by guano-derived phosphate'],https://mrdata.usgs.gov/to-json.php?db=phosphate&id=rec_no&labno=1487
375,mrdata_json/phosphate/915.json,915,['Ganntour'],-8.25,32.116667,['Marine chemical sediment'],https://mrdata.usgs.gov/to-json.php?db=phosphate&id=rec_no&labno=915
376,mrdata_json/phosphate/1321.json,1321,['Deseret Basin/Bear River'],-111.380833,42.424444,['Marine chemical sediment'],https://mrdata.usgs.gov/to-json.php?db=phosphate&id=rec_no&labno=1321
377,mrdata_json/phosphate/1361.json,1361,['White-rock phosphate district'],-88.0,35.616667,['Secondary replacement; residual enrichment'],https://mrdata.usgs.gov/to-json.php?db=phosphate&id=rec_no&labno=1361
378,mrdata_json/phosphate/69.json,69,['Mootwingee'],142.333333,-31.333333,['Marine chemical sediment'],https://mrdata.usgs.gov/to-json.php?db=phosphate&id=rec_no&labno=69
379,mrdata_json/phosphate/322.json,322,['Chadian'],106.46139,33.19639,['Marine chemical sediment'],https://mrdata.usgs.gov/to-json.php?db=phosphate&id=rec_no&labno=322
380,mrdata_json/phosphate/112.json,112,['Bass Basin (Torquay Embayment)'],144.35,-38.15,['Marine chemical sediment'],https://mrdata.usgs.gov/to-json.php?db=phosphate&id=rec_no&labno=112
381,mrdata_json/phosphate/1057.json,1057,['Khubsugul Basin/Uda-Shantary region/Shantary Islands'],137.333333,55.166667,['Marine chemical sediment'],https://mrdata.usgs.gov/to-json.php?db=phosphate&id=rec_no&labno=1057
382,mrdata_json/phosphate/932.json,932,['Kalkfeld Complex (Etaneno)'],16.11667,-20.8,"['Magmatic, carbonatite/alkalic']",https://mrdata.usgs.gov/to-json.php?db=phosphate&id=rec_no&labno=932
383,mrdata_json/phosphate/565.json,565,['Corfu'],19.75,39.66667,['Marine chemical sediment; local residual enrichment'],https://mrdata.usgs.gov/to-json.php?db=phosphate&id=rec_no&labno=565
384,mrdata_json/phosphate/627.json,627,['Jhamarkotra'],73.833333,24.466667,['Marine chemical sediment (metamorphosed)'],https://mrdata.usgs.gov/to-json.php?db=phosphate&id=rec_no&labno=627
385,mrdata_json/phosphate/1570.json,1570,['Kapitungan cave'],122.55,10.6,['Guano and replacement by guano-derived phosphate'],https://mrdata.usgs.gov/to-json.php?db=phosphate&id=rec_no&labno=1570
386,mrdata_json/phosphate/1543.json,1543,['Rota'],145.25,14.166667,['Guano and replacement by guano-derived phosphate'],https://mrdata.usgs.gov/to-json.php?db=phosphate&id=rec_no&labno=1543
387,mrdata_json/phosphate/1071.json,1071,['Khibiny Complex/Kukisvumchorr deposit'],33.7,67.75,[nan],https://mrdata.usgs.gov/to-json.php?db=phosphate&id=rec_no&labno=1071
388,mrdata_json/phosphate/688.json,688,['Western Desert'],40.0,33.75,['Marine chemical sediment'],https://mrdata.usgs.gov/to-json.php?db=phosphate&id=rec_no&labno=688
389,mrdata_json/phosphate/129.json,129,['Demer'],4.86667,51.2,['Marine chemical sediment'],https://mrdata.usgs.gov/to-json.php?db=phosphate&id=rec_no&labno=129
390,mrdata_json/phosphate/1065.json,1065,['Volga Basin'],38.7,55.316667,['Marine chemical sediment'],https://mrdata.usgs.gov/to-json.php?db=phosphate&id=rec_no&labno=1065
391,mrdata_json/phosphate/1015.json,1015,[nan],-67.93472,18.11,['Sedimentary? Biogenic?'],https://mrdata.usgs.gov/to-json.php?db=phosphate&id=rec_no&labno=1015
392,mrdata_json/phosphate/580.json,580,['Chattisgarh Basin/Lohara Area'],81.058333,20.793056,['Marine chemical sediment'],https://mrdata.usgs.gov/to-json.php?db=phosphate&id=rec_no&labno=580
393,mrdata_json/phosphate/1062.json,1062,['Eastern Sayan Basin/Telek'],92.05,54.283333,['Marine chemical sediment; residual enrichment; secondary enrichment'],https://mrdata.usgs.gov/to-json.php?db=phosphate&id=rec_no&labno=1062
394,mrdata_json/phosphate/339.json,339,['Jingbing Phosphate Mine'],103.35,28.316667,[nan],https://mrdata.usgs.gov/to-json.php?db=phosphate&id=rec_no&labno=339
395,mrdata_json/phosphate/926.json,926,['Luicuisse'],36.18333,-12.38333,"['Magmatic, carbonatite/alkalic, residual enrichment; metasomatic?']",https://mrdata.usgs.gov/to-json.php?db=phosphate&id=rec_no&labno=926
396,mrdata_json/phosphate/480.json,480,['Baltic Basin/Kingisepp'],29.0,59.16667,['Marine chemical sediment'],https://mrdata.usgs.gov/to-json.php?db=phosphate&id=rec_no&labno=480
397,mrdata_json/phosphate/1170.json,1170,['Grängesberg District'],14.98,60.08,['Hydrothermal-Magmatic iron deposit (metamorphosed)'],https://mrdata.usgs.gov/to-json.php?db=phosphate&id=rec_no&labno=1170
398,mrdata_json/phosphate/1559.json,1559,['Cave No. 2'],123.73,10.3,['Guano and replacement by guano-derived phosphate'],https://mrdata.usgs.gov/to-json.php?db=phosphate&id=rec_no&labno=1559
399,mrdata_json/phosphate/1128.json,1128,"['Pretoria Sault Pan (Soutpan, Zoutpan)']",28.08333,-25.41667,"['Magmatic, carbonatite/alkalic']",https://mrdata.usgs.gov/to-json.php?db=phosphate&id=rec_no&labno=1128
400,mrdata_json/phosphate/1413.json,1413,['Molong District'],148.833333,-33.0,['Guano and replacement by guano-derived phosphate'],https://mrdata.usgs.gov/to-json.php?db=phosphate&id=rec_no&labno=1413
401,mrdata_json/phosphate/1012.json,1012,['Medelim'],-7.216667,40.066667,"['Veins, Secondary enrichment (?)']",https://mrdata.usgs.gov/to-json.php?db=phosphate&id=rec_no&labno=1012
402,mrdata_json/phosphate/1153.json,1153,['Montanchez'],-5.86667,39.45,"['Veins, secondary enrichment (?)']",https://mrdata.usgs.gov/to-json.php?db=phosphate&id=rec_no&labno=1153
403,mrdata_json/phosphate/813.json,813,['Los Pozos District'],-100.51667,21.16667,['Sedimentary'],https://mrdata.usgs.gov/to-json.php?db=phosphate&id=rec_no&labno=813
404,mrdata_json/phosphate/150.json,150,"['Lorena I, II']",-40.56667,-15.18333,['Metasedimentary'],https://mrdata.usgs.gov/to-json.php?db=phosphate&id=rec_no&labno=150
405,mrdata_json/phosphate/1463.json,1463,['El Pelado Island'],-80.83333,-1.9,['Guano and replacement by guano-derived phosphate'],https://mrdata.usgs.gov/to-json.php?db=phosphate&id=rec_no&labno=1463
406,mrdata_json/phosphate/861.json,861,['Burenkhan field (Burin-Khan)'],99.96667,49.8,['Marine chemical sediment'],https://mrdata.usgs.gov/to-json.php?db=phosphate&id=rec_no&labno=861
407,mrdata_json/phosphate/166.json,166,['Patrocino'],-46.75,-19.0,"['Magmatic, carbonatite/alkalic; residual enrichment']",https://mrdata.usgs.gov/to-json.php?db=phosphate&id=rec_no&labno=166
408,mrdata_json/phosphate/743.json,743,['Rangwa Complex (Kisingiri volcano)'],34.16667,-0.56667,"['Magmatic, carbonatite; residual']",https://mrdata.usgs.gov/to-json.php?db=phosphate&id=rec_no&labno=743
409,mrdata_json/phosphate/169.json,169,['Alhandra-Conde'],-34.91667,-7.33333,['Marine chemical sediment'],https://mrdata.usgs.gov/to-json.php?db=phosphate&id=rec_no&labno=169
410,mrdata_json/phosphate/1494.json,1494,['Malden Island'],-155.016667,-4.016667,['Guano and replacement by guano-derived phosphate'],https://mrdata.usgs.gov/to-json.php?db=phosphate&id=rec_no&labno=1494
411,mrdata_json/phosphate/738.json,738,['Karatau District/Karatau'],70.5,43.15,['Metasedimentary'],https://mrdata.usgs.gov/to-json.php?db=phosphate&id=rec_no&labno=738
412,mrdata_json/phosphate/727.json,727,['Aktyubinsk Basin/Karaganda'],59.166667,48.366667,['Marine chemical sediment'],https://mrdata.usgs.gov/to-json.php?db=phosphate&id=rec_no&labno=727
413,mrdata_json/phosphate/49.json,49,['Bajada del Agrio'],-70.03333,-38.38333,['Marine chemical sediment'],https://mrdata.usgs.gov/to-json.php?db=phosphate&id=rec_no&labno=49
414,mrdata_json/phosphate/1059.json,1059,['Khubsugul Basin/Uda-Shantary region/Shantary Islands'],137.58333,55.15,['Sedimentary'],https://mrdata.usgs.gov/to-json.php?db=phosphate&id=rec_no&labno=1059
415,mrdata_json/phosphate/782.json,782,[nan],-13.21667,15.75,['Marine chemical sediment'],https://mrdata.usgs.gov/to-json.php?db=phosphate&id=rec_no&labno=782
416,mrdata_json/phosphate/104.json,104,['Angaston'],139.0,-34.5,['Residual enrichment'],https://mrdata.usgs.gov/to-json.php?db=phosphate&id=rec_no&labno=104
417,mrdata_json/phosphate/820.json,820,['Mitra y Arteaga'],-100.8,24.833,['Marine chemical sediment'],https://mrdata.usgs.gov/to-json.php?db=phosphate&id=rec_no&labno=820
418,mrdata_json/phosphate/1421.json,1421,['Clinton'],138.0,-34.25,['Guano and replacement by guano-derived phosphate'],https://mrdata.usgs.gov/to-json.php?db=phosphate&id=rec_no&labno=1421
419,mrdata_json/phosphate/23.json,23,[nan],8.12417,35.40417,['Marine chemical sediment'],https://mrdata.usgs.gov/to-json.php?db=phosphate&id=rec_no&labno=23
420,mrdata_json/phosphate/347.json,347,['Niuniuzhai'],103.566667,28.25,['Marine chemical sediment'],https://mrdata.usgs.gov/to-json.php?db=phosphate&id=rec_no&labno=347
421,mrdata_json/phosphate/1275.json,1275,['Continental Borderland/outer continental shelf deposits'],-119.0,33.0,['Marine chemical sediment; secondary enrichment'],https://mrdata.usgs.gov/to-json.php?db=phosphate&id=rec_no&labno=1275
422,mrdata_json/phosphate/1412.json,1412,['Canowindra'],148.666667,-33.583333,['Guano and replacement by guano-derived phosphate'],https://mrdata.usgs.gov/to-json.php?db=phosphate&id=rec_no&labno=1412
423,mrdata_json/phosphate/1051.json,1051,['Vurnary'],46.963889,55.487778,['Marine chemical sediment'],https://mrdata.usgs.gov/to-json.php?db=phosphate&id=rec_no&labno=1051
424,mrdata_json/phosphate/1517.json,1517,"[""Sta'at""]",110.166667,1.416667,['Guano and replacement by guano-derived phosphate'],https://mrdata.usgs.gov/to-json.php?db=phosphate&id=rec_no&labno=1517
425,mrdata_json/phosphate/718.json,718,"['Esh Shidiya (Es Shidiya, Esh Shidiya, Al Shidiyah, Shediyah)']",36.2,29.8,['Marine chemical sediment; residual enrichment'],https://mrdata.usgs.gov/to-json.php?db=phosphate&id=rec_no&labno=718
426,mrdata_json/phosphate/1440.json,1440,"['Trauira, Ilha']",-45.63333,-1.23333,['Guano and replacement by guano-derived phosphate; residual enrichment'],https://mrdata.usgs.gov/to-json.php?db=phosphate&id=rec_no&labno=1440
427,mrdata_json/phosphate/615.json,615,['Jhermoti (Jher Moti)'],74.216667,23.2,['Marine chemical sediment (metamorphosed)'],https://mrdata.usgs.gov/to-json.php?db=phosphate&id=rec_no&labno=615
428,mrdata_json/phosphate/1132.json,1132,['Tweerivier'],27.51667,-25.28333,"['Magmatic, carbonatite/alkalic']",https://mrdata.usgs.gov/to-json.php?db=phosphate&id=rec_no&labno=1132
429,mrdata_json/phosphate/948.json,948,['Bajhang  area'],81.0333333333333,29.4833333333333,['Marine chemical sediment'],https://mrdata.usgs.gov/to-json.php?db=phosphate&id=rec_no&labno=948
430,mrdata_json/phosphate/1433.json,1433,['Lacepede Island'],122.0,-17.33333,['Guano and replacement by guano-derived phosphate'],https://mrdata.usgs.gov/to-json.php?db=phosphate&id=rec_no&labno=1433
431,mrdata_json/phosphate/764.json,764,['Kangankunde'],34.91667,-15.13333,"['Magmatic, carbonatite/alkalic, residual enrichment']",https://mrdata.usgs.gov/to-json.php?db=phosphate&id=rec_no&labno=764
432,mrdata_json/phosphate/178.json,178,['Sao Joao Do Piaui'],-42.033,-8.25,['Marine chemical sediment'],https://mrdata.usgs.gov/to-json.php?db=phosphate&id=rec_no&labno=178
433,mrdata_json/phosphate/1474.json,1474,['Tuban'],112.05,-6.9,['Guano and replacement by guano-derived phosphate'],https://mrdata.usgs.gov/to-json.php?db=phosphate&id=rec_no&labno=1474
434,mrdata_json/phosphate/1527.json,1527,['Ichaboe Island and others'],14.95,-26.28333,['Guano'],https://mrdata.usgs.gov/to-json.php?db=phosphate&id=rec_no&labno=1527
435,mrdata_json/phosphate/1544.json,1544,['Saipan'],145.716667,7.0,['Guano and replacement by guano-derived phosphate'],https://mrdata.usgs.gov/to-json.php?db=phosphate&id=rec_no&labno=1544
436,mrdata_json/phosphate/469.json,469,['Red Sea Coastal Region/Quseir area'],34.16667,25.98333,['Marine chemical sediment'],https://mrdata.usgs.gov/to-json.php?db=phosphate&id=rec_no&labno=469
437,mrdata_json/phosphate/1024.json,1024,['Khalkol'],41.81,53.44611,['Marine chemical sediment'],https://mrdata.usgs.gov/to-json.php?db=phosphate&id=rec_no&labno=1024
438,mrdata_json/phosphate/293.json,293,['Huangmailing'],114.166667,31.483333,['Metasedimentary'],https://mrdata.usgs.gov/to-json.php?db=phosphate&id=rec_no&labno=293
439,mrdata_json/phosphate/978.json,978,['Hazara/Langarban'],73.2,34.216667,['Marine chemical sediment'],https://mrdata.usgs.gov/to-json.php?db=phosphate&id=rec_no&labno=978
440,mrdata_json/phosphate/1537.json,1537,"[""Sinclair's Island""]",15.53333,-27.66667,['Guano'],https://mrdata.usgs.gov/to-json.php?db=phosphate&id=rec_no&labno=1537
441,mrdata_json/phosphate/741.json,741,['Karatau District/Tje Say (Tjesay) deposit'],70.166667,43.6,['Marine chemical sediment'],https://mrdata.usgs.gov/to-json.php?db=phosphate&id=rec_no&labno=741
442,mrdata_json/phosphate/751.json,751,[nan],35.8,33.71667,[nan],https://mrdata.usgs.gov/to-json.php?db=phosphate&id=rec_no&labno=751
443,mrdata_json/phosphate/70.json,70,['Offshore Guyots'],153.0,-33.0,['Replacement'],https://mrdata.usgs.gov/to-json.php?db=phosphate&id=rec_no&labno=70
444,mrdata_json/phosphate/1510.json,1510,['Punan Batu'],116.2,4.8,['Guano and replacement by guano-derived phosphate'],https://mrdata.usgs.gov/to-json.php?db=phosphate&id=rec_no&labno=1510
445,mrdata_json/phosphate/1063.json,1063,['Kingisepp (Kingisepskoe)'],28.6,59.366667,['Marine chemical sediment'],https://mrdata.usgs.gov/to-json.php?db=phosphate&id=rec_no&labno=1063
446,mrdata_json/phosphate/299.json,299,[nan],112.35,31.766667,[nan],https://mrdata.usgs.gov/to-json.php?db=phosphate&id=rec_no&labno=299
447,mrdata_json/phosphate/1386.json,1386,['Los Monos'],-71.6,7.63333,['Marine chemical sediment'],https://mrdata.usgs.gov/to-json.php?db=phosphate&id=rec_no&labno=1386
448,mrdata_json/phosphate/500.json,500,"[""Lorraine District/Longwy, L'orne""]",5.78333,49.41667,[nan],https://mrdata.usgs.gov/to-json.php?db=phosphate&id=rec_no&labno=500
449,mrdata_json/phosphate/1538.json,1538,['South Long Island'],15.13333,-26.83333,['Guano'],https://mrdata.usgs.gov/to-json.php?db=phosphate&id=rec_no&labno=1538
450,mrdata_json/phosphate/804.json,804,['San Francisco North'],-102.161111,25.171944,['Marine chemical sediment'],https://mrdata.usgs.gov/to-json.php?db=phosphate&id=rec_no&labno=804
451,mrdata_json/phosphate/1053.json,1053,['Elisenvaara'],29.77,61.42,"['Magmatic, alkaline']",https://mrdata.usgs.gov/to-json.php?db=phosphate&id=rec_no&labno=1053
452,mrdata_json/phosphate/910.json,910,['Oulad Abdoun Plateau  (Khouribga)'],-6.71667,32.81667,['Marine chemical sediment; residual enrichment'],https://mrdata.usgs.gov/to-json.php?db=phosphate&id=rec_no&labno=910
453,mrdata_json/phosphate/440.json,440,[nan],35.4,28.08333,[nan],https://mrdata.usgs.gov/to-json.php?db=phosphate&id=rec_no&labno=440
454,mrdata_json/phosphate/1016.json,1016,[nan],-67.93694,18.09472,['Sedimentary? Biogenic?'],https://mrdata.usgs.gov/to-json.php?db=phosphate&id=rec_no&labno=1016
455,mrdata_json/phosphate/1075.json,1075,['Khibiny Complex/Yukspor deposit'],33.75,67.633333,"['Magmatic, alkaline']",https://mrdata.usgs.gov/to-json.php?db=phosphate&id=rec_no&labno=1075
456,mrdata_json/phosphate/982.json,982,['Zam Tower'],70.2,31.741944,[nan],https://mrdata.usgs.gov/to-json.php?db=phosphate&id=rec_no&labno=982
457,mrdata_json/phosphate/761.json,761,"['Musson, Differdange, Esch']",5.91667,49.51667,['Marine chemical sediment'],https://mrdata.usgs.gov/to-json.php?db=phosphate&id=rec_no&labno=761
458,mrdata_json/phosphate/1138.json,1138,['Saldanha Embayment/Langebaan (Varswater)'],18.15,-32.96667,['Marine chemical sediment'],https://mrdata.usgs.gov/to-json.php?db=phosphate&id=rec_no&labno=1138
459,mrdata_json/phosphate/1258.json,1258,['Potton'],-0.216667,52.116667,[nan],https://mrdata.usgs.gov/to-json.php?db=phosphate&id=rec_no&labno=1258
460,mrdata_json/phosphate/1539.json,1539,['Walvis Bay Harbour'],14.46667,-22.91667,['Guano'],https://mrdata.usgs.gov/to-json.php?db=phosphate&id=rec_no&labno=1539
461,mrdata_json/phosphate/1236.json,1236,[nan],9.68333,34.71667,[nan],https://mrdata.usgs.gov/to-json.php?db=phosphate&id=rec_no&labno=1236
462,mrdata_json/phosphate/340.json,340,['Shifang'],103.3333,29.1667,"['Weathering, """"resedimented']",https://mrdata.usgs.gov/to-json.php?db=phosphate&id=rec_no&labno=340
463,mrdata_json/phosphate/273.json,273,['Xifeng'],106.83333,27.25,['Marine chemical sediment'],https://mrdata.usgs.gov/to-json.php?db=phosphate&id=rec_no&labno=273
464,mrdata_json/phosphate/1512.json,1512,['Tempadong'],118.15,5.091667,['Guano and replacement by guano-derived phosphate'],https://mrdata.usgs.gov/to-json.php?db=phosphate&id=rec_no&labno=1512
465,mrdata_json/phosphate/991.json,991,['Probayovar'],-81.0375,-5.8375,['Marine chemical sediment'],https://mrdata.usgs.gov/to-json.php?db=phosphate&id=rec_no&labno=991
466,mrdata_json/phosphate/52.json,52,['Sierra Grande'],-65.333333,-41.83333,['Marine chemical sediment'],https://mrdata.usgs.gov/to-json.php?db=phosphate&id=rec_no&labno=52
467,mrdata_json/phosphate/53.json,53,['Quebrada de Talacasto Area'],-68.64167,-31.11222,['Marine chemical sediment'],https://mrdata.usgs.gov/to-json.php?db=phosphate&id=rec_no&labno=53
468,mrdata_json/phosphate/1620.json,1620,['Mait Island'],47.25,11.2167,['Guano and replacement by guano-derived phosphate'],https://mrdata.usgs.gov/to-json.php?db=phosphate&id=rec_no&labno=1620
469,mrdata_json/phosphate/725.json,725,['Aktyubinsk/Chilisai'],57.166667,50.283333,['Marine chemical sediment'],https://mrdata.usgs.gov/to-json.php?db=phosphate&id=rec_no&labno=725
470,mrdata_json/phosphate/1233.json,1233,['Sehib'],8.2,34.25,['Marine chemical sediment'],https://mrdata.usgs.gov/to-json.php?db=phosphate&id=rec_no&labno=1233
471,mrdata_json/phosphate/164.json,164,['Patos de Minas'],-46.91667,-18.33333,"['Marine chemical sediment, residual enrichment']",https://mrdata.usgs.gov/to-json.php?db=phosphate&id=rec_no&labno=164
472,mrdata_json/phosphate/1096.json,1096,"[""Krasnosel'skoe""]",30.25,59.61667,[nan],https://mrdata.usgs.gov/to-json.php?db=phosphate&id=rec_no&labno=1096
473,mrdata_json/phosphate/1499.json,1499,['Chuping'],100.216667,5.933333,['Guano and replacement by guano-derived phosphate'],https://mrdata.usgs.gov/to-json.php?db=phosphate&id=rec_no&labno=1499
474,mrdata_json/phosphate/85.json,85,['Georgina Basin/Wonarah'],136.333333,-19.966667,['Marine chemical sediment'],https://mrdata.usgs.gov/to-json.php?db=phosphate&id=rec_no&labno=85
475,mrdata_json/phosphate/650.json,650,['Kumaun Himalaya/Pithoragarh District/Dhaigaon'],80.172222,29.591667,['Marine chemical sediment'],https://mrdata.usgs.gov/to-json.php?db=phosphate&id=rec_no&labno=650
476,mrdata_json/phosphate/800.json,800,['Astillero'],-101.451111,25.085,['Marine chemical sediment'],https://mrdata.usgs.gov/to-json.php?db=phosphate&id=rec_no&labno=800
477,mrdata_json/phosphate/1109.json,1109,['Casamance/Kolda area'],-14.5,13.0,['Marine chemical sediment'],https://mrdata.usgs.gov/to-json.php?db=phosphate&id=rec_no&labno=1109
478,mrdata_json/phosphate/197.json,197,['Phnom Sampeou'],103.1,13.0167,['Secondary replacement; residual enrichment'],https://mrdata.usgs.gov/to-json.php?db=phosphate&id=rec_no&labno=197
479,mrdata_json/phosphate/1425.json,1425,['Wooltana Caves'],139.3333,-30.5,['Guano and replacement by guano-derived phosphate'],https://mrdata.usgs.gov/to-json.php?db=phosphate&id=rec_no&labno=1425
480,mrdata_json/phosphate/1346.json,1346,['North Carolina phosphate district/North Carolina Phosphate Corp.'],-76.771389,35.333333,['Marine chemical sediment'],https://mrdata.usgs.gov/to-json.php?db=phosphate&id=rec_no&labno=1346
481,mrdata_json/phosphate/840.json,840,[nan],-102.36667,22.65,['Contact metasomatic'],https://mrdata.usgs.gov/to-json.php?db=phosphate&id=rec_no&labno=840
482,mrdata_json/phosphate/536.json,536,['Marquise'],1.7,50.816667,['Marine chemical sediment'],https://mrdata.usgs.gov/to-json.php?db=phosphate&id=rec_no&labno=536
483,mrdata_json/phosphate/603.json,603,['Kelkua Nala; Kelkua'],74.416667,22.95,['Marine chemical sediment'],https://mrdata.usgs.gov/to-json.php?db=phosphate&id=rec_no&labno=603
484,mrdata_json/phosphate/26.json,26,['Cabinda'],12.5,-5.25,['Marine chemical sediment'],https://mrdata.usgs.gov/to-json.php?db=phosphate&id=rec_no&labno=26
485,mrdata_json/phosphate/709.json,709,"[""Negev Desert/Zefa-Ef'e deposit""]",35.1833333333333,31.1166666666667,['Marine chemical sediment'],https://mrdata.usgs.gov/to-json.php?db=phosphate&id=rec_no&labno=709
486,mrdata_json/phosphate/954.json,954,['Chatham Rise Phosphorites'],177.3,-43.6,['Replacement of marine sediment'],https://mrdata.usgs.gov/to-json.php?db=phosphate&id=rec_no&labno=954
487,mrdata_json/phosphate/71.json,71,['Sydney Basin/Mona Vale'],151.333333,-33.666667,['Marine chemical sediment'],https://mrdata.usgs.gov/to-json.php?db=phosphate&id=rec_no&labno=71
488,mrdata_json/phosphate/1453.json,1453,['Punta Tames'],-70.28333,-22.65,['Guano and replacement by guano-derived phosphate'],https://mrdata.usgs.gov/to-json.php?db=phosphate&id=rec_no&labno=1453
489,mrdata_json/phosphate/306.json,306,"['Chayuanpo (Chayuanpu, Liuyang, Changsha, Yonghe?)']",113.85,28.3,['Marine chemical sediment'],https://mrdata.usgs.gov/to-json.php?db=phosphate&id=rec_no&labno=306
490,mrdata_json/phosphate/73.json,73,['Amadeus Basin/George Gill Range'],133.166667,-23.666667,['Marine chemical sediment'],https://mrdata.usgs.gov/to-json.php?db=phosphate&id=rec_no&labno=73
491,mrdata_json/phosphate/754.json,754,[nan],35.46667,33.63333,[nan],https://mrdata.usgs.gov/to-json.php?db=phosphate&id=rec_no&labno=754
492,mrdata_json/phosphate/1562.json,1562,['Lanigpa cave'],123.73,10.47,['Guano and replacement by guano-derived phosphate'],https://mrdata.usgs.gov/to-json.php?db=phosphate&id=rec_no&labno=1562
493,mrdata_json/phosphate/959.json,959,['Andorja'],17.31667,68.88333,['Metasedimentary'],https://mrdata.usgs.gov/to-json.php?db=phosphate&id=rec_no&labno=959
494,mrdata_json/phosphate/845.json,845,['Conception del Oro District/Santa Rosa'],-101.583056,24.613056,['Marine chemical sediment'],https://mrdata.usgs.gov/to-json.php?db=phosphate&id=rec_no&labno=845
495,mrdata_json/phosphate/91.json,91,['Georgina Basin/Babbling Brook Hill'],138.416667,-18.75,['Marine chemical sediment'],https://mrdata.usgs.gov/to-json.php?db=phosphate&id=rec_no&labno=91
496,mrdata_json/phosphate/100.json,100,['Georgina Basin/Quita Creek (Quite Creek)'],139.166667,-21.833333,['Marine chemical sediment'],https://mrdata.usgs.gov/to-json.php?db=phosphate&id=rec_no&labno=100
497,mrdata_json/phosphate/1451.json,1451,['Islote Huesilla'],-70.26667,-22.6,['Guano and replacement by guano-derived phosphate'],https://mrdata.usgs.gov/to-json.php?db=phosphate&id=rec_no&labno=1451
498,mrdata_json/phosphate/677.json,677,['Esfordi'],55.585,31.805,['Magmatic-Hydrothermal'],https://mrdata.usgs.gov/to-json.php?db=phosphate&id=rec_no&labno=677
499,mrdata_json/phosphate/154.json,154,['Catalao I'],-47.8,-18.133333,"['Magmatic, carbonatite/alkalic; residual enrichment']",https://mrdata.usgs.gov/to-json.php?db=phosphate&id=rec_no&labno=154
500,mrdata_json/phosphate/1401.json,1401,['Kapfrugwa (Gungwa)'],32.15,-16.46667,"['Magmatic, carbonatite/alkalic; metamorphosed']",https://mrdata.usgs.gov/to-json.php?db=phosphate&id=rec_no&labno=1401
501,mrdata_json/phosphate/9.json,9,[nan],2.75,35.9,[nan],https://mrdata.usgs.gov/to-json.php?db=phosphate&id=rec_no&labno=9
502,mrdata_json/phosphate/310.json,310,"['Lianyungang (Tung-Hai, Lienyunkang, Donghai, Chu Shan)']",119.18333,34.56667,['Metasedimentary'],https://mrdata.usgs.gov/to-json.php?db=phosphate&id=rec_no&labno=310
503,mrdata_json/phosphate/909.json,909,['Oulad Abdoun Plateau  (Khouribga)'],-7.133333,32.633333,['Marine chemical sediment'],https://mrdata.usgs.gov/to-json.php?db=phosphate&id=rec_no&labno=909
504,mrdata_json/phosphate/622.json,622,['Fatehgarh'],71.25,26.4,['Marine chemical sediment'],https://mrdata.usgs.gov/to-json.php?db=phosphate&id=rec_no&labno=622
505,mrdata_json/phosphate/235.json,235,['Ile Bizard'],-73.9,45.48333,"['Magmatic, carbonatite/alkalic']",https://mrdata.usgs.gov/to-json.php?db=phosphate&id=rec_no&labno=235
506,mrdata_json/phosphate/345.json,345,['Tangfang'],102.583333,26.65,['Marine chemical sediment'],https://mrdata.usgs.gov/to-json.php?db=phosphate&id=rec_no&labno=345
507,mrdata_json/phosphate/1144.json,1144,['Glenover'],27.35,-24.68,"['Magmatic, carbonatite/alkalic']",https://mrdata.usgs.gov/to-json.php?db=phosphate&id=rec_no&labno=1144
508,mrdata_json/phosphate/1605.json,1605,[nan],-67.85972,18.12139,['Guano'],https://mrdata.usgs.gov/to-json.php?db=phosphate&id=rec_no&labno=1605
509,mrdata_json/phosphate/757.json,757,[nan],35.91667,34.45,[nan],https://mrdata.usgs.gov/to-json.php?db=phosphate&id=rec_no&labno=757
510,mrdata_json/phosphate/1166.json,1166,['Bakhuis Mountains - K/3 Deposit'],-57.066667,4.433333,['Magmatic; residual enrichment'],https://mrdata.usgs.gov/to-json.php?db=phosphate&id=rec_no&labno=1166
511,mrdata_json/phosphate/862.json,862,"['Hubsgul Basin (Khubsugul, Khubsugul, Hubsugul)']",100.166667,50.666667,['Marine chemical sediment'],https://mrdata.usgs.gov/to-json.php?db=phosphate&id=rec_no&labno=862
512,mrdata_json/phosphate/894.json,894,[nan],-6.71667,32.83333,[nan],https://mrdata.usgs.gov/to-json.php?db=phosphate&id=rec_no&labno=894
513,mrdata_json/phosphate/1533.json,1533,['Plumpudding Island'],15.53333,-27.63333,['Guano'],https://mrdata.usgs.gov/to-json.php?db=phosphate&id=rec_no&labno=1533
514,mrdata_json/phosphate/1112.json,1112,"[""Matam (N'Diendouri and Ouali Diala)""]",-13.05,15.333333,['Marine chemical sediment; residual enrichment'],https://mrdata.usgs.gov/to-json.php?db=phosphate&id=rec_no&labno=1112
515,mrdata_json/phosphate/1411.json,1411,['Ashford Caves'],151.166667,-29.166667,['Guano and replacement by guano-derived phosphate'],https://mrdata.usgs.gov/to-json.php?db=phosphate&id=rec_no&labno=1411
516,mrdata_json/phosphate/558.json,558,['Xerovounai Arta'],20.916667,39.4,[nan],https://mrdata.usgs.gov/to-json.php?db=phosphate&id=rec_no&labno=558
517,mrdata_json/phosphate/535.json,535,['Paris Basin/Boulonnais (Pas de Calais)'],2.33333,50.5,['Marine chemical sediment'],https://mrdata.usgs.gov/to-json.php?db=phosphate&id=rec_no&labno=535
518,mrdata_json/phosphate/457.json,457,['Nile Valley (Idfu-Qena district)'],33.23333,25.43333,['Marine chemical sediment'],https://mrdata.usgs.gov/to-json.php?db=phosphate&id=rec_no&labno=457
519,mrdata_json/phosphate/1408.json,1408,['Penguin Island'],-65.71667,-47.91667,['Guano'],https://mrdata.usgs.gov/to-json.php?db=phosphate&id=rec_no&labno=1408
520,mrdata_json/phosphate/1130.json,1130,['Schiel'],30.33333,-23.25,"['Magmatic, carbonatite/alkalic']",https://mrdata.usgs.gov/to-json.php?db=phosphate&id=rec_no&labno=1130
521,mrdata_json/phosphate/1448.json,1448,['Punta Ala'],-70.25,-22.23333,['Guano and replacement by guano-derived phosphate'],https://mrdata.usgs.gov/to-json.php?db=phosphate&id=rec_no&labno=1448
522,mrdata_json/phosphate/201.json,201,['Sisophon area/Phnom Chung Chiang'],102.95,13.6,['Secondary replacement; residual enrichment'],https://mrdata.usgs.gov/to-json.php?db=phosphate&id=rec_no&labno=201
523,mrdata_json/phosphate/1215.json,1215,['Kpomé (Kpogame?)'],1.58333,7.25,['Marine chemical sediment'],https://mrdata.usgs.gov/to-json.php?db=phosphate&id=rec_no&labno=1215
524,mrdata_json/phosphate/137.json,137,['Athieme'],1.66667,6.48333,['Marine chemical sediment'],https://mrdata.usgs.gov/to-json.php?db=phosphate&id=rec_no&labno=137
525,mrdata_json/phosphate/1427.json,1427,['Bellarine Peninsula'],144.583333,-38.25,['Guano and replacement by guano-derived phosphate'],https://mrdata.usgs.gov/to-json.php?db=phosphate&id=rec_no&labno=1427
526,mrdata_json/phosphate/767.json,767,['Nailuwa'],35.06667,-15.08333,"['Magmatic, carbonatite/alkalic']",https://mrdata.usgs.gov/to-json.php?db=phosphate&id=rec_no&labno=767
527,mrdata_json/phosphate/951.json,951,['Dang Pyuthan'],82.0,28.2666666666667,['Marine chemical sediment'],https://mrdata.usgs.gov/to-json.php?db=phosphate&id=rec_no&labno=951
528,mrdata_json/phosphate/66.json,66,['Continental margin'],153.833333,-29.383333,['Marine chemical sediment'],https://mrdata.usgs.gov/to-json.php?db=phosphate&id=rec_no&labno=66
529,mrdata_json/phosphate/149.json,149,['Irece'],-41.85,-11.366667,['Marine chemical sediment'],https://mrdata.usgs.gov/to-json.php?db=phosphate&id=rec_no&labno=149
530,mrdata_json/phosphate/756.json,756,[nan],35.25,33.21667,[nan],https://mrdata.usgs.gov/to-json.php?db=phosphate&id=rec_no&labno=756
531,mrdata_json/phosphate/1435.json,1435,['Recherche Archipelago'],122.75,-34.08333,['Guano and replacement by guano-derived phosphate'],https://mrdata.usgs.gov/to-json.php?db=phosphate&id=rec_no&labno=1435
532,mrdata_json/phosphate/770.json,770,['Tundulu complex'],35.8,-15.53333,"['Magmatic, carbonatite/alkalic']",https://mrdata.usgs.gov/to-json.php?db=phosphate&id=rec_no&labno=770
533,mrdata_json/phosphate/1509.json,1509,['Madai'],118.15,4.725,['Guano and replacement by guano-derived phosphate'],https://mrdata.usgs.gov/to-json.php?db=phosphate&id=rec_no&labno=1509
534,mrdata_json/phosphate/1246.json,1246,['Tororo (Tororo Hill)'],34.56972,0.68472,"['Magmatic, carbonatite/alkalic']",https://mrdata.usgs.gov/to-json.php?db=phosphate&id=rec_no&labno=1246
535,mrdata_json/phosphate/557.json,557,['Ktismata Epire'],20.46667,39.73333,[nan],https://mrdata.usgs.gov/to-json.php?db=phosphate&id=rec_no&labno=557
536,mrdata_json/phosphate/702.json,702,['Jebel Katan'],35.25,30.95,[nan],https://mrdata.usgs.gov/to-json.php?db=phosphate&id=rec_no&labno=702
537,mrdata_json/phosphate/191.json,191,['Arli (Arly)'],1.41667,11.58333,['Marine chemical sediment; residual enrichment'],https://mrdata.usgs.gov/to-json.php?db=phosphate&id=rec_no&labno=191
538,mrdata_json/phosphate/422.json,422,['Pandi'],-74.666667,4.066667,['Marine chemical sediment'],https://mrdata.usgs.gov/to-json.php?db=phosphate&id=rec_no&labno=422
539,mrdata_json/phosphate/1390.json,1390,"['Thanh Hoa and other provinces (Lang Son, Nghe Tinh, Bac Thai & others)']",105.33,20.0,['Residual enrichment'],https://mrdata.usgs.gov/to-json.php?db=phosphate&id=rec_no&labno=1390
540,mrdata_json/phosphate/93.json,93,['Georgina Basin/Duchess'],139.966667,-21.883333,['Marine chemical sediment'],https://mrdata.usgs.gov/to-json.php?db=phosphate&id=rec_no&labno=93
541,mrdata_json/phosphate/1229.json,1229,['Gafsa Basin'],8.266667,34.483333,['Marine chemical sediment'],https://mrdata.usgs.gov/to-json.php?db=phosphate&id=rec_no&labno=1229
542,mrdata_json/phosphate/1056.json,1056,['Gornay Shoriya/Belka'],87.883333,52.883333,['Marine chemical sediment; residual enrichment'],https://mrdata.usgs.gov/to-json.php?db=phosphate&id=rec_no&labno=1056
543,mrdata_json/phosphate/753.json,753,[nan],35.7,33.58333,[nan],https://mrdata.usgs.gov/to-json.php?db=phosphate&id=rec_no&labno=753
544,mrdata_json/phosphate/403.json,403,['La Juanita'],-75.25,2.966667,['Marine chemical sediment'],https://mrdata.usgs.gov/to-json.php?db=phosphate&id=rec_no&labno=403
545,mrdata_json/phosphate/193.json,193,['Kodjari'],1.91667,12.01667,['Marine chemical sediment; residual enrichment'],https://mrdata.usgs.gov/to-json.php?db=phosphate&id=rec_no&labno=193
546,mrdata_json/phosphate/24.json,24,['Sassolemba'],13.55,-8.6,['Marine chemical sediment'],https://mrdata.usgs.gov/to-json.php?db=phosphate&id=rec_no&labno=24
547,mrdata_json/phosphate/685.json,685,[nan],40.283333,33.666667,['Marine chemical sediment'],https://mrdata.usgs.gov/to-json.php?db=phosphate&id=rec_no&labno=685
548,mrdata_json/phosphate/202.json,202,['Phnom Bak'],104.466666666667,10.5833333333333,['Residual enrichment'],https://mrdata.usgs.gov/to-json.php?db=phosphate&id=rec_no&labno=202
549,mrdata_json/phosphate/1175.json,1175,['Svappavaara Area'],21.0,67.63333,['Hydrothermal-Magmatic iron deposit'],https://mrdata.usgs.gov/to-json.php?db=phosphate&id=rec_no&labno=1175
550,mrdata_json/phosphate/87.json,87,['Georgina Basin/Highland Plains'],138.166667,-18.583333,['Marine chemical sediment'],https://mrdata.usgs.gov/to-json.php?db=phosphate&id=rec_no&labno=87
551,mrdata_json/phosphate/1064.json,1064,['Volga Basin'],38.716667,55.316667,['Marine chemical sediment'],https://mrdata.usgs.gov/to-json.php?db=phosphate&id=rec_no&labno=1064
552,mrdata_json/phosphate/895.json,895,[nan],-8.78333,31.51667,[nan],https://mrdata.usgs.gov/to-json.php?db=phosphate&id=rec_no&labno=895
553,mrdata_json/phosphate/1479.json,1479,['Quelicai'],126.0,-8.75,['Guano and replacement by guano-derived phosphate'],https://mrdata.usgs.gov/to-json.php?db=phosphate&id=rec_no&labno=1479
554,mrdata_json/phosphate/33.json,33,['Longonjo (Chibilundo Mountain)'],15.25,-12.85,['Carbonatite'],https://mrdata.usgs.gov/to-json.php?db=phosphate&id=rec_no&labno=33
555,mrdata_json/phosphate/327.json,327,['Tiantaishan'],107.033333,33.083333,['Marine chemical sediment'],https://mrdata.usgs.gov/to-json.php?db=phosphate&id=rec_no&labno=327
556,mrdata_json/phosphate/1581.json,1581,['Bayabas cave'],119.95,15.73,['Guano and replacement by guano-derived phosphate'],https://mrdata.usgs.gov/to-json.php?db=phosphate&id=rec_no&labno=1581
