,path,deposit_id,name,longitude,latitude,deposit_type,url
0,mrdata_json/podchrome/871.json,871,['Büyükorhan-Kirocak'],36.6211111111111,36.6986111111111,"['major podiform chromite', 'Major Podiform']",https://mrdata.usgs.gov/to-json.php?db=podchrome&id=rec_id&labno=871
1,mrdata_json/podchrome/183.json,183,['Golconda Fraction'],-120.8425,39.5886111111111,"['minor podiform chromite', 'Minor Podiform']",https://mrdata.usgs.gov/to-json.php?db=podchrome&id=rec_id&labno=183
2,mrdata_json/podchrome/225.json,225,['Clover Leaf Claim'],-120.937777777778,39.8433333333333,"['minor podiform chromite', 'Minor Podiform']",https://mrdata.usgs.gov/to-json.php?db=podchrome&id=rec_id&labno=225
3,mrdata_json/podchrome/95.json,95,['Phoenix'],-120.498611111111,37.9191666666667,"['banded podiform chromite', 'unknown']",https://mrdata.usgs.gov/to-json.php?db=podchrome&id=rec_id&labno=95
4,mrdata_json/podchrome/7.json,7,['New London'],-120.689166666667,35.3533333333333,"['banded podiform chromite', 'Banded Podiform']",https://mrdata.usgs.gov/to-json.php?db=podchrome&id=rec_id&labno=7
5,mrdata_json/podchrome/691.json,691,['Herpit Yayla-Visin'],39.9705555555556,38.5616666666667,"['major podiform chromite', 'Major Podiform']",https://mrdata.usgs.gov/to-json.php?db=podchrome&id=rec_id&labno=691
6,mrdata_json/podchrome/749.json,749,['Karatas-Kumocak'],29.0636111111111,36.9116666666667,"['major podiform chromite', 'Major Podiform']",https://mrdata.usgs.gov/to-json.php?db=podchrome&id=rec_id&labno=749
7,mrdata_json/podchrome/232.json,232,['Hole in the Ground'],-124.011388888889,41.9730555555556,"['minor podiform chromite', 'Minor Podiform']",https://mrdata.usgs.gov/to-json.php?db=podchrome&id=rec_id&labno=232
8,mrdata_json/podchrome/817.json,817,['Bahtiyar-Demirkazik'],,,"['major podiform chromite', 'Major Podiform']",https://mrdata.usgs.gov/to-json.php?db=podchrome&id=rec_id&labno=817
9,mrdata_json/podchrome/405.json,405,['Foster Creek Claim'],-124.088611111111,42.6533333333333,"['minor podiform chromite', 'unknown']",https://mrdata.usgs.gov/to-json.php?db=podchrome&id=rec_id&labno=405
10,mrdata_json/podchrome/941.json,941,['Mt. Hurst 10'],-156.949722222222,63.2277777777778,"['major podiform chromite', 'Major Podiform']",https://mrdata.usgs.gov/to-json.php?db=podchrome&id=rec_id&labno=941
11,mrdata_json/podchrome/223.json,223,['Cattle Springs Claim'],-120.980555555556,39.8719444444444,"['minor podiform chromite', 'Minor Podiform']",https://mrdata.usgs.gov/to-json.php?db=podchrome&id=rec_id&labno=223
12,mrdata_json/podchrome/607.json,607,['La Rosalina'],-77.9402777777778,21.5422222222222,"['major podiform chromite', 'Major Podiform']",https://mrdata.usgs.gov/to-json.php?db=podchrome&id=rec_id&labno=607
13,mrdata_json/podchrome/1070.json,1070,['Acoje (Bunagan)'],120.239166666667,15.7847222222222,"['major podiform chromite', 'Major Podiform']",https://mrdata.usgs.gov/to-json.php?db=podchrome&id=rec_id&labno=1070
14,mrdata_json/podchrome/828.json,828,['Avsar-Karabogaz'],,,"['major podiform chromite', 'Major Podiform']",https://mrdata.usgs.gov/to-json.php?db=podchrome&id=rec_id&labno=828
15,mrdata_json/podchrome/523.json,523,['Ward-Chromore'],-71.3047222222222,45.9747222222222,"['minor podiform chromite', 'Minor Podiform']",https://mrdata.usgs.gov/to-json.php?db=podchrome&id=rec_id&labno=523
16,mrdata_json/podchrome/1110.json,1110,['Webster Cut 3'],-83.2116666666667,35.3275,"['minor podiform chromite', 'Minor Podiform']",https://mrdata.usgs.gov/to-json.php?db=podchrome&id=rec_id&labno=1110
17,mrdata_json/podchrome/199.json,199,['Stewart'],-121.473333333333,39.7927777777778,"['minor podiform chromite', 'Minor Podiform']",https://mrdata.usgs.gov/to-json.php?db=podchrome&id=rec_id&labno=199
18,mrdata_json/podchrome/176.json,176,['Bowden'],-121.084444444444,39.1758333333333,"['minor podiform chromite', 'Minor Podiform']",https://mrdata.usgs.gov/to-json.php?db=podchrome&id=rec_id&labno=176
19,mrdata_json/podchrome/402.json,402,"[""McCaleb's Sourdough No. 2""]",-123.836111111111,42.2777777777778,"['minor podiform chromite', 'Minor Podiform']",https://mrdata.usgs.gov/to-json.php?db=podchrome&id=rec_id&labno=402
20,mrdata_json/podchrome/883.json,883,['Bernard Mountain 7'],-145.131111111111,61.5766666666667,"['banded podiform chromite', 'Banded Podiform']",https://mrdata.usgs.gov/to-json.php?db=podchrome&id=rec_id&labno=883
21,mrdata_json/podchrome/972.json,972,['Sunshine'],166.446944444444,-22.0525,"['major podiform chromite', 'Major Podiform']",https://mrdata.usgs.gov/to-json.php?db=podchrome&id=rec_id&labno=972
22,mrdata_json/podchrome/323.json,323,['Kangaroo Court'],-122.593333333333,38.6858333333333,"['minor podiform chromite', 'unknown']",https://mrdata.usgs.gov/to-json.php?db=podchrome&id=rec_id&labno=323
23,mrdata_json/podchrome/1040.json,1040,['Maydulong'],125.428055555556,11.4744444444444,"['major podiform chromite', 'Major Podiform']",https://mrdata.usgs.gov/to-json.php?db=podchrome&id=rec_id&labno=1040
24,mrdata_json/podchrome/732.json,732,['Findikli Group Deposit no. 326'],34.9477777777778,37.4861111111111,"['banded podiform chromite', 'Banded Podiform']",https://mrdata.usgs.gov/to-json.php?db=podchrome&id=rec_id&labno=732
25,mrdata_json/podchrome/253.json,253,['Fourth of July Claim'],-123.98,41.7505555555556,"['minor podiform chromite', 'Minor Podiform']",https://mrdata.usgs.gov/to-json.php?db=podchrome&id=rec_id&labno=253
26,mrdata_json/podchrome/503.json,503,['Fréchette'],-71.3555555555556,46.0277777777778,"['minor podiform chromite', 'Minor Podiform']",https://mrdata.usgs.gov/to-json.php?db=podchrome&id=rec_id&labno=503
27,mrdata_json/podchrome/514.json,514,['Reed (South Ham Township)'],-71.5741666666667,46.8280555555556,"['minor podiform chromite', 'Minor Podiform']",https://mrdata.usgs.gov/to-json.php?db=podchrome&id=rec_id&labno=514
28,mrdata_json/podchrome/472.json,472,['Smith Open Cut'],-122.709444444444,48.5797222222222,"['minor podiform chromite', 'Minor Podiform']",https://mrdata.usgs.gov/to-json.php?db=podchrome&id=rec_id&labno=472
29,mrdata_json/podchrome/916.json,916,['Claim Point 11'],-151.832222222222,59.2063888888889,"['major podiform chromite', 'Major Podiform']",https://mrdata.usgs.gov/to-json.php?db=podchrome&id=rec_id&labno=916
30,mrdata_json/podchrome/205.json,205,['Liberty Bond Claim'],-121.448055555556,39.7688888888889,"['minor podiform chromite', 'Minor Podiform']",https://mrdata.usgs.gov/to-json.php?db=podchrome&id=rec_id&labno=205
31,mrdata_json/podchrome/662.json,662,['Gündüzler Maden'],30.815,39.8941666666667,"['banded podiform chromite', 'Banded Podiform']",https://mrdata.usgs.gov/to-json.php?db=podchrome&id=rec_id&labno=662
32,mrdata_json/podchrome/550.json,550,['Rafael Pit 5'],-77.8169444444445,21.4427777777778,"['major podiform chromite', 'Major Podiform']",https://mrdata.usgs.gov/to-json.php?db=podchrome&id=rec_id&labno=550
33,mrdata_json/podchrome/968.json,968,['Anna-Madeleine'],166.848333333333,-22.2316666666667,"['major podiform chromite', 'Major Podiform']",https://mrdata.usgs.gov/to-json.php?db=podchrome&id=rec_id&labno=968
34,mrdata_json/podchrome/98.json,98,['Helemar Claim'],-120.924722222222,38.5261111111111,"['minor podiform chromite', 'Minor Podiform']",https://mrdata.usgs.gov/to-json.php?db=podchrome&id=rec_id&labno=98
35,mrdata_json/podchrome/529.json,529,['Dumais'],-71.3241666666667,46.0225,"['minor podiform chromite', 'Minor Podiform']",https://mrdata.usgs.gov/to-json.php?db=podchrome&id=rec_id&labno=529
36,mrdata_json/podchrome/249.json,249,['Sunrise Claim'],-123.880555555556,41.7575,"['minor podiform chromite', 'Minor Podiform']",https://mrdata.usgs.gov/to-json.php?db=podchrome&id=rec_id&labno=249
37,mrdata_json/podchrome/277.json,277,['Emma Bell'],-123.16,41.9341666666667,"['minor podiform chromite', 'Minor Podiform']",https://mrdata.usgs.gov/to-json.php?db=podchrome&id=rec_id&labno=277
38,mrdata_json/podchrome/366.json,366,['Gray Buck No. 4'],-123.770833333333,42.3486111111111,"['minor podiform chromite', 'Minor Podiform']",https://mrdata.usgs.gov/to-json.php?db=podchrome&id=rec_id&labno=366
39,mrdata_json/podchrome/566.json,566,['Potosi'],-74.7663888888889,20.5522222222222,"['major podiform chromite', 'Major Podiform']",https://mrdata.usgs.gov/to-json.php?db=podchrome&id=rec_id&labno=566
40,mrdata_json/podchrome/597.json,597,['Don Ismael'],-77.6230555555556,21.4866666666667,"['major podiform chromite', 'Major Podiform']",https://mrdata.usgs.gov/to-json.php?db=podchrome&id=rec_id&labno=597
41,mrdata_json/podchrome/97.json,97,['Hoff Property'],-120.924722222222,38.5211111111111,"['minor podiform chromite', 'Minor Podiform']",https://mrdata.usgs.gov/to-json.php?db=podchrome&id=rec_id&labno=97
42,mrdata_json/podchrome/579.json,579,['El Provenir'],-77.6530555555556,21.4383333333333,"['major podiform chromite', 'Major Podiform']",https://mrdata.usgs.gov/to-json.php?db=podchrome&id=rec_id&labno=579
43,mrdata_json/podchrome/79.json,79,['Madrid'],-120.509444444444,38.1419444444444,"['minor podiform chromite', 'Minor Podiform']",https://mrdata.usgs.gov/to-json.php?db=podchrome&id=rec_id&labno=79
44,mrdata_json/podchrome/18.json,18,['Western Magnesite Company'],-121.462222222222,37.4102777777778,"['minor podiform chromite', 'Banded Podiform']",https://mrdata.usgs.gov/to-json.php?db=podchrome&id=rec_id&labno=18
45,mrdata_json/podchrome/1090.json,1090,['Kannoures'],32.8780555555556,34.9433333333333,"['major podiform chromite', 'Major Podiform']",https://mrdata.usgs.gov/to-json.php?db=podchrome&id=rec_id&labno=1090
46,mrdata_json/podchrome/552.json,552,['Teide'],-77.8502777777778,21.5061111111111,"['major podiform chromite', 'Major Podiform']",https://mrdata.usgs.gov/to-json.php?db=podchrome&id=rec_id&labno=552
47,mrdata_json/podchrome/735.json,735,['Çatalardiç no. 1'],35.0058333333333,37.4769444444444,"['major podiform chromite', 'Major Podiform']",https://mrdata.usgs.gov/to-json.php?db=podchrome&id=rec_id&labno=735
48,mrdata_json/podchrome/448.json,448,['Iron King'],-118.9225,44.3533333333333,"['minor podiform chromite', 'Banded Podiform']",https://mrdata.usgs.gov/to-json.php?db=podchrome&id=rec_id&labno=448
49,mrdata_json/podchrome/300.json,300,['Integral'],-122.546944444444,41.1366666666667,"['minor podiform chromite', 'Minor Podiform']",https://mrdata.usgs.gov/to-json.php?db=podchrome&id=rec_id&labno=300
50,mrdata_json/podchrome/1078.json,1078,['Tubo Tubo'],120.046666666667,15.7258333333333,"['major podiform chromite', 'Major Podiform']",https://mrdata.usgs.gov/to-json.php?db=podchrome&id=rec_id&labno=1078
51,mrdata_json/podchrome/779.json,779,['Perakende'],,,"['major podiform chromite', 'Major Podiform']",https://mrdata.usgs.gov/to-json.php?db=podchrome&id=rec_id&labno=779
52,mrdata_json/podchrome/975.json,975,['Courage'],166.297777777778,-21.8725,"['major podiform chromite', 'Major Podiform']",https://mrdata.usgs.gov/to-json.php?db=podchrome&id=rec_id&labno=975
53,mrdata_json/podchrome/771.json,771,['Demrek Gölü'],,,"['major podiform chromite', 'Major Podiform']",https://mrdata.usgs.gov/to-json.php?db=podchrome&id=rec_id&labno=771
54,mrdata_json/podchrome/742.json,742,['Kazandere-Kandiltepe'],28.4772222222222,36.9233333333333,"['major podiform chromite', 'Major Podiform']",https://mrdata.usgs.gov/to-json.php?db=podchrome&id=rec_id&labno=742
55,mrdata_json/podchrome/1013.json,1013,['Masinloc (Harding)'],120.088055555556,15.5569444444444,"['major podiform chromite', 'Major Podiform']",https://mrdata.usgs.gov/to-json.php?db=podchrome&id=rec_id&labno=1013
56,mrdata_json/podchrome/368.json,368,['Saturday Anne'],-123.770555555556,42.3669444444444,"['banded podiform chromite', 'Banded Podiform']",https://mrdata.usgs.gov/to-json.php?db=podchrome&id=rec_id&labno=368
57,mrdata_json/podchrome/332.json,332,['Astute'],-122.445833333333,38.6675,"['minor podiform chromite', 'unknown']",https://mrdata.usgs.gov/to-json.php?db=podchrome&id=rec_id&labno=332
58,mrdata_json/podchrome/653.json,653,['Küplüdag-Balatdanisment'],29.2305555555556,39.6333333333333,"['major podiform chromite', 'Major Podiform']",https://mrdata.usgs.gov/to-json.php?db=podchrome&id=rec_id&labno=653
59,mrdata_json/podchrome/96.json,96,['Stanislaus River Chrome'],-120.535555555556,37.9311111111111,"['minor podiform chromite', 'Minor Podiform']",https://mrdata.usgs.gov/to-json.php?db=podchrome&id=rec_id&labno=96
60,mrdata_json/podchrome/46.json,46,['Valley View'],-119.336666666667,36.8941666666667,"['minor podiform chromite', 'Minor Podiform']",https://mrdata.usgs.gov/to-json.php?db=podchrome&id=rec_id&labno=46
61,mrdata_json/podchrome/544.json,544,['La Victoria'],-77.7236111111111,21.4808333333333,"['major podiform chromite', 'Major Podiform']",https://mrdata.usgs.gov/to-json.php?db=podchrome&id=rec_id&labno=544
62,mrdata_json/podchrome/1102.json,1102,['Day Book (NE)'],-82.2833333333333,35.9669444444444,"['minor podiform chromite', 'Minor Podiform']",https://mrdata.usgs.gov/to-json.php?db=podchrome&id=rec_id&labno=1102
63,mrdata_json/podchrome/351.json,351,['Twin Cedars Lower'],-123.809166666667,42.2897222222222,"['minor podiform chromite', 'Minor Podiform']",https://mrdata.usgs.gov/to-json.php?db=podchrome&id=rec_id&labno=351
64,mrdata_json/podchrome/444.json,444,['Black Streak'],-123.718611111111,42.1666666666667,"['banded podiform chromite', 'Banded Podiform']",https://mrdata.usgs.gov/to-json.php?db=podchrome&id=rec_id&labno=444
65,mrdata_json/podchrome/589.json,589,['Pedro'],-77.7630555555556,21.5297222222222,"['major podiform chromite', 'Major Podiform']",https://mrdata.usgs.gov/to-json.php?db=podchrome&id=rec_id&labno=589
66,mrdata_json/podchrome/190.json,190,['Macchaus'],-120.870555555556,39.4544444444444,"['minor podiform chromite', 'Minor Podiform']",https://mrdata.usgs.gov/to-json.php?db=podchrome&id=rec_id&labno=190
67,mrdata_json/podchrome/1092.json,1092,['Damtsas'],32.8752777777778,34.94,"['major podiform chromite', 'Major Podiform']",https://mrdata.usgs.gov/to-json.php?db=podchrome&id=rec_id&labno=1092
68,mrdata_json/podchrome/474.json,474,['Cultus'],-122.003055555556,48.6936111111111,"['minor podiform chromite', 'Minor Podiform']",https://mrdata.usgs.gov/to-json.php?db=podchrome&id=rec_id&labno=474
69,mrdata_json/podchrome/358.json,358,['Good Friday'],-123.785277777778,42.3147222222222,"['banded podiform chromite', 'Banded Podiform']",https://mrdata.usgs.gov/to-json.php?db=podchrome&id=rec_id&labno=358
70,mrdata_json/podchrome/132.json,132,['North Fork Chrome'],-120.785277777778,39.1622222222222,"['minor podiform chromite', 'Minor Podiform']",https://mrdata.usgs.gov/to-json.php?db=podchrome&id=rec_id&labno=132
71,mrdata_json/podchrome/901.json,901,['Juneau No. 1'],-151.503888888889,59.3855555555556,"['major podiform chromite', 'Major Podiform']",https://mrdata.usgs.gov/to-json.php?db=podchrome&id=rec_id&labno=901
72,mrdata_json/podchrome/690.json,690,['Bagin'],39.9175,38.5680555555556,"['major podiform chromite', 'Major Podiform']",https://mrdata.usgs.gov/to-json.php?db=podchrome&id=rec_id&labno=690
73,mrdata_json/podchrome/210.json,210,['Big Bend'],-121.28,39.6930555555556,"['minor podiform chromite', 'Minor Podiform']",https://mrdata.usgs.gov/to-json.php?db=podchrome&id=rec_id&labno=210
74,mrdata_json/podchrome/248.json,248,['St. Patrick'],-123.879166666667,41.7644444444444,"['minor podiform chromite', 'Minor Podiform']",https://mrdata.usgs.gov/to-json.php?db=podchrome&id=rec_id&labno=248
75,mrdata_json/podchrome/851.json,851,['Kuruderebasi'],29.0941666666667,36.9280555555556,"['major podiform chromite', 'Major Podiform']",https://mrdata.usgs.gov/to-json.php?db=podchrome&id=rec_id&labno=851
76,mrdata_json/podchrome/1009.json,1009,['Mindoro Mineral Enterprises'],120.291944444444,13.8058333333333,"['major podiform chromite', 'Major Podiform']",https://mrdata.usgs.gov/to-json.php?db=podchrome&id=rec_id&labno=1009
77,mrdata_json/podchrome/68.json,68,['Ellingwood'],-120.771944444444,38.1886111111111,"['minor podiform chromite', 'Minor Podiform']",https://mrdata.usgs.gov/to-json.php?db=podchrome&id=rec_id&labno=68
78,mrdata_json/podchrome/885.json,885,['Bernard Mountain 14'],-145.134166666667,61.5830555555556,"['banded podiform chromite', 'Banded Podiform']",https://mrdata.usgs.gov/to-json.php?db=podchrome&id=rec_id&labno=885
79,mrdata_json/podchrome/1084.json,1084,['Big Chrome'],120.080555555556,15.4244444444444,"['major podiform chromite', 'Major Podiform']",https://mrdata.usgs.gov/to-json.php?db=podchrome&id=rec_id&labno=1084
80,mrdata_json/podchrome/669.json,669,['Sekiören-Sahbazçayir'],31.7219444444444,39.9741666666667,"['major podiform chromite', 'Major Podiform']",https://mrdata.usgs.gov/to-json.php?db=podchrome&id=rec_id&labno=669
81,mrdata_json/podchrome/471.json,471,['Meadow-Leader'],-121.751388888889,48.6394444444444,"['minor podiform chromite', 'Minor Podiform']",https://mrdata.usgs.gov/to-json.php?db=podchrome&id=rec_id&labno=471
82,mrdata_json/podchrome/545.json,545,['Ofelia'],-77.8363888888889,21.5038888888889,"['major podiform chromite', 'Major Podiform']",https://mrdata.usgs.gov/to-json.php?db=podchrome&id=rec_id&labno=545
83,mrdata_json/podchrome/243.json,243,['Tyson'],-123.987222222222,41.8072222222222,"['minor podiform chromite', 'Minor Podiform']",https://mrdata.usgs.gov/to-json.php?db=podchrome&id=rec_id&labno=243
84,mrdata_json/podchrome/867.json,867,['Biticealan'],28.6352777777778,37.0730555555556,"['banded podiform chromite', 'Banded Podiform']",https://mrdata.usgs.gov/to-json.php?db=podchrome&id=rec_id&labno=867
85,mrdata_json/podchrome/787.json,787,['Yurtlak Ocak'],,,"['major podiform chromite', 'Major Podiform']",https://mrdata.usgs.gov/to-json.php?db=podchrome&id=rec_id&labno=787
86,mrdata_json/podchrome/1114.json,1114,['Rodiani'],21.7269444444444,40.2,"['major podiform chromite', 'Major Podiform']",https://mrdata.usgs.gov/to-json.php?db=podchrome&id=rec_id&labno=1114
87,mrdata_json/podchrome/708.json,708,['Manastir Ocak'],29.6425,37.5813888888889,"['major podiform chromite', 'Major Podiform']",https://mrdata.usgs.gov/to-json.php?db=podchrome&id=rec_id&labno=708
88,mrdata_json/podchrome/38.json,38,['Saint'],-119.410277777778,36.9427777777778,"['minor podiform chromite', 'Minor Podiform']",https://mrdata.usgs.gov/to-json.php?db=podchrome&id=rec_id&labno=38
89,mrdata_json/podchrome/362.json,362,['Midnight Claim'],-123.771666666667,42.3408333333333,"['minor podiform chromite', 'Minor Podiform']",https://mrdata.usgs.gov/to-json.php?db=podchrome&id=rec_id&labno=362
90,mrdata_json/podchrome/889.json,889,['Dust Mountain 19'],-144.914722222222,61.6113888888889,"['banded podiform chromite', 'Banded Podiform']",https://mrdata.usgs.gov/to-json.php?db=podchrome&id=rec_id&labno=889
91,mrdata_json/podchrome/778.json,778,['Yaprakli Ocak'],35.0591666666667,37.485,"['major podiform chromite', 'Major Podiform']",https://mrdata.usgs.gov/to-json.php?db=podchrome&id=rec_id&labno=778
92,mrdata_json/podchrome/875.json,875,['Karanlikdere'],37.4469444444444,39.2766666666667,"['major podiform chromite', 'Major Podiform']",https://mrdata.usgs.gov/to-json.php?db=podchrome&id=rec_id&labno=875
93,mrdata_json/podchrome/766.json,766,['Yukari Zorkum'],36.05,36.4241666666667,"['major podiform chromite', 'Major Podiform']",https://mrdata.usgs.gov/to-json.php?db=podchrome&id=rec_id&labno=766
94,mrdata_json/podchrome/75.json,75,['Courtwright Property'],-120.863055555556,38.3280555555556,"['minor podiform chromite', 'Minor Podiform']",https://mrdata.usgs.gov/to-json.php?db=podchrome&id=rec_id&labno=75
95,mrdata_json/podchrome/807.json,807,['Gövnükbelen'],,,"['major podiform chromite', 'Major Podiform']",https://mrdata.usgs.gov/to-json.php?db=podchrome&id=rec_id&labno=807
96,mrdata_json/podchrome/660.json,660,['Tastepe'],30.7266666666667,39.9216666666667,"['major podiform chromite', 'Major Podiform']",https://mrdata.usgs.gov/to-json.php?db=podchrome&id=rec_id&labno=660
97,mrdata_json/podchrome/348.json,348,['Mohawk Claim'],-123.789166666667,42.2933333333333,"['minor podiform chromite', 'Minor Podiform']",https://mrdata.usgs.gov/to-json.php?db=podchrome&id=rec_id&labno=348
98,mrdata_json/podchrome/1093.json,1093,['Voidolakkos'],21.6658333333333,40.1555555555556,"['major podiform chromite', 'Major Podiform']",https://mrdata.usgs.gov/to-json.php?db=podchrome&id=rec_id&labno=1093
99,mrdata_json/podchrome/354.json,354,['Saddle Chrome'],-123.81,42.2983333333333,"['minor podiform chromite', 'Minor Podiform']",https://mrdata.usgs.gov/to-json.php?db=podchrome&id=rec_id&labno=354
100,mrdata_json/podchrome/908.json,908,['Merle 27'],-151.486944444444,59.3538888888889,"['major podiform chromite', 'Major Podiform']",https://mrdata.usgs.gov/to-json.php?db=podchrome&id=rec_id&labno=908
101,mrdata_json/podchrome/159.json,159,['Moscatelli No. 1'],-120.808333333333,39.3647222222222,"['minor podiform chromite', 'Minor Podiform']",https://mrdata.usgs.gov/to-json.php?db=podchrome&id=rec_id&labno=159
102,mrdata_json/podchrome/673.json,673,['Sürbahan'],39.7436111111111,39.5569444444444,"['major podiform chromite', 'Major Podiform']",https://mrdata.usgs.gov/to-json.php?db=podchrome&id=rec_id&labno=673
103,mrdata_json/podchrome/198.json,198,['Section 35'],-121.4925,39.81,"['minor podiform chromite', 'Minor Podiform']",https://mrdata.usgs.gov/to-json.php?db=podchrome&id=rec_id&labno=198
104,mrdata_json/podchrome/341.json,341,['Sonoma Chrome'],-122.97,38.4477777777778,"['minor podiform chromite', 'Minor Podiform']",https://mrdata.usgs.gov/to-json.php?db=podchrome&id=rec_id&labno=341
105,mrdata_json/podchrome/985.json,985,['Vieille Montagne 2'],164.215277777778,-20.4561111111111,"['major podiform chromite', 'Major Podiform']",https://mrdata.usgs.gov/to-json.php?db=podchrome&id=rec_id&labno=985
106,mrdata_json/podchrome/108.json,108,['Steele Estate'],-121.085555555556,38.7744444444444,"['minor podiform chromite', 'Banded Podiform']",https://mrdata.usgs.gov/to-json.php?db=podchrome&id=rec_id&labno=108
107,mrdata_json/podchrome/623.json,623,['Don Lavino'],-77.5608333333333,21.6030555555556,"['major podiform chromite', 'Major Podiform']",https://mrdata.usgs.gov/to-json.php?db=podchrome&id=rec_id&labno=623
108,mrdata_json/podchrome/1095.json,1095,['Xerolivado (SE)'],21.7475,40.0405555555556,"['major podiform chromite', 'Major Podiform']",https://mrdata.usgs.gov/to-json.php?db=podchrome&id=rec_id&labno=1095
109,mrdata_json/podchrome/525.json,525,['Parent'],-71.4016666666667,46.0127777777778,"['minor podiform chromite', 'Minor Podiform']",https://mrdata.usgs.gov/to-json.php?db=podchrome&id=rec_id&labno=525
110,mrdata_json/podchrome/1037.json,1037,['New Frontier'],118.221111111111,9.30833333333333,"['major podiform chromite', 'Major Podiform']",https://mrdata.usgs.gov/to-json.php?db=podchrome&id=rec_id&labno=1037
111,mrdata_json/podchrome/538.json,538,['Clara'],-81.3536111111111,22.8497222222222,"['major podiform chromite', 'Major Podiform']",https://mrdata.usgs.gov/to-json.php?db=podchrome&id=rec_id&labno=538
112,mrdata_json/podchrome/446.json,446,['Wildcat Claim'],-123.548888888889,42.0397222222222,"['minor podiform chromite', 'Minor Podiform']",https://mrdata.usgs.gov/to-json.php?db=podchrome&id=rec_id&labno=446
113,mrdata_json/podchrome/250.json,250,['Lone Grave Claims'],-123.855555555556,41.7397222222222,"['minor podiform chromite', 'Minor Podiform']",https://mrdata.usgs.gov/to-json.php?db=podchrome&id=rec_id&labno=250
114,mrdata_json/podchrome/852.json,852,['Damdir'],29.0736111111111,36.9763888888889,"['major podiform chromite', 'Major Podiform']",https://mrdata.usgs.gov/to-json.php?db=podchrome&id=rec_id&labno=852
115,mrdata_json/podchrome/116.json,116,"[""O'Brien""]",-120.8975,38.8258333333333,"['minor podiform chromite', 'Minor Podiform']",https://mrdata.usgs.gov/to-json.php?db=podchrome&id=rec_id&labno=116
116,mrdata_json/podchrome/59.json,59,['Holbrook and McGuire Group 3'],-120.56,37.9563888888889,"['minor podiform chromite', 'Minor Podiform']",https://mrdata.usgs.gov/to-json.php?db=podchrome&id=rec_id&labno=59
117,mrdata_json/podchrome/424.json,424,['Grave Creek'],-123.344722222222,42.6477777777778,"['minor podiform chromite', 'Minor Podiform']",https://mrdata.usgs.gov/to-json.php?db=podchrome&id=rec_id&labno=424
118,mrdata_json/podchrome/325.json,325,['Lucky Strike'],-122.473055555556,38.8763888888889,"['minor podiform chromite', 'unknown']",https://mrdata.usgs.gov/to-json.php?db=podchrome&id=rec_id&labno=325
119,mrdata_json/podchrome/312.json,312,['Black Diamond No. 10'],-122.608611111111,39.7594444444444,"['minor podiform chromite', 'Banded Podiform']",https://mrdata.usgs.gov/to-json.php?db=podchrome&id=rec_id&labno=312
120,mrdata_json/podchrome/180.json,180,['Tomkin Lease'],-121.105,39.0722222222222,"['minor podiform chromite', 'Minor Podiform']",https://mrdata.usgs.gov/to-json.php?db=podchrome&id=rec_id&labno=180
121,mrdata_json/podchrome/530.json,530,['American Chrome'],-71.2719444444444,46.0111111111111,"['minor podiform chromite', 'Minor Podiform']",https://mrdata.usgs.gov/to-json.php?db=podchrome&id=rec_id&labno=530
122,mrdata_json/podchrome/636.json,636,['Ginik-Kinik-Sarpdere-Tilkikayasi-Suçikitigi Dere'],28.9655555555556,39.6877777777778,"['major podiform chromite', 'Major Podiform']",https://mrdata.usgs.gov/to-json.php?db=podchrome&id=rec_id&labno=636
123,mrdata_json/podchrome/533.json,533,['Obonga Lake B Zone'],-89.5058333333333,49.9738888888889,"['minor podiform chromite', 'Minor Podiform']",https://mrdata.usgs.gov/to-json.php?db=podchrome&id=rec_id&labno=533
124,mrdata_json/podchrome/115.json,115,['McCurdy'],-120.886944444444,38.8202777777778,"['minor podiform chromite', 'Minor Podiform']",https://mrdata.usgs.gov/to-json.php?db=podchrome&id=rec_id&labno=115
125,mrdata_json/podchrome/938.json,938,['Kaiyuh Hills 8'],-156.664444444444,64.2130555555556,"['banded podiform chromite', 'unknown']",https://mrdata.usgs.gov/to-json.php?db=podchrome&id=rec_id&labno=938
126,mrdata_json/podchrome/264.json,264,['Ebon Claim'],-123.653333333333,41.9472222222222,"['minor podiform chromite', 'Minor Podiform']",https://mrdata.usgs.gov/to-json.php?db=podchrome&id=rec_id&labno=264
127,mrdata_json/podchrome/441.json,441,['Happy Camp'],-123.577222222222,42.0636111111111,"['banded podiform chromite', 'Banded Podiform']",https://mrdata.usgs.gov/to-json.php?db=podchrome&id=rec_id&labno=441
128,mrdata_json/podchrome/19.json,19,['Winship Properties'],-121.479722222222,37.4225,"['minor podiform chromite', 'Banded Podiform']",https://mrdata.usgs.gov/to-json.php?db=podchrome&id=rec_id&labno=19
129,mrdata_json/podchrome/839.json,839,['Karaçulha-Koçdag'],,,"['major podiform chromite', 'Major Podiform']",https://mrdata.usgs.gov/to-json.php?db=podchrome&id=rec_id&labno=839
130,mrdata_json/podchrome/442.json,442,['Dottie May Claim'],-123.698888888889,42.1511111111111,"['minor podiform chromite', 'Minor Podiform']",https://mrdata.usgs.gov/to-json.php?db=podchrome&id=rec_id&labno=442
131,mrdata_json/podchrome/228.json,228,['Commander Claim'],-121.015277777778,39.8522222222222,"['minor podiform chromite', 'Minor Podiform']",https://mrdata.usgs.gov/to-json.php?db=podchrome&id=rec_id&labno=228
132,mrdata_json/podchrome/308.json,308,['Manzanita'],-122.574722222222,39.7258333333333,"['minor podiform chromite', 'Banded Podiform']",https://mrdata.usgs.gov/to-json.php?db=podchrome&id=rec_id&labno=308
133,mrdata_json/podchrome/803.json,803,['Sarialan'],29.0208333333333,40.0286111111111,"['major podiform chromite', 'Major Podiform']",https://mrdata.usgs.gov/to-json.php?db=podchrome&id=rec_id&labno=803
134,mrdata_json/podchrome/99.json,99,['Murphy'],-120.950277777778,38.5425,"['minor podiform chromite', 'Minor Podiform']",https://mrdata.usgs.gov/to-json.php?db=podchrome&id=rec_id&labno=99
135,mrdata_json/podchrome/712.json,712,['Karakuz'],35.0591666666667,37.4763888888889,"['banded podiform chromite', 'Banded Podiform']",https://mrdata.usgs.gov/to-json.php?db=podchrome&id=rec_id&labno=712
136,mrdata_json/podchrome/289.json,289,['Forest Queen Group'],-122.435833333333,41.0511111111111,"['minor podiform chromite', 'Minor Podiform']",https://mrdata.usgs.gov/to-json.php?db=podchrome&id=rec_id&labno=289
137,mrdata_json/podchrome/121.json,121,['Sheppard'],-120.886111111111,38.8525,"['minor podiform chromite', 'Minor Podiform']",https://mrdata.usgs.gov/to-json.php?db=podchrome&id=rec_id&labno=121
138,mrdata_json/podchrome/261.json,261,['Big Five'],-123.935833333333,41.6711111111111,"['minor podiform chromite', 'Minor Podiform']",https://mrdata.usgs.gov/to-json.php?db=podchrome&id=rec_id&labno=261
139,mrdata_json/podchrome/836.json,836,['Çenger-Demirkazik'],29.1161111111111,36.7816666666667,"['major podiform chromite', 'Major Podiform']",https://mrdata.usgs.gov/to-json.php?db=podchrome&id=rec_id&labno=836
140,mrdata_json/podchrome/937.json,937,['Kaiyuh Hills 1'],-156.765555555556,64.1819444444444,"['major podiform chromite', 'Major Podiform']",https://mrdata.usgs.gov/to-json.php?db=podchrome&id=rec_id&labno=937
141,mrdata_json/podchrome/378.json,378,['Babyfoot'],-123.813611111111,42.2361111111111,"['minor podiform chromite', 'Minor Podiform']",https://mrdata.usgs.gov/to-json.php?db=podchrome&id=rec_id&labno=378
142,mrdata_json/podchrome/443.json,443,['Mighty Joe'],-123.718611111111,42.1744444444444,"['banded podiform chromite', 'Banded Podiform']",https://mrdata.usgs.gov/to-json.php?db=podchrome&id=rec_id&labno=443
143,mrdata_json/podchrome/1034.json,1034,['Adams'],118.659722222222,9.87138888888889,"['major podiform chromite', 'Major Podiform']",https://mrdata.usgs.gov/to-json.php?db=podchrome&id=rec_id&labno=1034
144,mrdata_json/podchrome/737.json,737,['Çatalsinir no. 1'],35.0041666666667,37.4472222222222,"['major podiform chromite', 'Major Podiform']",https://mrdata.usgs.gov/to-json.php?db=podchrome&id=rec_id&labno=737
145,mrdata_json/podchrome/936.json,936,['Red Bluff Bay West of 2'],-134.712222222222,56.865,"['major podiform chromite', 'Major Podiform']",https://mrdata.usgs.gov/to-json.php?db=podchrome&id=rec_id&labno=936
146,mrdata_json/podchrome/175.json,175,['Dickerson Property'],-121.097222222222,39.1916666666667,"['minor podiform chromite', 'Minor Podiform']",https://mrdata.usgs.gov/to-json.php?db=podchrome&id=rec_id&labno=175
147,mrdata_json/podchrome/614.json,614,['Portentosa'],-77.8333333333333,21.4708333333333,"['major podiform chromite', 'Major Podiform']",https://mrdata.usgs.gov/to-json.php?db=podchrome&id=rec_id&labno=614
148,mrdata_json/podchrome/13.json,13,['Victory No. 3'],-120.747222222222,35.4069444444444,"['minor podiform chromite', 'Banded Podiform']",https://mrdata.usgs.gov/to-json.php?db=podchrome&id=rec_id&labno=13
149,mrdata_json/podchrome/812.json,812,['Sulu I and II'],40.2680555555556,39.9872222222222,"['major podiform chromite', 'Major Podiform']",https://mrdata.usgs.gov/to-json.php?db=podchrome&id=rec_id&labno=812
150,mrdata_json/podchrome/970.json,970,['Georges Pile'],166.750277777778,-22.2525,"['major podiform chromite', 'Major Podiform']",https://mrdata.usgs.gov/to-json.php?db=podchrome&id=rec_id&labno=970
151,mrdata_json/podchrome/12.json,12,['Sweetwater'],-120.754722222222,35.4177777777778,"['minor podiform chromite', 'Banded Podiform']",https://mrdata.usgs.gov/to-json.php?db=podchrome&id=rec_id&labno=12
152,mrdata_json/podchrome/461.json,461,['Queen of the May'],-119.339166666667,44.3711111111111,"['minor podiform chromite', 'unknown']",https://mrdata.usgs.gov/to-json.php?db=podchrome&id=rec_id&labno=461
153,mrdata_json/podchrome/365.json,365,['Gray Buck No. 1'],-123.769166666667,42.3491666666667,"['minor podiform chromite', 'Minor Podiform']",https://mrdata.usgs.gov/to-json.php?db=podchrome&id=rec_id&labno=365
154,mrdata_json/podchrome/651.json,651,['Kislademirlisi'],29.2161111111111,39.5711111111111,"['major podiform chromite', 'Major Podiform']",https://mrdata.usgs.gov/to-json.php?db=podchrome&id=rec_id&labno=651
155,mrdata_json/podchrome/6.json,6,['El Primero'],-120.688055555556,35.3583333333333,"['minor podiform chromite', 'Banded Podiform']",https://mrdata.usgs.gov/to-json.php?db=podchrome&id=rec_id&labno=6
156,mrdata_json/podchrome/635.json,635,['Karaislak'],28.955,39.6744444444444,"['major podiform chromite', 'Major Podiform']",https://mrdata.usgs.gov/to-json.php?db=podchrome&id=rec_id&labno=635
157,mrdata_json/podchrome/188.json,188,['Evans Prospect'],-120.879166666667,39.4813888888889,"['minor podiform chromite', 'Minor Podiform']",https://mrdata.usgs.gov/to-json.php?db=podchrome&id=rec_id&labno=188
158,mrdata_json/podchrome/158.json,158,['Gillis'],-120.811388888889,39.3702777777778,"['minor podiform chromite', 'Minor Podiform']",https://mrdata.usgs.gov/to-json.php?db=podchrome&id=rec_id&labno=158
159,mrdata_json/podchrome/237.json,237,['Skyline'],-123.9925,41.9172222222222,"['minor podiform chromite', 'Minor Podiform']",https://mrdata.usgs.gov/to-json.php?db=podchrome&id=rec_id&labno=237
160,mrdata_json/podchrome/846.json,846,['Otmanlar-Harpuzlu'],,,"['major podiform chromite', 'Major Podiform']",https://mrdata.usgs.gov/to-json.php?db=podchrome&id=rec_id&labno=846
161,mrdata_json/podchrome/427.json,427,['Griffin'],-123.692222222222,42.27,"['banded podiform chromite', 'Banded Podiform']",https://mrdata.usgs.gov/to-json.php?db=podchrome&id=rec_id&labno=427
162,mrdata_json/podchrome/36.json,36,['Letty and Lotty Claims'],-119.423333333333,36.9469444444444,"['minor podiform chromite', 'Minor Podiform']",https://mrdata.usgs.gov/to-json.php?db=podchrome&id=rec_id&labno=36
163,mrdata_json/podchrome/844.json,844,['Kuzkavak-Kizildede'],,,"['major podiform chromite', 'Major Podiform']",https://mrdata.usgs.gov/to-json.php?db=podchrome&id=rec_id&labno=844
164,mrdata_json/podchrome/94.json,94,['Sullivan and Kahl Lease'],-120.491944444444,37.9061111111111,"['minor podiform chromite', 'Minor Podiform']",https://mrdata.usgs.gov/to-json.php?db=podchrome&id=rec_id&labno=94
165,mrdata_json/podchrome/590.json,590,['Esteinita'],-77.7541666666667,21.5277777777778,"['major podiform chromite', 'Major Podiform']",https://mrdata.usgs.gov/to-json.php?db=podchrome&id=rec_id&labno=590
166,mrdata_json/podchrome/495.json,495,['Harris'],-76.8516666666667,39.4194444444444,"['minor podiform chromite', 'Banded Podiform']",https://mrdata.usgs.gov/to-json.php?db=podchrome&id=rec_id&labno=495
167,mrdata_json/podchrome/639.json,639,['Piribeyler'],28.8072222222222,39.655,"['major podiform chromite', 'Major Podiform']",https://mrdata.usgs.gov/to-json.php?db=podchrome&id=rec_id&labno=639
168,mrdata_json/podchrome/1085.json,1085,['Banawen'],120.166666666667,15.1166666666667,"['major podiform chromite', 'Major Podiform']",https://mrdata.usgs.gov/to-json.php?db=podchrome&id=rec_id&labno=1085
169,mrdata_json/podchrome/136.json,136,['Mountain View'],-120.7725,39.0375,"['minor podiform chromite', 'Minor Podiform']",https://mrdata.usgs.gov/to-json.php?db=podchrome&id=rec_id&labno=136
170,mrdata_json/podchrome/226.json,226,['Diamond Claim'],-120.984722222222,39.8480555555556,"['minor podiform chromite', 'Minor Podiform']",https://mrdata.usgs.gov/to-json.php?db=podchrome&id=rec_id&labno=226
171,mrdata_json/podchrome/386.json,386,['Buster'],-123.728055555556,42.4483333333333,"['banded podiform chromite', 'Banded Podiform']",https://mrdata.usgs.gov/to-json.php?db=podchrome&id=rec_id&labno=386
172,mrdata_json/podchrome/22.json,22,['Black Bear'],-121.4075,37.395,"['minor podiform chromite', 'Banded Podiform']",https://mrdata.usgs.gov/to-json.php?db=podchrome&id=rec_id&labno=22
173,mrdata_json/podchrome/683.json,683,['Yilanli Çayir-Vesaye'],39.7916666666667,38.4963888888889,"['banded podiform chromite', 'Banded Podiform']",https://mrdata.usgs.gov/to-json.php?db=podchrome&id=rec_id&labno=683
174,mrdata_json/podchrome/244.json,244,['Coon Creek No. 1'],-123.911111111111,41.7919444444444,"['banded podiform chromite', 'Banded Podiform']",https://mrdata.usgs.gov/to-json.php?db=podchrome&id=rec_id&labno=244
175,mrdata_json/podchrome/212.json,212,['Dickey and Dreisbach Prospect'],-121.181388888889,39.5425,"['minor podiform chromite', 'Minor Podiform']",https://mrdata.usgs.gov/to-json.php?db=podchrome&id=rec_id&labno=212
176,mrdata_json/podchrome/947.json,947,['Miram'],,,"['major podiform chromite', 'Major Podiform']",https://mrdata.usgs.gov/to-json.php?db=podchrome&id=rec_id&labno=947
177,mrdata_json/podchrome/125.json,125,['Ogle'],-120.784722222222,38.9688888888889,"['minor podiform chromite', 'Minor Podiform']",https://mrdata.usgs.gov/to-json.php?db=podchrome&id=rec_id&labno=125
178,mrdata_json/podchrome/269.json,269,['Hayden and Hilt'],-122.630555555556,41.4405555555556,"['minor podiform chromite', 'Minor Podiform']",https://mrdata.usgs.gov/to-json.php?db=podchrome&id=rec_id&labno=269
179,mrdata_json/podchrome/76.json,76,['Dooley'],-120.908055555556,38.4372222222222,"['minor podiform chromite', 'Minor Podiform']",https://mrdata.usgs.gov/to-json.php?db=podchrome&id=rec_id&labno=76
180,mrdata_json/podchrome/548.json,548,['Rafael Pit 3'],-77.8133333333333,21.4411111111111,"['major podiform chromite', 'Major Podiform']",https://mrdata.usgs.gov/to-json.php?db=podchrome&id=rec_id&labno=548
181,mrdata_json/podchrome/371.json,371,['Butte-Black Diamond'],-123.809722222222,42.3241666666667,"['banded podiform chromite', 'Banded Podiform']",https://mrdata.usgs.gov/to-json.php?db=podchrome&id=rec_id&labno=371
182,mrdata_json/podchrome/568.json,568,['Amores Upper Group'],-74.6075,20.4269444444444,"['major podiform chromite', 'Major Podiform']",https://mrdata.usgs.gov/to-json.php?db=podchrome&id=rec_id&labno=568
183,mrdata_json/podchrome/167.json,167,['Snyder Property'],-121.046111111111,39.2552777777778,"['minor podiform chromite', 'Minor Podiform']",https://mrdata.usgs.gov/to-json.php?db=podchrome&id=rec_id&labno=167
184,mrdata_json/podchrome/963.json,963,['Consolation'],166.716944444444,-22.2791666666667,"['major podiform chromite', 'Major Podiform']",https://mrdata.usgs.gov/to-json.php?db=podchrome&id=rec_id&labno=963
185,mrdata_json/podchrome/510.json,510,['Brousseau'],-71.3508333333333,45.9322222222222,"['banded podiform chromite', 'Banded Podiform']",https://mrdata.usgs.gov/to-json.php?db=podchrome&id=rec_id&labno=510
186,mrdata_json/podchrome/218.json,218,['Shennandoah Claims'],-121.149444444444,39.9966666666667,"['minor podiform chromite', 'Minor Podiform']",https://mrdata.usgs.gov/to-json.php?db=podchrome&id=rec_id&labno=218
187,mrdata_json/podchrome/268.json,268,['Little Castle Creek'],-122.302222222222,41.1822222222222,"['minor podiform chromite', 'Minor Podiform']",https://mrdata.usgs.gov/to-json.php?db=podchrome&id=rec_id&labno=268
188,mrdata_json/podchrome/491.json,491,['Jenkins'],-76.1569444444445,39.7266666666667,"['minor podiform chromite', 'Banded Podiform']",https://mrdata.usgs.gov/to-json.php?db=podchrome&id=rec_id&labno=491
189,mrdata_json/podchrome/142.json,142,['CAPCO (NE)'],-120.775,39.105,"['minor podiform chromite', 'Minor Podiform']",https://mrdata.usgs.gov/to-json.php?db=podchrome&id=rec_id&labno=142
190,mrdata_json/podchrome/646.json,646,['Yürük Mezarligi-Tunçbilek'],29.4947222222222,39.6116666666667,"['major podiform chromite', 'Major Podiform']",https://mrdata.usgs.gov/to-json.php?db=podchrome&id=rec_id&labno=646
191,mrdata_json/podchrome/370.json,370,['Lucky Strike-Castle Springs'],-123.798888888889,42.3211111111111,"['banded podiform chromite', 'Banded Podiform']",https://mrdata.usgs.gov/to-json.php?db=podchrome&id=rec_id&labno=370
192,mrdata_json/podchrome/537.json,537,['Blow-Me-Down'],-58.2458333333333,49.0080555555556,"['minor podiform chromite', 'Minor Podiform']",https://mrdata.usgs.gov/to-json.php?db=podchrome&id=rec_id&labno=537
193,mrdata_json/podchrome/907.json,907,['Merle 18'],-151.489166666667,59.3536111111111,"['major podiform chromite', 'Major Podiform']",https://mrdata.usgs.gov/to-json.php?db=podchrome&id=rec_id&labno=907
194,mrdata_json/podchrome/599.json,599,['Angelina 1-2'],-77.8475,21.4977777777778,"['major podiform chromite', 'Major Podiform']",https://mrdata.usgs.gov/to-json.php?db=podchrome&id=rec_id&labno=599
195,mrdata_json/podchrome/337.json,337,['Laton (Yellow Streak)'],-123.121111111111,38.6172222222222,"['minor podiform chromite', 'Minor Podiform']",https://mrdata.usgs.gov/to-json.php?db=podchrome&id=rec_id&labno=337
196,mrdata_json/podchrome/437.json,437,['Chollard'],-123.555,42.085,"['minor podiform chromite', 'Minor Podiform']",https://mrdata.usgs.gov/to-json.php?db=podchrome&id=rec_id&labno=437
197,mrdata_json/podchrome/1.json,1,['Newman'],-121.622222222222,37.5583333333333,"['minor podiform chromite', 'unknown']",https://mrdata.usgs.gov/to-json.php?db=podchrome&id=rec_id&labno=1
198,mrdata_json/podchrome/458.json,458,['Smith & Geitsfield'],-118.99,44.3830555555556,"['minor podiform chromite', 'unknown']",https://mrdata.usgs.gov/to-json.php?db=podchrome&id=rec_id&labno=458
199,mrdata_json/podchrome/920.json,920,['Halibut Bay 43'],-154.591388888889,57.3422222222222,"['major podiform chromite', 'Major Podiform']",https://mrdata.usgs.gov/to-json.php?db=podchrome&id=rec_id&labno=920
200,mrdata_json/podchrome/417.json,417,['Glory Hole Occurrence'],-123.1975,42.7058333333333,"['minor podiform chromite', 'Minor Podiform']",https://mrdata.usgs.gov/to-json.php?db=podchrome&id=rec_id&labno=417
201,mrdata_json/podchrome/367.json,367,['Sally Ann Claim'],-123.776111111111,42.3497222222222,"['minor podiform chromite', 'Minor Podiform']",https://mrdata.usgs.gov/to-json.php?db=podchrome&id=rec_id&labno=367
202,mrdata_json/podchrome/583.json,583,['El Anhelo'],-77.7352777777778,21.4433333333333,"['major podiform chromite', 'Major Podiform']",https://mrdata.usgs.gov/to-json.php?db=podchrome&id=rec_id&labno=583
203,mrdata_json/podchrome/165.json,165,['Eden'],-121.064166666667,39.2641666666667,"['minor podiform chromite', 'Minor Podiform']",https://mrdata.usgs.gov/to-json.php?db=podchrome&id=rec_id&labno=165
204,mrdata_json/podchrome/1017.json,1017,['Masinloc (Murphy)'],,,"['major podiform chromite', 'Major Podiform']",https://mrdata.usgs.gov/to-json.php?db=podchrome&id=rec_id&labno=1017
205,mrdata_json/podchrome/925.json,925,['Halibut Bay 50'],-154.600833333333,57.3641666666667,"['banded podiform chromite', 'Banded Podiform']",https://mrdata.usgs.gov/to-json.php?db=podchrome&id=rec_id&labno=925
206,mrdata_json/podchrome/952.json,952,['Tavas'],29.05,37.6083333333333,"['major podiform chromite', 'Major Podiform']",https://mrdata.usgs.gov/to-json.php?db=podchrome&id=rec_id&labno=952
207,mrdata_json/podchrome/467.json,467,['Danville'],-118.518055555556,48.9655555555556,"['minor podiform chromite', 'unknown']",https://mrdata.usgs.gov/to-json.php?db=podchrome&id=rec_id&labno=467
208,mrdata_json/podchrome/750.json,750,['Sendik Ocak-Boz Br.'],28.4891666666667,36.8277777777778,"['major podiform chromite', 'Major Podiform']",https://mrdata.usgs.gov/to-json.php?db=podchrome&id=rec_id&labno=750
209,mrdata_json/podchrome/63.json,63,['Stone'],-120.6125,38.0080555555556,"['minor podiform chromite', 'Minor Podiform']",https://mrdata.usgs.gov/to-json.php?db=podchrome&id=rec_id&labno=63
210,mrdata_json/podchrome/795.json,795,['Kagit Uçtu Ocak'],,,"['major podiform chromite', 'Major Podiform']",https://mrdata.usgs.gov/to-json.php?db=podchrome&id=rec_id&labno=795
211,mrdata_json/podchrome/999.json,999,['Concepcion'],119.985,15.6769444444444,"['major podiform chromite', 'Major Podiform']",https://mrdata.usgs.gov/to-json.php?db=podchrome&id=rec_id&labno=999
212,mrdata_json/podchrome/1003.json,1003,['Dinagat'],125.592777777778,10.3516666666667,"['major podiform chromite', 'Major Podiform']",https://mrdata.usgs.gov/to-json.php?db=podchrome&id=rec_id&labno=1003
213,mrdata_json/podchrome/231.json,231,['Mountain View'],-124.047222222222,41.9116666666667,"['minor podiform chromite', 'Minor Podiform']",https://mrdata.usgs.gov/to-json.php?db=podchrome&id=rec_id&labno=231
214,mrdata_json/podchrome/130.json,130,['Snakehead Claim'],-120.773055555556,39.1830555555556,"['minor podiform chromite', 'Minor Podiform']",https://mrdata.usgs.gov/to-json.php?db=podchrome&id=rec_id&labno=130
215,mrdata_json/podchrome/981.json,981,['Chagrin'],164.258888888889,-20.4841666666667,"['major podiform chromite', 'Major Podiform']",https://mrdata.usgs.gov/to-json.php?db=podchrome&id=rec_id&labno=981
216,mrdata_json/podchrome/567.json,567,['La Constancia'],-74.5825,20.4511111111111,"['major podiform chromite', 'Major Podiform']",https://mrdata.usgs.gov/to-json.php?db=podchrome&id=rec_id&labno=567
217,mrdata_json/podchrome/504.json,504,['Provencal'],-71.3575,46.0183333333333,"['banded podiform chromite', 'Banded Podiform']",https://mrdata.usgs.gov/to-json.php?db=podchrome&id=rec_id&labno=504
218,mrdata_json/podchrome/666.json,666,['Darisu Mevkii-Gündüzler Kayi'],,,"['major podiform chromite', 'Major Podiform']",https://mrdata.usgs.gov/to-json.php?db=podchrome&id=rec_id&labno=666
219,mrdata_json/podchrome/763.json,763,['Derebahçe-Küsürtepe-Deremaden-Akoluk'],,,"['major podiform chromite', 'Major Podiform']",https://mrdata.usgs.gov/to-json.php?db=podchrome&id=rec_id&labno=763
220,mrdata_json/podchrome/806.json,806,['Tuzlakaya'],28.9894444444444,39.9725,"['major podiform chromite', 'Major Podiform']",https://mrdata.usgs.gov/to-json.php?db=podchrome&id=rec_id&labno=806
221,mrdata_json/podchrome/434.json,434,['Black Nugget'],-123.614722222222,42.0191666666667,"['minor podiform chromite', 'Minor Podiform']",https://mrdata.usgs.gov/to-json.php?db=podchrome&id=rec_id&labno=434
222,mrdata_json/podchrome/728.json,728,['Çamseki Ocak'],35.1255555555556,37.5186111111111,"['major podiform chromite', 'Major Podiform']",https://mrdata.usgs.gov/to-json.php?db=podchrome&id=rec_id&labno=728
223,mrdata_json/podchrome/847.json,847,['Otmanlar-Avlanmaz Göçügü'],,,"['major podiform chromite', 'Major Podiform']",https://mrdata.usgs.gov/to-json.php?db=podchrome&id=rec_id&labno=847
224,mrdata_json/podchrome/899.json,899,['Chrome Queen'],-151.482777777778,59.3780555555556,"['major podiform chromite', 'Major Podiform']",https://mrdata.usgs.gov/to-json.php?db=podchrome&id=rec_id&labno=899
225,mrdata_json/podchrome/919.json,919,['Halibut Bay 41'],-154.623611111111,57.3330555555556,"['major podiform chromite', 'Major Podiform']",https://mrdata.usgs.gov/to-json.php?db=podchrome&id=rec_id&labno=919
226,mrdata_json/podchrome/42.json,42,['Little Rock'],-119.349722222222,36.9019444444444,"['minor podiform chromite', 'Minor Podiform']",https://mrdata.usgs.gov/to-json.php?db=podchrome&id=rec_id&labno=42
227,mrdata_json/podchrome/144.json,144,"[""Green's CAPCO (NE Section 32)""]",-120.754166666667,39.1063888888889,"['minor podiform chromite', 'Minor Podiform']",https://mrdata.usgs.gov/to-json.php?db=podchrome&id=rec_id&labno=144
228,mrdata_json/podchrome/1081.json,1081,['Golden Arrow'],120.079722222222,14.8752777777778,"['major podiform chromite', 'Major Podiform']",https://mrdata.usgs.gov/to-json.php?db=podchrome&id=rec_id&labno=1081
229,mrdata_json/podchrome/924.json,924,['Halibut Bay 48'],-154.600277777778,57.36,"['banded podiform chromite', 'Banded Podiform']",https://mrdata.usgs.gov/to-json.php?db=podchrome&id=rec_id&labno=924
230,mrdata_json/podchrome/82.json,82,['Mackey'],-120.439722222222,37.9288888888889,"['minor podiform chromite', 'Banded Podiform']",https://mrdata.usgs.gov/to-json.php?db=podchrome&id=rec_id&labno=82
231,mrdata_json/podchrome/265.json,265,['Alyce Claim'],-123.603333333333,41.9386111111111,"['minor podiform chromite', 'Minor Podiform']",https://mrdata.usgs.gov/to-json.php?db=podchrome&id=rec_id&labno=265
232,mrdata_json/podchrome/229.json,229,['Chicago Claim'],-120.921111111111,39.8133333333333,"['minor podiform chromite', 'Minor Podiform']",https://mrdata.usgs.gov/to-json.php?db=podchrome&id=rec_id&labno=229
233,mrdata_json/podchrome/946.json,946,['Ayidamar'],39.8086111111111,38.5136111111111,"['major podiform chromite', 'Major Podiform']",https://mrdata.usgs.gov/to-json.php?db=podchrome&id=rec_id&labno=946
234,mrdata_json/podchrome/896.json,896,['Edith 4-10'],-151.483611111111,59.3691666666667,"['banded podiform chromite', 'Banded Podiform']",https://mrdata.usgs.gov/to-json.php?db=podchrome&id=rec_id&labno=896
235,mrdata_json/podchrome/696.json,696,['Çatak-Mevlütler Nos. 1-5'],29.2255555555556,37.3994444444444,"['banded podiform chromite', 'Banded Podiform']",https://mrdata.usgs.gov/to-json.php?db=podchrome&id=rec_id&labno=696
236,mrdata_json/podchrome/40.json,40,['McMurtry'],-119.355833333333,36.9119444444444,"['minor podiform chromite', 'Minor Podiform']",https://mrdata.usgs.gov/to-json.php?db=podchrome&id=rec_id&labno=40
237,mrdata_json/podchrome/863.json,863,['Kömek'],,,"['major podiform chromite', 'Major Podiform']",https://mrdata.usgs.gov/to-json.php?db=podchrome&id=rec_id&labno=863
238,mrdata_json/podchrome/35.json,35,['Manchester'],-119.423611111111,36.9433333333333,"['minor podiform chromite', 'Minor Podiform']",https://mrdata.usgs.gov/to-json.php?db=podchrome&id=rec_id&labno=35
239,mrdata_json/podchrome/181.json,181,['Gibsonville No. 2'],-120.8875,39.7461111111111,"['minor podiform chromite', 'Minor Podiform']",https://mrdata.usgs.gov/to-json.php?db=podchrome&id=rec_id&labno=181
240,mrdata_json/podchrome/297.json,297,['Grau West Pit'],-122.672777777778,40.0283333333333,"['minor podiform chromite', 'Banded Podiform']",https://mrdata.usgs.gov/to-json.php?db=podchrome&id=rec_id&labno=297
241,mrdata_json/podchrome/799.json,799,['Kiranocak'],29.0877777777778,39.7088888888889,"['major podiform chromite', 'Major Podiform']",https://mrdata.usgs.gov/to-json.php?db=podchrome&id=rec_id&labno=799
242,mrdata_json/podchrome/643.json,643,['Durabeyler'],28.6202777777778,39.6708333333333,"['banded podiform chromite', 'Banded Podiform']",https://mrdata.usgs.gov/to-json.php?db=podchrome&id=rec_id&labno=643
243,mrdata_json/podchrome/996.json,996,['Botolan'],120.086111111111,15.3111111111111,"['major podiform chromite', 'Major Podiform']",https://mrdata.usgs.gov/to-json.php?db=podchrome&id=rec_id&labno=996
244,mrdata_json/podchrome/733.json,733,['Gerdag Deposit no. 1'],34.9938888888889,37.4702777777778,"['major podiform chromite', 'Major Podiform']",https://mrdata.usgs.gov/to-json.php?db=podchrome&id=rec_id&labno=733
245,mrdata_json/podchrome/454.json,454,['Kingsley'],-118.882222222222,44.365,"['minor podiform chromite', 'Banded Podiform']",https://mrdata.usgs.gov/to-json.php?db=podchrome&id=rec_id&labno=454
246,mrdata_json/podchrome/664.json,664,['Gelinmezari'],30.7641666666667,39.985,"['major podiform chromite', 'Major Podiform']",https://mrdata.usgs.gov/to-json.php?db=podchrome&id=rec_id&labno=664
247,mrdata_json/podchrome/879.json,879,['Koparan'],,,"['major podiform chromite', 'Major Podiform']",https://mrdata.usgs.gov/to-json.php?db=podchrome&id=rec_id&labno=879
248,mrdata_json/podchrome/1050.json,1050,['San Grace'],124.498333333333,8.47055555555556,"['major podiform chromite', 'Major Podiform']",https://mrdata.usgs.gov/to-json.php?db=podchrome&id=rec_id&labno=1050
249,mrdata_json/podchrome/719.json,719,['Bozotluk No. 551'],35.0608333333333,37.5161111111111,"['major podiform chromite', 'Major Podiform']",https://mrdata.usgs.gov/to-json.php?db=podchrome&id=rec_id&labno=719
250,mrdata_json/podchrome/449.json,449,['Dry Camp (Upper Deposit)'],-118.783888888889,44.3641666666667,"['minor podiform chromite', 'Minor Podiform']",https://mrdata.usgs.gov/to-json.php?db=podchrome&id=rec_id&labno=449
251,mrdata_json/podchrome/336.json,336,['Reeve Claims'],-122.395555555556,38.5533333333333,"['minor podiform chromite', 'unknown']",https://mrdata.usgs.gov/to-json.php?db=podchrome&id=rec_id&labno=336
252,mrdata_json/podchrome/215.json,215,['Wolf Creek Claim'],-121.026944444444,40.1525,"['minor podiform chromite', 'unknown']",https://mrdata.usgs.gov/to-json.php?db=podchrome&id=rec_id&labno=215
253,mrdata_json/podchrome/1000.json,1000,['Insular Reservation No. 1 Western'],120.097222222222,15.5716666666667,"['major podiform chromite', 'Major Podiform']",https://mrdata.usgs.gov/to-json.php?db=podchrome&id=rec_id&labno=1000
254,mrdata_json/podchrome/995.json,995,['Zambales'],120.052777777778,15.7572222222222,"['major podiform chromite', 'Major Podiform']",https://mrdata.usgs.gov/to-json.php?db=podchrome&id=rec_id&labno=995
255,mrdata_json/podchrome/466.json,466,['Ray Spring'],-118.773611111111,44.3405555555556,"['minor podiform chromite', 'Minor Podiform']",https://mrdata.usgs.gov/to-json.php?db=podchrome&id=rec_id&labno=466
256,mrdata_json/podchrome/1004.json,1004,['Masinloc (Pinamanaan)'],120.060555555556,15.5263888888889,"['major podiform chromite', 'Major Podiform']",https://mrdata.usgs.gov/to-json.php?db=podchrome&id=rec_id&labno=1004
257,mrdata_json/podchrome/1052.json,1052,['Cheston'],124.495,8.46916666666667,"['major podiform chromite', 'Major Podiform']",https://mrdata.usgs.gov/to-json.php?db=podchrome&id=rec_id&labno=1052
258,mrdata_json/podchrome/204.json,204,['Swayne'],-121.420833333333,39.7766666666667,"['banded podiform chromite', 'Banded Podiform']",https://mrdata.usgs.gov/to-json.php?db=podchrome&id=rec_id&labno=204
259,mrdata_json/podchrome/758.json,758,['Karaçamlik Mevkii-Küçükalan'],29.5186111111111,37.2447222222222,"['major podiform chromite', 'Major Podiform']",https://mrdata.usgs.gov/to-json.php?db=podchrome&id=rec_id&labno=758
260,mrdata_json/podchrome/388.json,388,['Chrome Flat'],-123.729444444444,42.4366666666667,"['minor podiform chromite', 'Minor Podiform']",https://mrdata.usgs.gov/to-json.php?db=podchrome&id=rec_id&labno=388
261,mrdata_json/podchrome/113.json,113,['Burnett Property'],-121.088888888889,38.7552777777778,"['minor podiform chromite', 'Banded Podiform']",https://mrdata.usgs.gov/to-json.php?db=podchrome&id=rec_id&labno=113
262,mrdata_json/podchrome/870.json,870,['Orhaneli-Karincali'],28.2997222222222,36.9547222222222,"['major podiform chromite', 'Major Podiform']",https://mrdata.usgs.gov/to-json.php?db=podchrome&id=rec_id&labno=870
263,mrdata_json/podchrome/304.json,304,['Pecwan'],-123.78,41.3836111111111,"['minor podiform chromite', 'unknown']",https://mrdata.usgs.gov/to-json.php?db=podchrome&id=rec_id&labno=304
264,mrdata_json/podchrome/1048.json,1048,['Palpat'],125.135,8.21416666666667,"['major podiform chromite', 'Major Podiform']",https://mrdata.usgs.gov/to-json.php?db=podchrome&id=rec_id&labno=1048
265,mrdata_json/podchrome/1006.json,1006,['Initao'],124.317222222222,8.49416666666667,"['major podiform chromite', 'Major Podiform']",https://mrdata.usgs.gov/to-json.php?db=podchrome&id=rec_id&labno=1006
266,mrdata_json/podchrome/745.json,745,['Kaymakam Ocak-Alayetdere'],28.6891666666667,37.0588888888889,"['major podiform chromite', 'Major Podiform']",https://mrdata.usgs.gov/to-json.php?db=podchrome&id=rec_id&labno=745
267,mrdata_json/podchrome/1118.json,1118,['Tsangli 5'],22.6344444444444,39.2958333333333,"['major podiform chromite', 'Major Podiform']",https://mrdata.usgs.gov/to-json.php?db=podchrome&id=rec_id&labno=1118
268,mrdata_json/podchrome/372.json,372,['Dark Star'],-123.818055555556,42.3163888888889,"['minor podiform chromite', 'Minor Podiform']",https://mrdata.usgs.gov/to-json.php?db=podchrome&id=rec_id&labno=372
269,mrdata_json/podchrome/1022.json,1022,['Acoje G3-102'],120.054444444444,15.7075,"['major podiform chromite', 'Major Podiform']",https://mrdata.usgs.gov/to-json.php?db=podchrome&id=rec_id&labno=1022
270,mrdata_json/podchrome/1115.json,1115,['Tsangli 2'],22.6222222222222,39.2986111111111,"['major podiform chromite', 'Major Podiform']",https://mrdata.usgs.gov/to-json.php?db=podchrome&id=rec_id&labno=1115
271,mrdata_json/podchrome/1067.json,1067,['Salcedo'],125.628333333333,11.1513888888889,"['major podiform chromite', 'Major Podiform']",https://mrdata.usgs.gov/to-json.php?db=podchrome&id=rec_id&labno=1067
272,mrdata_json/podchrome/631.json,631,['Musa Danisman'],40.5391666666667,40.0138888888889,"['major podiform chromite', 'Major Podiform']",https://mrdata.usgs.gov/to-json.php?db=podchrome&id=rec_id&labno=631
273,mrdata_json/podchrome/39.json,39,['Erickson'],-119.398888888889,36.9383333333333,"['minor podiform chromite', 'Minor Podiform']",https://mrdata.usgs.gov/to-json.php?db=podchrome&id=rec_id&labno=39
274,mrdata_json/podchrome/356.json,356,['Deep Gorge'],-123.782777777778,42.3147222222222,"['minor podiform chromite', 'Minor Podiform']",https://mrdata.usgs.gov/to-json.php?db=podchrome&id=rec_id&labno=356
275,mrdata_json/podchrome/110.json,110,['Pillikin Area 9'],-121.083888888889,38.7869444444444,"['minor podiform chromite', 'Banded Podiform']",https://mrdata.usgs.gov/to-json.php?db=podchrome&id=rec_id&labno=110
276,mrdata_json/podchrome/962.json,962,['Chrome Rouge'],166.644444444444,-22.24,"['major podiform chromite', 'Major Podiform']",https://mrdata.usgs.gov/to-json.php?db=podchrome&id=rec_id&labno=962
277,mrdata_json/podchrome/284.json,284,['Grand Falls-Grand Canyon'],-123.062777777778,41.7255555555556,"['minor podiform chromite', 'Banded Podiform']",https://mrdata.usgs.gov/to-json.php?db=podchrome&id=rec_id&labno=284
278,mrdata_json/podchrome/143.json,143,['CAPCO (SE)'],-120.773611111111,39.1019444444444,"['minor podiform chromite', 'Minor Podiform']",https://mrdata.usgs.gov/to-json.php?db=podchrome&id=rec_id&labno=143
279,mrdata_json/podchrome/259.json,259,['Cuneo'],-123.952222222222,41.6927777777778,"['minor podiform chromite', 'Minor Podiform']",https://mrdata.usgs.gov/to-json.php?db=podchrome&id=rec_id&labno=259
280,mrdata_json/podchrome/31.json,31,['Blue Brush'],-119.417222222222,36.9575,"['minor podiform chromite', 'Minor Podiform']",https://mrdata.usgs.gov/to-json.php?db=podchrome&id=rec_id&labno=31
281,mrdata_json/podchrome/790.json,790,['Bozdere Ocak'],,,"['major podiform chromite', 'Major Podiform']",https://mrdata.usgs.gov/to-json.php?db=podchrome&id=rec_id&labno=790
282,mrdata_json/podchrome/824.json,824,['Domuzburnu-Kocakislak-Yukari Koca Kislak'],,,"['major podiform chromite', 'Major Podiform']",https://mrdata.usgs.gov/to-json.php?db=podchrome&id=rec_id&labno=824
283,mrdata_json/podchrome/278.json,278,['Seiad Creek'],-123.143888888889,41.9080555555556,"['minor podiform chromite', 'Minor Podiform']",https://mrdata.usgs.gov/to-json.php?db=podchrome&id=rec_id&labno=278
284,mrdata_json/podchrome/468.json,468,['Boulder Creek'],-121.043333333333,47.4419444444444,"['minor podiform chromite', 'Minor Podiform']",https://mrdata.usgs.gov/to-json.php?db=podchrome&id=rec_id&labno=468
285,mrdata_json/podchrome/949.json,949,['Dorucali'],35.4391666666667,37.5916666666667,"['major podiform chromite', 'Major Podiform']",https://mrdata.usgs.gov/to-json.php?db=podchrome&id=rec_id&labno=949
286,mrdata_json/podchrome/657.json,657,['Ilicaksu'],29.0911111111111,39.6980555555556,"['major podiform chromite', 'Major Podiform']",https://mrdata.usgs.gov/to-json.php?db=podchrome&id=rec_id&labno=657
287,mrdata_json/podchrome/531.json,531,['Fletcher'],-71.11,45.41,"['minor podiform chromite', 'Minor Podiform']",https://mrdata.usgs.gov/to-json.php?db=podchrome&id=rec_id&labno=531
288,mrdata_json/podchrome/665.json,665,['Lâçin'],30.7622222222222,40.0538888888889,"['major podiform chromite', 'Major Podiform']",https://mrdata.usgs.gov/to-json.php?db=podchrome&id=rec_id&labno=665
289,mrdata_json/podchrome/438.json,438,['Tennessee Chromite'],-123.72,42.1938888888889,"['minor podiform chromite', 'Minor Podiform']",https://mrdata.usgs.gov/to-json.php?db=podchrome&id=rec_id&labno=438
290,mrdata_json/podchrome/990.json,990,['Masinloc (Coto)'],120.091388888889,15.5611111111111,"['major podiform chromite', 'Major Podiform']",https://mrdata.usgs.gov/to-json.php?db=podchrome&id=rec_id&labno=990
291,mrdata_json/podchrome/886.json,886,['Bernard Mountain 15'],-145.141388888889,61.5847222222222,"['banded podiform chromite', 'Banded Podiform']",https://mrdata.usgs.gov/to-json.php?db=podchrome&id=rec_id&labno=886
292,mrdata_json/podchrome/1008.json,1008,['Tigbatang'],122.015277777778,10.8502777777778,"['major podiform chromite', 'Major Podiform']",https://mrdata.usgs.gov/to-json.php?db=podchrome&id=rec_id&labno=1008
293,mrdata_json/podchrome/1124.json,1124,['Moore (Vanderbilt Claim)'],-122.344166666667,38.7975,"['minor podiform chromite', 'unknown']",https://mrdata.usgs.gov/to-json.php?db=podchrome&id=rec_id&labno=1124
294,mrdata_json/podchrome/1030.json,1030,['Irahuan NE'],118.627222222222,9.83444444444445,"['major podiform chromite', 'Major Podiform']",https://mrdata.usgs.gov/to-json.php?db=podchrome&id=rec_id&labno=1030
295,mrdata_json/podchrome/1086.json,1086,['Mohon'],120.188611111111,15.1241666666667,"['major podiform chromite', 'Major Podiform']",https://mrdata.usgs.gov/to-json.php?db=podchrome&id=rec_id&labno=1086
296,mrdata_json/podchrome/106.json,106,['Chrome Gulch'],-121.095,38.7861111111111,"['minor podiform chromite', 'Banded Podiform']",https://mrdata.usgs.gov/to-json.php?db=podchrome&id=rec_id&labno=106
297,mrdata_json/podchrome/313.json,313,['Black Diamond No. 5'],-122.583055555556,39.7447222222222,"['minor podiform chromite', 'Banded Podiform']",https://mrdata.usgs.gov/to-json.php?db=podchrome&id=rec_id&labno=313
298,mrdata_json/podchrome/734.json,734,['Gerdag Deposit no. 3'],34.9919444444444,37.4705555555556,"['major podiform chromite', 'Major Podiform']",https://mrdata.usgs.gov/to-json.php?db=podchrome&id=rec_id&labno=734
299,mrdata_json/podchrome/832.json,832,['Sodur-Camili-Küçükören-Sinclili'],,,"['major podiform chromite', 'Major Podiform']",https://mrdata.usgs.gov/to-json.php?db=podchrome&id=rec_id&labno=832
300,mrdata_json/podchrome/551.json,551,['Demasia Angelina Tercera'],-77.8488888888889,21.5030555555556,"['major podiform chromite', 'Major Podiform']",https://mrdata.usgs.gov/to-json.php?db=podchrome&id=rec_id&labno=551
301,mrdata_json/podchrome/1021.json,1021,['Acoje G6-74'],120.055555555556,15.6997222222222,"['major podiform chromite', 'Major Podiform']",https://mrdata.usgs.gov/to-json.php?db=podchrome&id=rec_id&labno=1021
302,mrdata_json/podchrome/780.json,780,['Karasivri Ocak'],,,"['major podiform chromite', 'Major Podiform']",https://mrdata.usgs.gov/to-json.php?db=podchrome&id=rec_id&labno=780
303,mrdata_json/podchrome/489.json,489,['Bare Hills'],-76.6488888888889,39.3877777777778,"['minor podiform chromite', 'Banded Podiform']",https://mrdata.usgs.gov/to-json.php?db=podchrome&id=rec_id&labno=489
304,mrdata_json/podchrome/72.json,72,['Walker 2'],-120.635555555556,38.0222222222222,"['minor podiform chromite', 'Minor Podiform']",https://mrdata.usgs.gov/to-json.php?db=podchrome&id=rec_id&labno=72
305,mrdata_json/podchrome/602.json,602,['Avan'],-77.8625,21.5375,"['major podiform chromite', 'Major Podiform']",https://mrdata.usgs.gov/to-json.php?db=podchrome&id=rec_id&labno=602
306,mrdata_json/podchrome/81.json,81,['Quigg'],-120.473611111111,37.9636111111111,"['minor podiform chromite', 'Banded Podiform']",https://mrdata.usgs.gov/to-json.php?db=podchrome&id=rec_id&labno=81
307,mrdata_json/podchrome/935.json,935,['Red Bluff Bay 7-8'],-134.709722222222,56.8511111111111,"['major podiform chromite', 'Major Podiform']",https://mrdata.usgs.gov/to-json.php?db=podchrome&id=rec_id&labno=935
308,mrdata_json/podchrome/285.json,285,['Elk Creek'],-123.276388888889,41.7016666666667,"['minor podiform chromite', 'unknown']",https://mrdata.usgs.gov/to-json.php?db=podchrome&id=rec_id&labno=285
309,mrdata_json/podchrome/930.json,930,['Red Bluff Bay 1-2'],-134.710555555556,56.8652777777778,"['major podiform chromite', 'Major Podiform']",https://mrdata.usgs.gov/to-json.php?db=podchrome&id=rec_id&labno=930
310,mrdata_json/podchrome/3.json,3,['Pine Mountain'],-121.089722222222,35.6833333333333,"['minor podiform chromite', 'Banded Podiform']",https://mrdata.usgs.gov/to-json.php?db=podchrome&id=rec_id&labno=3
311,mrdata_json/podchrome/118.json,118,['Simon South'],-120.879722222222,38.8291666666667,"['minor podiform chromite', 'Minor Podiform']",https://mrdata.usgs.gov/to-json.php?db=podchrome&id=rec_id&labno=118
312,mrdata_json/podchrome/375.json,375,['High View'],-123.82,42.3363888888889,"['minor podiform chromite', 'Minor Podiform']",https://mrdata.usgs.gov/to-json.php?db=podchrome&id=rec_id&labno=375
313,mrdata_json/podchrome/192.json,192,['Arbucco Prospects'],-121.183055555556,39.5133333333333,"['minor podiform chromite', 'Minor Podiform']",https://mrdata.usgs.gov/to-json.php?db=podchrome&id=rec_id&labno=192
314,mrdata_json/podchrome/102.json,102,['Walker'],-121.073055555556,38.67,"['minor podiform chromite', 'Minor Podiform']",https://mrdata.usgs.gov/to-json.php?db=podchrome&id=rec_id&labno=102
315,mrdata_json/podchrome/1101.json,1101,['Morgan Hill'],-82.5077777777778,35.7711111111111,"['minor podiform chromite', 'Minor Podiform']",https://mrdata.usgs.gov/to-json.php?db=podchrome&id=rec_id&labno=1101
316,mrdata_json/podchrome/969.json,969,['Dyne'],166.755,-22.11,"['major podiform chromite', 'Major Podiform']",https://mrdata.usgs.gov/to-json.php?db=podchrome&id=rec_id&labno=969
317,mrdata_json/podchrome/640.json,640,['Kizilcadere-çinar'],28.7611111111111,39.6194444444444,"['banded podiform chromite', 'Banded Podiform']",https://mrdata.usgs.gov/to-json.php?db=podchrome&id=rec_id&labno=640
318,mrdata_json/podchrome/83.json,83,['Ace of Spades'],-120.379722222222,37.8016666666667,"['minor podiform chromite', 'Minor Podiform']",https://mrdata.usgs.gov/to-json.php?db=podchrome&id=rec_id&labno=83
319,mrdata_json/podchrome/329.json,329,['Moore (Marshall Claim)'],-122.336111111111,38.7983333333333,"['minor podiform chromite', 'unknown']",https://mrdata.usgs.gov/to-json.php?db=podchrome&id=rec_id&labno=329
320,mrdata_json/podchrome/333.json,333,['Manzanita Claim'],-122.580833333333,39.7505555555556,"['banded podiform chromite', 'unknown']",https://mrdata.usgs.gov/to-json.php?db=podchrome&id=rec_id&labno=333
321,mrdata_json/podchrome/723.json,723,['Deveboynu Ocak'],35.0802777777778,37.495,"['major podiform chromite', 'Major Podiform']",https://mrdata.usgs.gov/to-json.php?db=podchrome&id=rec_id&labno=723
322,mrdata_json/podchrome/254.json,254,['Hawkins Claim'],-123.982777777778,41.7505555555556,"['minor podiform chromite', 'Minor Podiform']",https://mrdata.usgs.gov/to-json.php?db=podchrome&id=rec_id&labno=254
323,mrdata_json/podchrome/396.json,396,['Prater'],-122.853611111111,42.1436111111111,"['minor podiform chromite', 'unknown']",https://mrdata.usgs.gov/to-json.php?db=podchrome&id=rec_id&labno=396
324,mrdata_json/podchrome/987.json,987,['P.B.'],164.249166666667,-20.5163888888889,"['major podiform chromite', 'Major Podiform']",https://mrdata.usgs.gov/to-json.php?db=podchrome&id=rec_id&labno=987
325,mrdata_json/podchrome/540.json,540,['El Cid'],-77.8252777777778,21.5877777777778,"['major podiform chromite', 'Major Podiform']",https://mrdata.usgs.gov/to-json.php?db=podchrome&id=rec_id&labno=540
326,mrdata_json/podchrome/203.json,203,['Section 13'],-121.36,39.7655555555556,"['minor podiform chromite', 'Minor Podiform']",https://mrdata.usgs.gov/to-json.php?db=podchrome&id=rec_id&labno=203
327,mrdata_json/podchrome/385.json,385,['Shady Cove'],-123.725555555556,42.4577777777778,"['banded podiform chromite', 'Banded Podiform']",https://mrdata.usgs.gov/to-json.php?db=podchrome&id=rec_id&labno=385
328,mrdata_json/podchrome/321.json,321,['Harp and Sons Ranch'],-122.658611111111,38.7847222222222,"['minor podiform chromite', 'unknown']",https://mrdata.usgs.gov/to-json.php?db=podchrome&id=rec_id&labno=321
329,mrdata_json/podchrome/973.json,973,['Suzanne Galliéni'],166.340833333333,-21.9022222222222,"['major podiform chromite', 'Major Podiform']",https://mrdata.usgs.gov/to-json.php?db=podchrome&id=rec_id&labno=973
330,mrdata_json/podchrome/1001.json,1001,['Ambil Island'],120.293055555556,13.8277777777778,"['major podiform chromite', 'Major Podiform']",https://mrdata.usgs.gov/to-json.php?db=podchrome&id=rec_id&labno=1001
331,mrdata_json/podchrome/260.json,260,['Inman No. 2 Claim'],-123.947777777778,41.6736111111111,"['minor podiform chromite', 'Minor Podiform']",https://mrdata.usgs.gov/to-json.php?db=podchrome&id=rec_id&labno=260
332,mrdata_json/podchrome/1044.json,1044,['Duhaylungsod'],122.538888888889,7.92111111111111,"['major podiform chromite', 'Major Podiform']",https://mrdata.usgs.gov/to-json.php?db=podchrome&id=rec_id&labno=1044
333,mrdata_json/podchrome/748.json,748,['Suluk'],29.0727777777778,36.9752777777778,"['major podiform chromite', 'Major Podiform']",https://mrdata.usgs.gov/to-json.php?db=podchrome&id=rec_id&labno=748
334,mrdata_json/podchrome/287.json,287,['Cyclone Gap'],-123.621388888889,41.8608333333333,"['minor podiform chromite', 'unknown']",https://mrdata.usgs.gov/to-json.php?db=podchrome&id=rec_id&labno=287
335,mrdata_json/podchrome/695.json,695,['Mevlütler-Acipayam'],29.2816666666667,37.3886111111111,"['banded podiform chromite', 'Banded Podiform']",https://mrdata.usgs.gov/to-json.php?db=podchrome&id=rec_id&labno=695
336,mrdata_json/podchrome/55.json,55,['Holston'],-118.9525,36.025,"['minor podiform chromite', 'Minor Podiform']",https://mrdata.usgs.gov/to-json.php?db=podchrome&id=rec_id&labno=55
337,mrdata_json/podchrome/594.json,594,['Rincon Bellaco'],-77.5844444444445,21.56,"['major podiform chromite', 'Major Podiform']",https://mrdata.usgs.gov/to-json.php?db=podchrome&id=rec_id&labno=594
338,mrdata_json/podchrome/16.json,16,['Bacon'],-119.975,34.6941666666667,"['minor podiform chromite', 'unknown']",https://mrdata.usgs.gov/to-json.php?db=podchrome&id=rec_id&labno=16
339,mrdata_json/podchrome/1120.json,1120,['Iyikrok Mountain 1'],-163.655833333333,67.9427777777778,"['banded podiform chromite', 'Banded Podiform']",https://mrdata.usgs.gov/to-json.php?db=podchrome&id=rec_id&labno=1120
340,mrdata_json/podchrome/534.json,534,['Springers Hill'],-58.4383333333333,48.7966666666667,"['minor podiform chromite', 'Minor Podiform']",https://mrdata.usgs.gov/to-json.php?db=podchrome&id=rec_id&labno=534
341,mrdata_json/podchrome/69.json,69,['Gillam'],-120.788611111111,38.2247222222222,"['minor podiform chromite', 'Minor Podiform']",https://mrdata.usgs.gov/to-json.php?db=podchrome&id=rec_id&labno=69
342,mrdata_json/podchrome/915.json,915,['Claim Point 10'],-151.821666666667,59.2063888888889,"['major podiform chromite', 'Major Podiform']",https://mrdata.usgs.gov/to-json.php?db=podchrome&id=rec_id&labno=915
343,mrdata_json/podchrome/153.json,153,['Gas Canyon Claim'],-120.924166666667,38.9816666666667,"['minor podiform chromite', 'Minor Podiform']",https://mrdata.usgs.gov/to-json.php?db=podchrome&id=rec_id&labno=153
344,mrdata_json/podchrome/967.json,967,['Vercingétorix'],166.791111111111,-22.0294444444444,"['major podiform chromite', 'Major Podiform']",https://mrdata.usgs.gov/to-json.php?db=podchrome&id=rec_id&labno=967
345,mrdata_json/podchrome/715.json,715,['Dere Ocak'],35.0377777777778,37.5419444444444,"['major podiform chromite', 'Major Podiform']",https://mrdata.usgs.gov/to-json.php?db=podchrome&id=rec_id&labno=715
346,mrdata_json/podchrome/240.json,240,['Holiday Group'],-123.866666666667,41.9463888888889,"['minor podiform chromite', 'Minor Podiform']",https://mrdata.usgs.gov/to-json.php?db=podchrome&id=rec_id&labno=240
347,mrdata_json/podchrome/626.json,626,['Keltepe'],33.2855555555556,40.5947222222222,"['major podiform chromite', 'Major Podiform']",https://mrdata.usgs.gov/to-json.php?db=podchrome&id=rec_id&labno=626
348,mrdata_json/podchrome/112.json,112,['Darrington East Zone'],-121.085277777778,38.7597222222222,"['minor podiform chromite', 'Banded Podiform']",https://mrdata.usgs.gov/to-json.php?db=podchrome&id=rec_id&labno=112
349,mrdata_json/podchrome/322.json,322,['Holmstedt'],-122.6175,38.7011111111111,"['banded podiform chromite', 'Banded Podiform']",https://mrdata.usgs.gov/to-json.php?db=podchrome&id=rec_id&labno=322
350,mrdata_json/podchrome/147.json,147,['Southern Pacific (east workings)'],-120.747777777778,39.0791666666667,"['minor podiform chromite', 'Minor Podiform']",https://mrdata.usgs.gov/to-json.php?db=podchrome&id=rec_id&labno=147
351,mrdata_json/podchrome/177.json,177,['Thompson Ranch'],-121.106388888889,39.0944444444444,"['minor podiform chromite', 'Minor Podiform']",https://mrdata.usgs.gov/to-json.php?db=podchrome&id=rec_id&labno=177
352,mrdata_json/podchrome/129.json,129,['Julian Claims'],-120.771666666667,39.1994444444444,"['minor podiform chromite', 'Minor Podiform']",https://mrdata.usgs.gov/to-json.php?db=podchrome&id=rec_id&labno=129
353,mrdata_json/podchrome/932.json,932,['Red Bluff Bay 4'],-134.711944444444,56.8577777777778,"['banded podiform chromite', 'unknown']",https://mrdata.usgs.gov/to-json.php?db=podchrome&id=rec_id&labno=932
354,mrdata_json/podchrome/1057.json,1057,['Loyalty 1'],126.176111111111,6.51611111111111,"['major podiform chromite', 'Major Podiform']",https://mrdata.usgs.gov/to-json.php?db=podchrome&id=rec_id&labno=1057
355,mrdata_json/podchrome/593.json,593,['Papino y Ampliación'],-77.5841666666667,21.5622222222222,"['major podiform chromite', 'Major Podiform']",https://mrdata.usgs.gov/to-json.php?db=podchrome&id=rec_id&labno=593
356,mrdata_json/podchrome/786.json,786,['Küldöken Ocak'],,,"['major podiform chromite', 'Major Podiform']",https://mrdata.usgs.gov/to-json.php?db=podchrome&id=rec_id&labno=786
357,mrdata_json/podchrome/939.json,939,['Kaiyuh Hills 9'],-156.660833333333,64.22,"['banded podiform chromite', 'unknown']",https://mrdata.usgs.gov/to-json.php?db=podchrome&id=rec_id&labno=939
358,mrdata_json/podchrome/688.json,688,['Pütyan'],39.7080555555556,38.4436111111111,"['major podiform chromite', 'Major Podiform']",https://mrdata.usgs.gov/to-json.php?db=podchrome&id=rec_id&labno=688
359,mrdata_json/podchrome/1071.json,1071,['Baler'],121.535833333333,15.7213888888889,"['major podiform chromite', 'Major Podiform']",https://mrdata.usgs.gov/to-json.php?db=podchrome&id=rec_id&labno=1071
360,mrdata_json/podchrome/565.json,565,['Cayoguan Claim'],-74.8519444444444,20.565,"['major podiform chromite', 'Major Podiform']",https://mrdata.usgs.gov/to-json.php?db=podchrome&id=rec_id&labno=565
361,mrdata_json/podchrome/576.json,576,['Lolita'],-77.6119444444444,21.5041666666667,"['major podiform chromite', 'Major Podiform']",https://mrdata.usgs.gov/to-json.php?db=podchrome&id=rec_id&labno=576
362,mrdata_json/podchrome/627.json,627,['Meye'],34.2802777777778,41.5327777777778,"['major podiform chromite', 'Major Podiform']",https://mrdata.usgs.gov/to-json.php?db=podchrome&id=rec_id&labno=627
363,mrdata_json/podchrome/580.json,580,['Zanjon'],-77.6591666666667,21.4363888888889,"['major podiform chromite', 'Major Podiform']",https://mrdata.usgs.gov/to-json.php?db=podchrome&id=rec_id&labno=580
364,mrdata_json/podchrome/675.json,675,['Okçular-Çeme Ocak'],28.3080555555556,39.3322222222222,"['major podiform chromite', 'Major Podiform']",https://mrdata.usgs.gov/to-json.php?db=podchrome&id=rec_id&labno=675
365,mrdata_json/podchrome/150.json,150,['Buttercup Chrome'],-120.779444444444,39.0325,"['minor podiform chromite', 'Minor Podiform']",https://mrdata.usgs.gov/to-json.php?db=podchrome&id=rec_id&labno=150
366,mrdata_json/podchrome/861.json,861,['Kavakçali'],,,"['major podiform chromite', 'Major Podiform']",https://mrdata.usgs.gov/to-json.php?db=podchrome&id=rec_id&labno=861
367,mrdata_json/podchrome/166.json,166,['Porter Property'],-121.080833333333,39.2533333333333,"['minor podiform chromite', 'Minor Podiform']",https://mrdata.usgs.gov/to-json.php?db=podchrome&id=rec_id&labno=166
368,mrdata_json/podchrome/1012.json,1012,['Masinloc (1111)'],120.086666666667,15.5575,"['major podiform chromite', 'Major Podiform']",https://mrdata.usgs.gov/to-json.php?db=podchrome&id=rec_id&labno=1012
369,mrdata_json/podchrome/485.json,485,['Scott'],-76.0425,39.7425,"['minor podiform chromite', 'Banded Podiform']",https://mrdata.usgs.gov/to-json.php?db=podchrome&id=rec_id&labno=485
370,mrdata_json/podchrome/1062.json,1062,['Heritage'],125.532777777778,11.3830555555556,"['major podiform chromite', 'Major Podiform']",https://mrdata.usgs.gov/to-json.php?db=podchrome&id=rec_id&labno=1062
371,mrdata_json/podchrome/1015.json,1015,['Masinloc (Hayden)'],120.085555555556,15.5544444444444,"['major podiform chromite', 'Major Podiform']",https://mrdata.usgs.gov/to-json.php?db=podchrome&id=rec_id&labno=1015
372,mrdata_json/podchrome/480.json,480,['Ready Cash'],-122.724166666667,48.5827777777778,"['minor podiform chromite', 'Minor Podiform']",https://mrdata.usgs.gov/to-json.php?db=podchrome&id=rec_id&labno=480
373,mrdata_json/podchrome/926.json,926,['Halibut Bay 51'],-154.593333333333,57.3683333333333,"['major podiform chromite', 'Major Podiform']",https://mrdata.usgs.gov/to-json.php?db=podchrome&id=rec_id&labno=926
374,mrdata_json/podchrome/813.json,813,['Gökyokus-Hazarluk-Kirmizitas'],40.3016666666667,39.9911111111111,"['major podiform chromite', 'Major Podiform']",https://mrdata.usgs.gov/to-json.php?db=podchrome&id=rec_id&labno=813
375,mrdata_json/podchrome/339.json,339,['Madeira Claim'],-123.028333333333,38.5863888888889,"['minor podiform chromite', 'Minor Podiform']",https://mrdata.usgs.gov/to-json.php?db=podchrome&id=rec_id&labno=339
376,mrdata_json/podchrome/727.json,727,['Tekneli Ocaklari'],35.1394444444444,37.52,"['banded podiform chromite', 'Banded Podiform']",https://mrdata.usgs.gov/to-json.php?db=podchrome&id=rec_id&labno=727
377,mrdata_json/podchrome/169.json,169,['Codd'],-121.078611111111,39.2375,"['minor podiform chromite', 'Minor Podiform']",https://mrdata.usgs.gov/to-json.php?db=podchrome&id=rec_id&labno=169
378,mrdata_json/podchrome/1065.json,1065,['Lagonoy'],123.499722222222,13.8227777777778,"['major podiform chromite', 'Major Podiform']",https://mrdata.usgs.gov/to-json.php?db=podchrome&id=rec_id&labno=1065
379,mrdata_json/podchrome/319.json,319,['Butler Claims'],-122.457222222222,38.7155555555555,"['minor podiform chromite', 'unknown']",https://mrdata.usgs.gov/to-json.php?db=podchrome&id=rec_id&labno=319
380,mrdata_json/podchrome/743.json,743,['Hamitler Çiftligi-Besparmak Dagi'],28.5338888888889,36.9255555555556,"['major podiform chromite', 'Major Podiform']",https://mrdata.usgs.gov/to-json.php?db=podchrome&id=rec_id&labno=743
381,mrdata_json/podchrome/554.json,554,['Bob and Junior NE Pit'],-76.2136111111111,20.9105555555556,"['major podiform chromite', 'Major Podiform']",https://mrdata.usgs.gov/to-json.php?db=podchrome&id=rec_id&labno=554
382,mrdata_json/podchrome/738.json,738,['Çatalsinir no. 2'],35.0172222222222,37.4611111111111,"['major podiform chromite', 'Major Podiform']",https://mrdata.usgs.gov/to-json.php?db=podchrome&id=rec_id&labno=738
383,mrdata_json/podchrome/51.json,51,['Long Ledge No. 3'],-119.29,36.8686111111111,"['minor podiform chromite', 'Minor Podiform']",https://mrdata.usgs.gov/to-json.php?db=podchrome&id=rec_id&labno=51
384,mrdata_json/podchrome/610.json,610,['Buck'],-77.8555555555556,21.4897222222222,"['major podiform chromite', 'Major Podiform']",https://mrdata.usgs.gov/to-json.php?db=podchrome&id=rec_id&labno=610
385,mrdata_json/podchrome/1059.json,1059,['Lupon'],126.076388888889,6.93472222222222,"['major podiform chromite', 'Major Podiform']",https://mrdata.usgs.gov/to-json.php?db=podchrome&id=rec_id&labno=1059
386,mrdata_json/podchrome/829.json,829,['Büyük Gürleyen'],,,"['major podiform chromite', 'Major Podiform']",https://mrdata.usgs.gov/to-json.php?db=podchrome&id=rec_id&labno=829
387,mrdata_json/podchrome/625.json,625,['Gagné'],-71.2677777777778,46.0,"['minor podiform chromite', 'Minor Podiform']",https://mrdata.usgs.gov/to-json.php?db=podchrome&id=rec_id&labno=625
388,mrdata_json/podchrome/49.json,49,['Long Ledge No. 1'],-119.295555555556,36.875,"['minor podiform chromite', 'Minor Podiform']",https://mrdata.usgs.gov/to-json.php?db=podchrome&id=rec_id&labno=49
389,mrdata_json/podchrome/948.json,948,['Karakaya'],,,"['major podiform chromite', 'Major Podiform']",https://mrdata.usgs.gov/to-json.php?db=podchrome&id=rec_id&labno=948
390,mrdata_json/podchrome/104.json,104,['Bonanza King'],-121.086944444444,38.7813888888889,"['minor podiform chromite', 'Banded Podiform']",https://mrdata.usgs.gov/to-json.php?db=podchrome&id=rec_id&labno=104
391,mrdata_json/podchrome/347.json,347,['Big Four'],-123.802777777778,42.2794444444445,"['minor podiform chromite', 'Minor Podiform']",https://mrdata.usgs.gov/to-json.php?db=podchrome&id=rec_id&labno=347
392,mrdata_json/podchrome/615.json,615,['Roma'],-77.8280555555556,21.46,"['major podiform chromite', 'Major Podiform']",https://mrdata.usgs.gov/to-json.php?db=podchrome&id=rec_id&labno=615
393,mrdata_json/podchrome/23.json,23,['Chrome Camp'],-121.398888888889,37.4216666666667,"['minor podiform chromite', 'Banded Podiform']",https://mrdata.usgs.gov/to-json.php?db=podchrome&id=rec_id&labno=23
394,mrdata_json/podchrome/819.json,819,['Sarikaya'],,,"['major podiform chromite', 'Major Podiform']",https://mrdata.usgs.gov/to-json.php?db=podchrome&id=rec_id&labno=819
395,mrdata_json/podchrome/652.json,652,['Sivritepe-Balatdanisment'],29.2016666666667,39.6302777777778,"['major podiform chromite', 'Major Podiform']",https://mrdata.usgs.gov/to-json.php?db=podchrome&id=rec_id&labno=652
396,mrdata_json/podchrome/644.json,644,['Karaçam'],29.3711111111111,39.7527777777778,"['banded podiform chromite', 'Banded Podiform']",https://mrdata.usgs.gov/to-json.php?db=podchrome&id=rec_id&labno=644
397,mrdata_json/podchrome/1051.json,1051,['Superior'],124.491111111111,8.46805555555556,"['major podiform chromite', 'Major Podiform']",https://mrdata.usgs.gov/to-json.php?db=podchrome&id=rec_id&labno=1051
398,mrdata_json/podchrome/469.json,469,['Mount Hawkins'],-120.9875,47.4427777777778,"['minor podiform chromite', 'Minor Podiform']",https://mrdata.usgs.gov/to-json.php?db=podchrome&id=rec_id&labno=469
399,mrdata_json/podchrome/401.json,401,['Little Siberia'],-123.848055555556,42.2763888888889,"['minor podiform chromite', 'Minor Podiform']",https://mrdata.usgs.gov/to-json.php?db=podchrome&id=rec_id&labno=401
400,mrdata_json/podchrome/865.json,865,['Erkenis'],,,"['major podiform chromite', 'Major Podiform']",https://mrdata.usgs.gov/to-json.php?db=podchrome&id=rec_id&labno=865
401,mrdata_json/podchrome/820.json,820,['Danacik'],,,"['major podiform chromite', 'Major Podiform']",https://mrdata.usgs.gov/to-json.php?db=podchrome&id=rec_id&labno=820
402,mrdata_json/podchrome/672.json,672,['Karakeban-Hinora'],38.2838888888889,39.4752777777778,"['major podiform chromite', 'Major Podiform']",https://mrdata.usgs.gov/to-json.php?db=podchrome&id=rec_id&labno=672
403,mrdata_json/podchrome/1024.json,1024,['Acoje J4-86'],120.061388888889,15.7016666666667,"['major podiform chromite', 'Major Podiform']",https://mrdata.usgs.gov/to-json.php?db=podchrome&id=rec_id&labno=1024
404,mrdata_json/podchrome/293.json,293,['Mill Gulch Area'],-122.653888888889,40.0258333333333,"['banded podiform chromite', 'Banded Podiform']",https://mrdata.usgs.gov/to-json.php?db=podchrome&id=rec_id&labno=293
405,mrdata_json/podchrome/782.json,782,['Karapinar Ocak'],,,"['major podiform chromite', 'Major Podiform']",https://mrdata.usgs.gov/to-json.php?db=podchrome&id=rec_id&labno=782
406,mrdata_json/podchrome/178.json,178,['Half Chrome'],-121.104166666667,39.0911111111111,"['minor podiform chromite', 'Minor Podiform']",https://mrdata.usgs.gov/to-json.php?db=podchrome&id=rec_id&labno=178
407,mrdata_json/podchrome/978.json,978,['Marius'],166.277777777778,-21.8683333333333,"['major podiform chromite', 'Major Podiform']",https://mrdata.usgs.gov/to-json.php?db=podchrome&id=rec_id&labno=978
408,mrdata_json/podchrome/393.json,393,['Red Mountain'],-122.8375,42.0625,"['minor podiform chromite', 'unknown']",https://mrdata.usgs.gov/to-json.php?db=podchrome&id=rec_id&labno=393
409,mrdata_json/podchrome/500.json,500,['Reed-Bélanger'],-71.3444444444445,46.0105555555556,"['banded podiform chromite', 'Banded Podiform']",https://mrdata.usgs.gov/to-json.php?db=podchrome&id=rec_id&labno=500
410,mrdata_json/podchrome/483.json,483,['Line Pit'],-76.1702777777778,39.7211111111111,"['minor podiform chromite', 'Banded Podiform']",https://mrdata.usgs.gov/to-json.php?db=podchrome&id=rec_id&labno=483
411,mrdata_json/podchrome/1063.json,1063,['Cam-Meta'],123.508888888889,13.8613888888889,"['major podiform chromite', 'Major Podiform']",https://mrdata.usgs.gov/to-json.php?db=podchrome&id=rec_id&labno=1063
412,mrdata_json/podchrome/1053.json,1053,['Misamis'],124.490833333333,8.465,"['major podiform chromite', 'Major Podiform']",https://mrdata.usgs.gov/to-json.php?db=podchrome&id=rec_id&labno=1053
413,mrdata_json/podchrome/764.json,764,['Dereköy'],36.0633333333333,36.4375,"['major podiform chromite', 'Major Podiform']",https://mrdata.usgs.gov/to-json.php?db=podchrome&id=rec_id&labno=764
414,mrdata_json/podchrome/741.json,741,['Deveci-Adaköy'],28.3708333333333,36.8969444444444,"['major podiform chromite', 'Major Podiform']",https://mrdata.usgs.gov/to-json.php?db=podchrome&id=rec_id&labno=741
415,mrdata_json/podchrome/751.json,751,['Bülüçlü'],28.7658333333333,36.8505555555556,"['major podiform chromite', 'Major Podiform']",https://mrdata.usgs.gov/to-json.php?db=podchrome&id=rec_id&labno=751
416,mrdata_json/podchrome/423.json,423,['Big Bear'],-123.61,42.4025,"['minor podiform chromite', 'Minor Podiform']",https://mrdata.usgs.gov/to-json.php?db=podchrome&id=rec_id&labno=423
417,mrdata_json/podchrome/263.json,263,['Pigeon Roost Spring'],-123.951666666667,41.6741666666667,"['minor podiform chromite', 'Minor Podiform']",https://mrdata.usgs.gov/to-json.php?db=podchrome&id=rec_id&labno=263
418,mrdata_json/podchrome/804.json,804,['Çatak-Kocaalan'],,,"['major podiform chromite', 'Major Podiform']",https://mrdata.usgs.gov/to-json.php?db=podchrome&id=rec_id&labno=804
419,mrdata_json/podchrome/299.json,299,['Munko Claims'],-122.515833333333,41.1591666666667,"['minor podiform chromite', 'Minor Podiform']",https://mrdata.usgs.gov/to-json.php?db=podchrome&id=rec_id&labno=299
420,mrdata_json/podchrome/316.json,316,['Hooligan'],-122.594722222222,39.7569444444444,"['minor podiform chromite', 'unknown']",https://mrdata.usgs.gov/to-json.php?db=podchrome&id=rec_id&labno=316
421,mrdata_json/podchrome/70.json,70,['Fields and Stoker'],-120.816666666667,38.2686111111111,"['minor podiform chromite', 'Minor Podiform']",https://mrdata.usgs.gov/to-json.php?db=podchrome&id=rec_id&labno=70
422,mrdata_json/podchrome/440.json,440,['Lucky Strike'],-123.680277777778,42.1738888888889,"['banded podiform chromite', 'Banded Podiform']",https://mrdata.usgs.gov/to-json.php?db=podchrome&id=rec_id&labno=440
423,mrdata_json/podchrome/718.json,718,['Pürenli Ocak'],35.0616666666667,37.5405555555556,"['major podiform chromite', 'Major Podiform']",https://mrdata.usgs.gov/to-json.php?db=podchrome&id=rec_id&labno=718
424,mrdata_json/podchrome/761.json,761,['Siraç'],34.32,36.7830555555556,"['major podiform chromite', 'Major Podiform']",https://mrdata.usgs.gov/to-json.php?db=podchrome&id=rec_id&labno=761
425,mrdata_json/podchrome/230.json,230,['Copper Creek'],-124.034722222222,41.9225,"['minor podiform chromite', 'Minor Podiform']",https://mrdata.usgs.gov/to-json.php?db=podchrome&id=rec_id&labno=230
426,mrdata_json/podchrome/982.json,982,['Fantoche'],164.189722222222,-20.4188888888889,"['major podiform chromite', 'Major Podiform']",https://mrdata.usgs.gov/to-json.php?db=podchrome&id=rec_id&labno=982
427,mrdata_json/podchrome/725.json,725,['Kuyu Ocak'],35.1325,37.4863888888889,"['major podiform chromite', 'Major Podiform']",https://mrdata.usgs.gov/to-json.php?db=podchrome&id=rec_id&labno=725
428,mrdata_json/podchrome/1075.json,1075,['Palauig Mother Lode'],120.068611111111,15.4266666666667,"['major podiform chromite', 'Major Podiform']",https://mrdata.usgs.gov/to-json.php?db=podchrome&id=rec_id&labno=1075
429,mrdata_json/podchrome/340.json,340,['Rough Crossing SE'],-123.072777777778,38.6052777777778,"['minor podiform chromite', 'Minor Podiform']",https://mrdata.usgs.gov/to-json.php?db=podchrome&id=rec_id&labno=340
430,mrdata_json/podchrome/432.json,432,['Silver Tip'],-123.363611111111,42.2380555555556,"['minor podiform chromite', 'Minor Podiform']",https://mrdata.usgs.gov/to-json.php?db=podchrome&id=rec_id&labno=432
431,mrdata_json/podchrome/164.json,164,['Merrifield Property'],-121.053888888889,39.2580555555556,"['minor podiform chromite', 'Minor Podiform']",https://mrdata.usgs.gov/to-json.php?db=podchrome&id=rec_id&labno=164
432,mrdata_json/podchrome/1016.json,1016,['Masinloc (787)'],120.084166666667,15.5572222222222,"['major podiform chromite', 'Major Podiform']",https://mrdata.usgs.gov/to-json.php?db=podchrome&id=rec_id&labno=1016
433,mrdata_json/podchrome/213.json,213,['Suzy Bell'],-121.195555555556,39.5352777777778,"['minor podiform chromite', 'Minor Podiform']",https://mrdata.usgs.gov/to-json.php?db=podchrome&id=rec_id&labno=213
434,mrdata_json/podchrome/585.json,585,['Casi Reina'],-77.6694444444445,21.4288888888889,"['major podiform chromite', 'Major Podiform']",https://mrdata.usgs.gov/to-json.php?db=podchrome&id=rec_id&labno=585
435,mrdata_json/podchrome/52.json,52,['Houghton Property'],-119.3975,36.8605555555556,"['minor podiform chromite', 'Minor Podiform']",https://mrdata.usgs.gov/to-json.php?db=podchrome&id=rec_id&labno=52
436,mrdata_json/podchrome/800.json,800,['Mirandag'],29.0722222222222,39.7158333333333,"['major podiform chromite', 'Major Podiform']",https://mrdata.usgs.gov/to-json.php?db=podchrome&id=rec_id&labno=800
437,mrdata_json/podchrome/991.json,991,['Acoje H5-86'],120.058611111111,15.7025,"['major podiform chromite', 'Major Podiform']",https://mrdata.usgs.gov/to-json.php?db=podchrome&id=rec_id&labno=991
438,mrdata_json/podchrome/490.json,490,['Reed'],-76.4561111111111,39.6122222222222,"['minor podiform chromite', 'Banded Podiform']",https://mrdata.usgs.gov/to-json.php?db=podchrome&id=rec_id&labno=490
439,mrdata_json/podchrome/710.json,710,['Niyazlar Büyük Ocak'],29.7294444444444,37.4538888888889,"['banded podiform chromite', 'Banded Podiform']",https://mrdata.usgs.gov/to-json.php?db=podchrome&id=rec_id&labno=710
440,mrdata_json/podchrome/273.json,273,['Snowy Ridge'],-122.896111111111,42.0027777777778,"['minor podiform chromite', 'unknown']",https://mrdata.usgs.gov/to-json.php?db=podchrome&id=rec_id&labno=273
441,mrdata_json/podchrome/650.json,650,['Ali Riza Orebodies 2 and 3'],29.2322222222222,39.5275,"['major podiform chromite', 'Major Podiform']",https://mrdata.usgs.gov/to-json.php?db=podchrome&id=rec_id&labno=650
442,mrdata_json/podchrome/197.json,197,['Simmons'],-121.496666666667,39.8144444444444,"['minor podiform chromite', 'Minor Podiform']",https://mrdata.usgs.gov/to-json.php?db=podchrome&id=rec_id&labno=197
443,mrdata_json/podchrome/603.json,603,['Las Niñas'],-77.8461111111111,21.5227777777778,"['major podiform chromite', 'Major Podiform']",https://mrdata.usgs.gov/to-json.php?db=podchrome&id=rec_id&labno=603
444,mrdata_json/podchrome/910.json,910,['Edith No. 11'],-151.476111111111,59.3591666666667,"['major podiform chromite', 'Major Podiform']",https://mrdata.usgs.gov/to-json.php?db=podchrome&id=rec_id&labno=910
445,mrdata_json/podchrome/53.json,53,['Gill'],-119.0325,36.2594444444444,"['minor podiform chromite', 'Minor Podiform']",https://mrdata.usgs.gov/to-json.php?db=podchrome&id=rec_id&labno=53
446,mrdata_json/podchrome/1109.json,1109,['Plyler'],-80.8097222222222,35.8836111111111,"['minor podiform chromite', 'Minor Podiform']",https://mrdata.usgs.gov/to-json.php?db=podchrome&id=rec_id&labno=1109
447,mrdata_json/podchrome/668.json,668,['Sazak-Karagaç'],31.585,39.8122222222222,"['major podiform chromite', 'Major Podiform']",https://mrdata.usgs.gov/to-json.php?db=podchrome&id=rec_id&labno=668
448,mrdata_json/podchrome/85.json,85,['Don Pedro'],-120.419722222222,37.7805555555556,"['minor podiform chromite', 'Banded Podiform']",https://mrdata.usgs.gov/to-json.php?db=podchrome&id=rec_id&labno=85
449,mrdata_json/podchrome/73.json,73,['Coffer'],-120.793888888889,38.2408333333333,"['minor podiform chromite', 'Minor Podiform']",https://mrdata.usgs.gov/to-json.php?db=podchrome&id=rec_id&labno=73
450,mrdata_json/podchrome/575.json,575,['Mercedita 6'],-74.8658333333333,20.5494444444444,"['major podiform chromite', 'Major Podiform']",https://mrdata.usgs.gov/to-json.php?db=podchrome&id=rec_id&labno=575
451,mrdata_json/podchrome/954.json,954,['Kelüsktepe'],39.8308333333333,38.4877777777778,"['major podiform chromite', 'Major Podiform']",https://mrdata.usgs.gov/to-json.php?db=podchrome&id=rec_id&labno=954
452,mrdata_json/podchrome/661.json,661,['Basören'],30.9641666666667,39.9505555555555,"['major podiform chromite', 'Major Podiform']",https://mrdata.usgs.gov/to-json.php?db=podchrome&id=rec_id&labno=661
453,mrdata_json/podchrome/709.json,709,['Niyazlar Küçük Ocak'],29.7269444444444,37.4622222222222,"['banded podiform chromite', 'Banded Podiform']",https://mrdata.usgs.gov/to-json.php?db=podchrome&id=rec_id&labno=709
454,mrdata_json/podchrome/869.json,869,['Ömeralti-Kinalibatak'],28.7625,39.9630555555556,"['major podiform chromite', 'Major Podiform']",https://mrdata.usgs.gov/to-json.php?db=podchrome&id=rec_id&labno=869
455,mrdata_json/podchrome/257.json,257,['Section Sixteen Claim'],-123.962777777778,41.6897222222222,"['minor podiform chromite', 'Minor Podiform']",https://mrdata.usgs.gov/to-json.php?db=podchrome&id=rec_id&labno=257
456,mrdata_json/podchrome/536.json,536,['Bluff Head'],-58.5988888888889,48.7794444444444,"['minor podiform chromite', 'Minor Podiform']",https://mrdata.usgs.gov/to-json.php?db=podchrome&id=rec_id&labno=536
457,mrdata_json/podchrome/306.json,306,['Rivers Group'],-123.688611111111,41.3752777777778,"['minor podiform chromite', 'unknown']",https://mrdata.usgs.gov/to-json.php?db=podchrome&id=rec_id&labno=306
458,mrdata_json/podchrome/959.json,959,['Bien-Sur'],166.7225,-22.2519444444444,"['major podiform chromite', 'Major Podiform']",https://mrdata.usgs.gov/to-json.php?db=podchrome&id=rec_id&labno=959
459,mrdata_json/podchrome/91.json,91,['Ziehlke Spotted Fawn'],-120.503333333333,37.9047222222222,"['minor podiform chromite', 'Minor Podiform']",https://mrdata.usgs.gov/to-json.php?db=podchrome&id=rec_id&labno=91
460,mrdata_json/podchrome/9.json,9,['Pick and Shovel'],-120.670555555556,35.3597222222222,"['minor podiform chromite', 'Banded Podiform']",https://mrdata.usgs.gov/to-json.php?db=podchrome&id=rec_id&labno=9
461,mrdata_json/podchrome/71.json,71,['Ward and Lyons'],-120.823333333333,38.2722222222222,"['minor podiform chromite', 'Minor Podiform']",https://mrdata.usgs.gov/to-json.php?db=podchrome&id=rec_id&labno=71
462,mrdata_json/podchrome/1096.json,1096,['Aga Kouri'],21.6683333333333,40.1441666666667,"['major podiform chromite', 'Major Podiform']",https://mrdata.usgs.gov/to-json.php?db=podchrome&id=rec_id&labno=1096
463,mrdata_json/podchrome/641.json,641,['Akçaalanisagir-Kuzköy'],28.7619444444444,39.5622222222222,"['major podiform chromite', 'Major Podiform']",https://mrdata.usgs.gov/to-json.php?db=podchrome&id=rec_id&labno=641
464,mrdata_json/podchrome/622.json,622,['Virtudes'],-77.6672222222222,21.4277777777778,"['major podiform chromite', 'Major Podiform']",https://mrdata.usgs.gov/to-json.php?db=podchrome&id=rec_id&labno=622
465,mrdata_json/podchrome/26.json,26,['Alice'],-119.420555555556,36.9680555555556,"['minor podiform chromite', 'Minor Podiform']",https://mrdata.usgs.gov/to-json.php?db=podchrome&id=rec_id&labno=26
466,mrdata_json/podchrome/845.json,845,['Üzümlü-Çürük'],29.2375,36.7283333333333,"['major podiform chromite', 'Major Podiform']",https://mrdata.usgs.gov/to-json.php?db=podchrome&id=rec_id&labno=845
467,mrdata_json/podchrome/581.json,581,['La Juanita'],-77.6405555555556,21.4802777777778,"['major podiform chromite', 'Major Podiform']",https://mrdata.usgs.gov/to-json.php?db=podchrome&id=rec_id&labno=581
468,mrdata_json/podchrome/154.json,154,"[""Fiddler's Green""]",-120.921111111111,38.9666666666667,"['minor podiform chromite', 'Minor Podiform']",https://mrdata.usgs.gov/to-json.php?db=podchrome&id=rec_id&labno=154
469,mrdata_json/podchrome/100.json,100,['Smith'],-120.984722222222,38.5688888888889,"['minor podiform chromite', 'Minor Podiform']",https://mrdata.usgs.gov/to-json.php?db=podchrome&id=rec_id&labno=100
470,mrdata_json/podchrome/862.json,862,['Cezni'],,,"['major podiform chromite', 'Major Podiform']",https://mrdata.usgs.gov/to-json.php?db=podchrome&id=rec_id&labno=862
471,mrdata_json/podchrome/677.json,677,['Selâmsiz Çifligi'],30.0425,39.3447222222222,"['major podiform chromite', 'Major Podiform']",https://mrdata.usgs.gov/to-json.php?db=podchrome&id=rec_id&labno=677
472,mrdata_json/podchrome/864.json,864,['Karageban'],,,"['major podiform chromite', 'Major Podiform']",https://mrdata.usgs.gov/to-json.php?db=podchrome&id=rec_id&labno=864
473,mrdata_json/podchrome/754.json,754,['Zeytincik'],29.1661111111111,36.74,"['major podiform chromite', 'Major Podiform']",https://mrdata.usgs.gov/to-json.php?db=podchrome&id=rec_id&labno=754
474,mrdata_json/podchrome/840.json,840,['Kargi-Susambeli-Senekli'],29.1622222222222,36.7416666666667,"['major podiform chromite', 'Major Podiform']",https://mrdata.usgs.gov/to-json.php?db=podchrome&id=rec_id&labno=840
475,mrdata_json/podchrome/558.json,558,['Loma Alta'],-75.8033333333333,20.4536111111111,"['major podiform chromite', 'Major Podiform']",https://mrdata.usgs.gov/to-json.php?db=podchrome&id=rec_id&labno=558
476,mrdata_json/podchrome/310.json,310,['Grey Eagle'],-122.593333333333,39.7366666666667,"['minor podiform chromite', 'Banded Podiform']",https://mrdata.usgs.gov/to-json.php?db=podchrome&id=rec_id&labno=310
477,mrdata_json/podchrome/894.json,894,['Edith 1-3'],-151.481944444444,59.3727777777778,"['banded podiform chromite', 'Banded Podiform']",https://mrdata.usgs.gov/to-json.php?db=podchrome&id=rec_id&labno=894
478,mrdata_json/podchrome/689.json,689,['Mahman'],39.9283333333333,38.5997222222222,"['major podiform chromite', 'Major Podiform']",https://mrdata.usgs.gov/to-json.php?db=podchrome&id=rec_id&labno=689
479,mrdata_json/podchrome/909.json,909,['Merle 28'],-151.486666666667,59.35,"['major podiform chromite', 'Major Podiform']",https://mrdata.usgs.gov/to-json.php?db=podchrome&id=rec_id&labno=909
480,mrdata_json/podchrome/137.json,137,['Esther and Phyllis'],-120.779166666667,39.1280555555556,"['minor podiform chromite', 'Minor Podiform']",https://mrdata.usgs.gov/to-json.php?db=podchrome&id=rec_id&labno=137
481,mrdata_json/podchrome/235.json,235,['Judy'],-123.98,41.9275,"['minor podiform chromite', 'Minor Podiform']",https://mrdata.usgs.gov/to-json.php?db=podchrome&id=rec_id&labno=235
482,mrdata_json/podchrome/457.json,457,['Silver Lease'],-119.021388888889,44.4391666666667,"['minor podiform chromite', 'unknown']",https://mrdata.usgs.gov/to-json.php?db=podchrome&id=rec_id&labno=457
483,mrdata_json/podchrome/66.json,66,['Maxwell'],-120.736388888889,38.1413888888889,"['minor podiform chromite', 'Minor Podiform']",https://mrdata.usgs.gov/to-json.php?db=podchrome&id=rec_id&labno=66
484,mrdata_json/podchrome/756.json,756,['Karanlik Dere Ocak'],29.6247222222222,37.1263888888889,"['major podiform chromite', 'Major Podiform']",https://mrdata.usgs.gov/to-json.php?db=podchrome&id=rec_id&labno=756
485,mrdata_json/podchrome/535.json,535,['Chrome Point'],-58.4366666666667,48.775,"['minor podiform chromite', 'Minor Podiform']",https://mrdata.usgs.gov/to-json.php?db=podchrome&id=rec_id&labno=535
486,mrdata_json/podchrome/1112.json,1112,['Cove Creek'],-81.7169444444444,36.3305555555556,"['minor podiform chromite', 'Minor Podiform']",https://mrdata.usgs.gov/to-json.php?db=podchrome&id=rec_id&labno=1112
487,mrdata_json/podchrome/93.json,93,['Richards'],-120.484444444444,37.9097222222222,"['minor podiform chromite', 'Minor Podiform']",https://mrdata.usgs.gov/to-json.php?db=podchrome&id=rec_id&labno=93
488,mrdata_json/podchrome/422.json,422,['Salt Rock'],-123.564722222222,42.4705555555556,"['minor podiform chromite', 'Minor Podiform']",https://mrdata.usgs.gov/to-json.php?db=podchrome&id=rec_id&labno=422
489,mrdata_json/podchrome/757.json,757,['Akkaya Mevkii-Osmankalfalar'],29.9794444444444,37.0197222222222,"['major podiform chromite', 'Major Podiform']",https://mrdata.usgs.gov/to-json.php?db=podchrome&id=rec_id&labno=757
490,mrdata_json/podchrome/770.json,770,['Küreci-Aktepe'],,,"['major podiform chromite', 'Major Podiform']",https://mrdata.usgs.gov/to-json.php?db=podchrome&id=rec_id&labno=770
