,path,deposit_id,name,longitude,latitude,deposit_type,url
0,mrdata_json/sedznpb/223.json,223,Kankariya,74.686388888889,26.527222222222,MLig,https://mrdata.usgs.gov/to-json.php?db=sedznpb&id=rec_id&labno=223
1,mrdata_json/sedznpb/405.json,405,Imok,128.66861111111,37.168888888889,CAig,https://mrdata.usgs.gov/to-json.php?db=sedznpb&id=rec_id&labno=405
2,mrdata_json/sedznpb/232.json,232,Saladipura,75.524722222222,27.615833333333,MLig,https://mrdata.usgs.gov/to-json.php?db=sedznpb&id=rec_id&labno=232
3,mrdata_json/sedznpb/7.json,7,Gualilan,-68.957777777778,-30.736111111111,CAig,https://mrdata.usgs.gov/to-json.php?db=sedznpb&id=rec_id&labno=7
4,mrdata_json/sedznpb/183.json,183,Tianbaoshan,102.16083333333,26.9625,CAig,https://mrdata.usgs.gov/to-json.php?db=sedznpb&id=rec_id&labno=183
5,mrdata_json/sedznpb/225.json,225,Kolari,79.511944444444,20.788611111111,MLig,https://mrdata.usgs.gov/to-json.php?db=sedznpb&id=rec_id&labno=225
6,mrdata_json/sedznpb/95.json,95,H.B.,-117.19861111111,49.152222222222,CAig,https://mrdata.usgs.gov/to-json.php?db=sedznpb&id=rec_id&labno=95
7,mrdata_json/sedznpb/176.json,176,Qilinchang,103.72333333333,26.643055555556,CAig,https://mrdata.usgs.gov/to-json.php?db=sedznpb&id=rec_id&labno=176
8,mrdata_json/sedznpb/199.json,199,Arrens,0.21416666666667,42.956111111111,SHig,https://mrdata.usgs.gov/to-json.php?db=sedznpb&id=rec_id&labno=199
9,mrdata_json/sedznpb/323.json,323,Velardeña,-103.71527777778,25.034166666667,CAig,https://mrdata.usgs.gov/to-json.php?db=sedznpb&id=rec_id&labno=323
10,mrdata_json/sedznpb/402.json,402,Gamsberg,18.981111111111,-29.251944444444,MLme,https://mrdata.usgs.gov/to-json.php?db=sedznpb&id=rec_id&labno=402
11,mrdata_json/sedznpb/253.json,253,Courtbrown,-8.9805555555556,52.64,CAam,https://mrdata.usgs.gov/to-json.php?db=sedznpb&id=rec_id&labno=253
12,mrdata_json/sedznpb/503.json,503,Washington Camp,-110.6925,31.382777777778,CAig,https://mrdata.usgs.gov/to-json.php?db=sedznpb&id=rec_id&labno=503
13,mrdata_json/sedznpb/472.json,472,Leadville,-106.22666666667,39.226666666667,CAig,https://mrdata.usgs.gov/to-json.php?db=sedznpb&id=rec_id&labno=472
14,mrdata_json/sedznpb/249.json,249,Abbeytown,-8.5266666666667,54.214444444445,CAam,https://mrdata.usgs.gov/to-json.php?db=sedznpb&id=rec_id&labno=249
15,mrdata_json/sedznpb/205.json,205,Kroussou,10.240277777778,-1.4791666666667,SS,https://mrdata.usgs.gov/to-json.php?db=sedznpb&id=rec_id&labno=205
16,mrdata_json/sedznpb/98.json,98,Jersey,-117.23194444444,49.103055555556,CAig,https://mrdata.usgs.gov/to-json.php?db=sedznpb&id=rec_id&labno=98
17,mrdata_json/sedznpb/97.json,97,Jason,-130.26472222222,63.148611111111,SHig,https://mrdata.usgs.gov/to-json.php?db=sedznpb&id=rec_id&labno=97
18,mrdata_json/sedznpb/277.json,277,Hoei,131.50222222222,32.8775,CAig,https://mrdata.usgs.gov/to-json.php?db=sedznpb&id=rec_id&labno=277
19,mrdata_json/sedznpb/366.json,366,Hualgayoc,-78.585833333333,-6.7533333333333,CAig,https://mrdata.usgs.gov/to-json.php?db=sedznpb&id=rec_id&labno=366
20,mrdata_json/sedznpb/18.json,18,Chillagoe,144.53833333333,-17.165833333333,CAig,https://mrdata.usgs.gov/to-json.php?db=sedznpb&id=rec_id&labno=18
21,mrdata_json/sedznpb/444.json,444,Aspen,-106.82416666667,39.178333333333,CAig,https://mrdata.usgs.gov/to-json.php?db=sedznpb&id=rec_id&labno=444
22,mrdata_json/sedznpb/448.json,448,Black Hawk,-108.09833333333,32.803055555556,CAig,https://mrdata.usgs.gov/to-json.php?db=sedznpb&id=rec_id&labno=448
23,mrdata_json/sedznpb/79.json,79,Cirque,-125.16,57.509722222222,SHam,https://mrdata.usgs.gov/to-json.php?db=sedznpb&id=rec_id&labno=79
24,mrdata_json/sedznpb/300.json,300,Sumsar,71.33,41.2925,CAig,https://mrdata.usgs.gov/to-json.php?db=sedznpb&id=rec_id&labno=300
25,mrdata_json/sedznpb/351.json,351,Mofjellet,14.201111111111,66.283611111111,MLme,https://mrdata.usgs.gov/to-json.php?db=sedznpb&id=rec_id&labno=351
26,mrdata_json/sedznpb/46.json,46,Woodcutters,131.11111111111,-12.979444444444,SHig,https://mrdata.usgs.gov/to-json.php?db=sedznpb&id=rec_id&labno=46
27,mrdata_json/sedznpb/474.json,474,Magdalena,-107.22944444444,34.092222222222,CAig,https://mrdata.usgs.gov/to-json.php?db=sedznpb&id=rec_id&labno=474
28,mrdata_json/sedznpb/332.json,332,Zeïda,-1.7277777777778,34.472777777778,SS,https://mrdata.usgs.gov/to-json.php?db=sedznpb&id=rec_id&labno=332
29,mrdata_json/sedznpb/96.json,96,Howards Pass,-129.52722222222,62.564444444444,SHam,https://mrdata.usgs.gov/to-json.php?db=sedznpb&id=rec_id&labno=96
30,mrdata_json/sedznpb/190.json,190,M’Passa,14.156944444444,-4.3752777777778,Kipushi,https://mrdata.usgs.gov/to-json.php?db=sedznpb&id=rec_id&labno=190
31,mrdata_json/sedznpb/358.json,358,Lahore,72.913055555556,34.913333333333,MLig,https://mrdata.usgs.gov/to-json.php?db=sedznpb&id=rec_id&labno=358
32,mrdata_json/sedznpb/368.json,368,Iscaycruz,-76.73,-10.793611111111,CAig,https://mrdata.usgs.gov/to-json.php?db=sedznpb&id=rec_id&labno=368
33,mrdata_json/sedznpb/471.json,471,Lark,-112.14,40.54,CAig,https://mrdata.usgs.gov/to-json.php?db=sedznpb&id=rec_id&labno=471
34,mrdata_json/sedznpb/132.json,132,Sullivan,-116.00555555556,49.708333333333,SHig,https://mrdata.usgs.gov/to-json.php?db=sedznpb&id=rec_id&labno=132
35,mrdata_json/sedznpb/248.json,248,Ozbak-Kuh,57.133333333333,34.65,CAam,https://mrdata.usgs.gov/to-json.php?db=sedznpb&id=rec_id&labno=248
36,mrdata_json/sedznpb/354.json,354,Skårnesdalen,16.705555555556,68.365833333333,MLme,https://mrdata.usgs.gov/to-json.php?db=sedznpb&id=rec_id&labno=354
37,mrdata_json/sedznpb/243.json,243,Irankuh,51.563333333333,32.455555555556,CAam,https://mrdata.usgs.gov/to-json.php?db=sedznpb&id=rec_id&labno=243
38,mrdata_json/sedznpb/210.json,210,Rammelsberg,10.419444444444,51.890555555556,SHig,https://mrdata.usgs.gov/to-json.php?db=sedznpb&id=rec_id&labno=210
39,mrdata_json/sedznpb/68.json,68,Akie,-124.84138888889,57.376944444444,SHam,https://mrdata.usgs.gov/to-json.php?db=sedznpb&id=rec_id&labno=68
40,mrdata_json/sedznpb/348.json,348,Galåa,11.369444444444,61.128333333333,SS,https://mrdata.usgs.gov/to-json.php?db=sedznpb&id=rec_id&labno=348
41,mrdata_json/sedznpb/38.json,38,Mungana,144.38166666667,-17.103333333333,CAig,https://mrdata.usgs.gov/to-json.php?db=sedznpb&id=rec_id&labno=38
42,mrdata_json/sedznpb/75.json,75,Blue Bell,-116.86083333333,49.7625,CAig,https://mrdata.usgs.gov/to-json.php?db=sedznpb&id=rec_id&labno=75
43,mrdata_json/sedznpb/198.json,198,Rauhala,24.790833333333,64.058888888889,SHig,https://mrdata.usgs.gov/to-json.php?db=sedznpb&id=rec_id&labno=198
44,mrdata_json/sedznpb/362.json,362,Cercapuquio,-75.316111111111,-12.3825,CAig,https://mrdata.usgs.gov/to-json.php?db=sedznpb&id=rec_id&labno=362
45,mrdata_json/sedznpb/341.json,341,Skorpion,16.608888888889,-27.820277777778,MLme,https://mrdata.usgs.gov/to-json.php?db=sedznpb&id=rec_id&labno=341
46,mrdata_json/sedznpb/446.json,446,Balmat,-75.399722222222,44.251944444444,CAig,https://mrdata.usgs.gov/to-json.php?db=sedznpb&id=rec_id&labno=446
47,mrdata_json/sedznpb/59.json,59,Januária,-44.388611111111,-15.488888888889,CAam,https://mrdata.usgs.gov/to-json.php?db=sedznpb&id=rec_id&labno=59
48,mrdata_json/sedznpb/99.json,99,Jubilee,-60.963055555556,45.981944444444,CAam,https://mrdata.usgs.gov/to-json.php?db=sedznpb&id=rec_id&labno=99
49,mrdata_json/sedznpb/159.json,159,Gaobanhe,118.23222222222,40.780833333333,CAam,https://mrdata.usgs.gov/to-json.php?db=sedznpb&id=rec_id&labno=159
50,mrdata_json/sedznpb/250.json,250,Ballinalack,-7.4694444444444,53.617777777778,CAam,https://mrdata.usgs.gov/to-json.php?db=sedznpb&id=rec_id&labno=250
51,mrdata_json/sedznpb/108.json,108,Meat Cove,-60.588055555556,47.011111111111,CAig,https://mrdata.usgs.gov/to-json.php?db=sedznpb&id=rec_id&labno=108
52,mrdata_json/sedznpb/116.json,116,Nanisivik,-84.508333333333,73.061666666667,CAig,https://mrdata.usgs.gov/to-json.php?db=sedznpb&id=rec_id&labno=116
53,mrdata_json/sedznpb/325.json,325,Khartolgoi,104.91666666667,42.133333333333,CAig,https://mrdata.usgs.gov/to-json.php?db=sedznpb&id=rec_id&labno=325
54,mrdata_json/sedznpb/424.json,424,Zinkgruvan,15.109722222222,58.812777777778,MLig,https://mrdata.usgs.gov/to-json.php?db=sedznpb&id=rec_id&labno=424
55,mrdata_json/sedznpb/264.json,264,Tatestown,-6.7369444444444,53.684444444444,CAam,https://mrdata.usgs.gov/to-json.php?db=sedznpb&id=rec_id&labno=264
56,mrdata_json/sedznpb/308.json,308,Charcas,-101.15027777778,23.140555555556,CAig,https://mrdata.usgs.gov/to-json.php?db=sedznpb&id=rec_id&labno=308
57,mrdata_json/sedznpb/115.json,115,Mt. Hundere,-128.8775,60.517777777778,CAig,https://mrdata.usgs.gov/to-json.php?db=sedznpb&id=rec_id&labno=115
58,mrdata_json/sedznpb/180.json,180,Siding,109.50055555556,24.878333333333,CAam,https://mrdata.usgs.gov/to-json.php?db=sedznpb&id=rec_id&labno=180
59,mrdata_json/sedznpb/442.json,442,Apex,-113.80388888889,37.069722222222,Kipushi,https://mrdata.usgs.gov/to-json.php?db=sedznpb&id=rec_id&labno=442
60,mrdata_json/sedznpb/441.json,441,Anarraaq,-162.92333333333,68.163888888889,SHam,https://mrdata.usgs.gov/to-json.php?db=sedznpb&id=rec_id&labno=441
61,mrdata_json/sedznpb/312.json,312,Mapimi,-103.79111111111,25.793055555556,CAig,https://mrdata.usgs.gov/to-json.php?db=sedznpb&id=rec_id&labno=312
62,mrdata_json/sedznpb/289.json,289,Burabai/Zhalgyzagash,67.493888888889,43.8225,CAam,https://mrdata.usgs.gov/to-json.php?db=sedznpb&id=rec_id&labno=289
63,mrdata_json/sedznpb/121.json,121,Pine Point,-114.44888888889,60.832222222222,CAam,https://mrdata.usgs.gov/to-json.php?db=sedznpb&id=rec_id&labno=121
64,mrdata_json/sedznpb/378.json,378,Akatuevskoe,117.77388888889,51.065,CAig,https://mrdata.usgs.gov/to-json.php?db=sedznpb&id=rec_id&labno=378
65,mrdata_json/sedznpb/19.json,19,Comstock,145.285,-41.893333333333,CAig,https://mrdata.usgs.gov/to-json.php?db=sedznpb&id=rec_id&labno=19
66,mrdata_json/sedznpb/228.json,228,Rajpura-Dariba,74.133888888889,24.950277777778,MLig,https://mrdata.usgs.gov/to-json.php?db=sedznpb&id=rec_id&labno=228
67,mrdata_json/sedznpb/261.json,261,Oldcastle,-7.0977777777778,53.756388888889,CAam,https://mrdata.usgs.gov/to-json.php?db=sedznpb&id=rec_id&labno=261
68,mrdata_json/sedznpb/136.json,136,Vulcan,-128.16666666667,62.3,SHig,https://mrdata.usgs.gov/to-json.php?db=sedznpb&id=rec_id&labno=136
69,mrdata_json/sedznpb/158.json,158,Fozichong,111.19333333333,23.049444444444,CAig,https://mrdata.usgs.gov/to-json.php?db=sedznpb&id=rec_id&labno=158
70,mrdata_json/sedznpb/175.json,175,Qiandongshan,110.79444444444,33.59,CAam,https://mrdata.usgs.gov/to-json.php?db=sedznpb&id=rec_id&labno=175
71,mrdata_json/sedznpb/443.json,443,Aravaipa,-110.32388888889,32.967777777778,CAig,https://mrdata.usgs.gov/to-json.php?db=sedznpb&id=rec_id&labno=443
72,mrdata_json/sedznpb/365.json,365,Florida Canyon,-78.059166666667,-5.8911111111111,CAam,https://mrdata.usgs.gov/to-json.php?db=sedznpb&id=rec_id&labno=365
73,mrdata_json/sedznpb/12.json,12,Blendvale,125.77805555556,-18.32,CAam,https://mrdata.usgs.gov/to-json.php?db=sedznpb&id=rec_id&labno=12
74,mrdata_json/sedznpb/13.json,13,Broken Hill,141.46666666667,-31.966666666667,MLig,https://mrdata.usgs.gov/to-json.php?db=sedznpb&id=rec_id&labno=13
75,mrdata_json/sedznpb/461.json,461,Franklin,-74.603333333333,41.129722222222,CAig,https://mrdata.usgs.gov/to-json.php?db=sedznpb&id=rec_id&labno=461
76,mrdata_json/sedznpb/188.json,188,Yindongzi,108.93111111111,33.543333333333,SHig,https://mrdata.usgs.gov/to-json.php?db=sedznpb&id=rec_id&labno=188
77,mrdata_json/sedznpb/237.json,237,Kelapa Kampit,108.07361111111,-2.7055555555556,CAig,https://mrdata.usgs.gov/to-json.php?db=sedznpb&id=rec_id&labno=237
78,mrdata_json/sedznpb/386.json,386,Pavlovskoe,53.573888888889,72.86,CAam,https://mrdata.usgs.gov/to-json.php?db=sedznpb&id=rec_id&labno=386
79,mrdata_json/sedznpb/36.json,36,Mount Isa,139.47555555556,-20.716666666667,SHam,https://mrdata.usgs.gov/to-json.php?db=sedznpb&id=rec_id&labno=36
80,mrdata_json/sedznpb/6.json,6,Esperanza,-65.716111111111,-23.129444444444,SHig,https://mrdata.usgs.gov/to-json.php?db=sedznpb&id=rec_id&labno=6
81,mrdata_json/sedznpb/94.json,94,Goz,-132.54638888889,64.428611111111,CAam,https://mrdata.usgs.gov/to-json.php?db=sedznpb&id=rec_id&labno=94
82,mrdata_json/sedznpb/427.json,427,Bou Grine,8.94,36.11,CAam,https://mrdata.usgs.gov/to-json.php?db=sedznpb&id=rec_id&labno=427
83,mrdata_json/sedznpb/22.json,22,Elura,145.65666666667,-31.161388888889,SHam,https://mrdata.usgs.gov/to-json.php?db=sedznpb&id=rec_id&labno=22
84,mrdata_json/sedznpb/125.json,125,Rift,-118.57361111111,51.875,MLig,https://mrdata.usgs.gov/to-json.php?db=sedznpb&id=rec_id&labno=125
85,mrdata_json/sedznpb/167.json,167,Huogeqi,106.77888888889,41.295555555556,MLig,https://mrdata.usgs.gov/to-json.php?db=sedznpb&id=rec_id&labno=167
86,mrdata_json/sedznpb/495.json,495,Tenmile,-106.18888888889,39.420833333333,CAig,https://mrdata.usgs.gov/to-json.php?db=sedznpb&id=rec_id&labno=495
87,mrdata_json/sedznpb/212.json,212,Laurium,24.059166666667,37.703611111111,CAig,https://mrdata.usgs.gov/to-json.php?db=sedznpb&id=rec_id&labno=212
88,mrdata_json/sedznpb/269.json,269,Iglesiente,8.5030555555556,39.317222222222,CAam,https://mrdata.usgs.gov/to-json.php?db=sedznpb&id=rec_id&labno=269
89,mrdata_json/sedznpb/268.json,268,Gorno,9.8425,45.863611111111,CAam,https://mrdata.usgs.gov/to-json.php?db=sedznpb&id=rec_id&labno=268
90,mrdata_json/sedznpb/76.json,76,Boylen,-69.445,57.661111111111,SS,https://mrdata.usgs.gov/to-json.php?db=sedznpb&id=rec_id&labno=76
91,mrdata_json/sedznpb/226.json,226,Madarpura,74.668055555556,26.500277777778,MLig,https://mrdata.usgs.gov/to-json.php?db=sedznpb&id=rec_id&labno=226
92,mrdata_json/sedznpb/244.json,244,Kuh-e-Surmeh,52.093888888889,28.0825,CAam,https://mrdata.usgs.gov/to-json.php?db=sedznpb&id=rec_id&labno=244
93,mrdata_json/sedznpb/371.json,371,Santander,-76.533333333333,-11.233333333333,CAig,https://mrdata.usgs.gov/to-json.php?db=sedznpb&id=rec_id&labno=371
94,mrdata_json/sedznpb/218.json,218,Askot,80.3125,29.761944444444,MLig,https://mrdata.usgs.gov/to-json.php?db=sedznpb&id=rec_id&labno=218
95,mrdata_json/sedznpb/491.json,491,Sterling Hill,-74.606111111111,41.081944444445,CAig,https://mrdata.usgs.gov/to-json.php?db=sedznpb&id=rec_id&labno=491
96,mrdata_json/sedznpb/142.json,142,El Toqui,-71.926388888889,-45.033888888889,CAig,https://mrdata.usgs.gov/to-json.php?db=sedznpb&id=rec_id&labno=142
97,mrdata_json/sedznpb/165.json,165,Huanren,125.36527777778,41.297777777778,CAig,https://mrdata.usgs.gov/to-json.php?db=sedznpb&id=rec_id&labno=165
98,mrdata_json/sedznpb/437.json,437,Yahyali,35.527222222222,38.165833333333,CAam,https://mrdata.usgs.gov/to-json.php?db=sedznpb&id=rec_id&labno=437
99,mrdata_json/sedznpb/337.json,337,Harasib,17.831944444444,-19.481111111111,CAam,https://mrdata.usgs.gov/to-json.php?db=sedznpb&id=rec_id&labno=337
100,mrdata_json/sedznpb/130.json,130,Salerno Lake,-78.504722222222,44.874444444444,CAme,https://mrdata.usgs.gov/to-json.php?db=sedznpb&id=rec_id&labno=130
101,mrdata_json/sedznpb/1.json,1,Ain Kahla,4.0261111111111,34.487777777778,CAam,https://mrdata.usgs.gov/to-json.php?db=sedznpb&id=rec_id&labno=1
102,mrdata_json/sedznpb/417.json,417,Bellviksberg,15.927222222222,64.4025,SS,https://mrdata.usgs.gov/to-json.php?db=sedznpb&id=rec_id&labno=417
103,mrdata_json/sedznpb/370.json,370,San Vicente,-75.385,-11.234722222222,CAam,https://mrdata.usgs.gov/to-json.php?db=sedznpb&id=rec_id&labno=370
104,mrdata_json/sedznpb/63.json,63,Perau,-49.048333333333,-24.928333333333,CAig,https://mrdata.usgs.gov/to-json.php?db=sedznpb&id=rec_id&labno=63
105,mrdata_json/sedznpb/458.json,458,Embreeville,-82.475277777778,36.167222222222,CAam,https://mrdata.usgs.gov/to-json.php?db=sedznpb&id=rec_id&labno=458
106,mrdata_json/sedznpb/367.json,367,Huanzala,-77.000555555556,-9.8641666666667,CAig,https://mrdata.usgs.gov/to-json.php?db=sedznpb&id=rec_id&labno=367
107,mrdata_json/sedznpb/231.json,231,Rewara,74.354166666667,25.099166666667,MLme,https://mrdata.usgs.gov/to-json.php?db=sedznpb&id=rec_id&labno=231
108,mrdata_json/sedznpb/467.json,467,Hyatt,-75.329166666667,44.299444444444,CAig,https://mrdata.usgs.gov/to-json.php?db=sedznpb&id=rec_id&labno=467
109,mrdata_json/sedznpb/265.json,265,Tynagh,-8.3763888888889,53.165,CAam,https://mrdata.usgs.gov/to-json.php?db=sedznpb&id=rec_id&labno=265
110,mrdata_json/sedznpb/82.json,82,Contact,-129.87138888889,59.32,CAig,https://mrdata.usgs.gov/to-json.php?db=sedznpb&id=rec_id&labno=82
111,mrdata_json/sedznpb/42.json,42,Sorby,128.95888888889,-15.442777777778,CAam,https://mrdata.usgs.gov/to-json.php?db=sedznpb&id=rec_id&labno=42
112,mrdata_json/sedznpb/144.json,144,Mina Silva/Rosillo,-72.549166666667,-46.57,CAig,https://mrdata.usgs.gov/to-json.php?db=sedznpb&id=rec_id&labno=144
113,mrdata_json/sedznpb/40.json,40,Pegmont,140.68861111111,-21.851111111111,MLig,https://mrdata.usgs.gov/to-json.php?db=sedznpb&id=rec_id&labno=40
114,mrdata_json/sedznpb/504.json,504,White Pine,-115.55861111111,39.254166666667,CAig,https://mrdata.usgs.gov/to-json.php?db=sedznpb&id=rec_id&labno=504
115,mrdata_json/sedznpb/434.json,434,Bolkardag,34.842777777778,37.421111111111,CAig,https://mrdata.usgs.gov/to-json.php?db=sedznpb&id=rec_id&labno=434
116,mrdata_json/sedznpb/35.json,35,Mount Garnet,145.11111111111,-17.684722222222,CAig,https://mrdata.usgs.gov/to-json.php?db=sedznpb&id=rec_id&labno=35
117,mrdata_json/sedznpb/181.json,181,Tanyaokou,106.80527777778,40.952222222222,MLig,https://mrdata.usgs.gov/to-json.php?db=sedznpb&id=rec_id&labno=181
118,mrdata_json/sedznpb/297.json,297,Ushkatyn I,70.264722222222,48.431388888889,CAig,https://mrdata.usgs.gov/to-json.php?db=sedznpb&id=rec_id&labno=297
119,mrdata_json/sedznpb/454.json,454,Cerro Gordo,-117.79333333333,36.54,CAig,https://mrdata.usgs.gov/to-json.php?db=sedznpb&id=rec_id&labno=454
120,mrdata_json/sedznpb/229.json,229,Rampura-Agucha,74.738611111111,25.832222222222,MLig,https://mrdata.usgs.gov/to-json.php?db=sedznpb&id=rec_id&labno=229
121,mrdata_json/sedznpb/215.json,215,Citronen Fjord,-28.415,83.078611111111,SHam,https://mrdata.usgs.gov/to-json.php?db=sedznpb&id=rec_id&labno=215
122,mrdata_json/sedznpb/466.json,466,Higdon,-90.146111111111,37.608333333333,CAig,https://mrdata.usgs.gov/to-json.php?db=sedznpb&id=rec_id&labno=466
123,mrdata_json/sedznpb/336.json,336,Driehoek,17.779166666667,-19.600833333333,CAam,https://mrdata.usgs.gov/to-json.php?db=sedznpb&id=rec_id&labno=336
124,mrdata_json/sedznpb/449.json,449,Bristol,-114.6175,38.076944444444,CAig,https://mrdata.usgs.gov/to-json.php?db=sedznpb&id=rec_id&labno=449
125,mrdata_json/sedznpb/204.json,204,Largentiere,4.2919444444445,44.540555555556,SS,https://mrdata.usgs.gov/to-json.php?db=sedznpb&id=rec_id&labno=204
126,mrdata_json/sedznpb/113.json,113,Mosquito King,-119.50666666667,51.047222222222,SHig,https://mrdata.usgs.gov/to-json.php?db=sedznpb&id=rec_id&labno=113
127,mrdata_json/sedznpb/388.json,388,Sardana,136.66722222222,60.202222222222,CAam,https://mrdata.usgs.gov/to-json.php?db=sedznpb&id=rec_id&labno=388
128,mrdata_json/sedznpb/304.json,304,Capote Basin,-110.35166666667,30.984722222222,CAig,https://mrdata.usgs.gov/to-json.php?db=sedznpb&id=rec_id&labno=304
129,mrdata_json/sedznpb/356.json,356,Duddar,66.836388888889,26.223333333333,SHam,https://mrdata.usgs.gov/to-json.php?db=sedznpb&id=rec_id&labno=356
130,mrdata_json/sedznpb/39.json,39,Narlarla,124.72805555556,-17.260555555556,CAam,https://mrdata.usgs.gov/to-json.php?db=sedznpb&id=rec_id&labno=39
131,mrdata_json/sedznpb/278.json,278,Kamioka,137.31888888889,36.327777777778,CAig,https://mrdata.usgs.gov/to-json.php?db=sedznpb&id=rec_id&labno=278
132,mrdata_json/sedznpb/372.json,372,Uchucchacua,-76.753888888889,-10.393611111111,CAig,https://mrdata.usgs.gov/to-json.php?db=sedznpb&id=rec_id&labno=372
133,mrdata_json/sedznpb/143.json,143,Maria Cristina,-70.472222222222,-28.066111111111,CAig,https://mrdata.usgs.gov/to-json.php?db=sedznpb&id=rec_id&labno=143
134,mrdata_json/sedznpb/110.json,110,Midway,-130.34222222222,59.927222222222,CAig,https://mrdata.usgs.gov/to-json.php?db=sedznpb&id=rec_id&labno=110
135,mrdata_json/sedznpb/259.json,259,Moyvoughly,-7.6994444444444,53.444444444444,CAam,https://mrdata.usgs.gov/to-json.php?db=sedznpb&id=rec_id&labno=259
136,mrdata_json/sedznpb/468.json,468,Idol,-83.416388888889,36.363055555556,CAam,https://mrdata.usgs.gov/to-json.php?db=sedznpb&id=rec_id&labno=468
137,mrdata_json/sedznpb/284.json,284,Shokawa,136.98666666667,36.026666666667,CAig,https://mrdata.usgs.gov/to-json.php?db=sedznpb&id=rec_id&labno=284
138,mrdata_json/sedznpb/31.json,31,Maramungee,140.92,-21.58,MLig,https://mrdata.usgs.gov/to-json.php?db=sedznpb&id=rec_id&labno=31
139,mrdata_json/sedznpb/106.json,106,McDame Belle,-129.37666666667,59.270555555556,CAig,https://mrdata.usgs.gov/to-json.php?db=sedznpb&id=rec_id&labno=106
140,mrdata_json/sedznpb/438.json,438,Foss,-3.9363888888889,56.665277777778,MLme,https://mrdata.usgs.gov/to-json.php?db=sedznpb&id=rec_id&labno=438
141,mrdata_json/sedznpb/72.json,72,Bermuda,-94.159166666667,76.655,CAam,https://mrdata.usgs.gov/to-json.php?db=sedznpb&id=rec_id&labno=72
142,mrdata_json/sedznpb/313.json,313,Naica,-105.48888888889,27.850833333333,CAig,https://mrdata.usgs.gov/to-json.php?db=sedznpb&id=rec_id&labno=313
143,mrdata_json/sedznpb/396.json,396,Mežica,14.852222222222,46.514444444444,CAig,https://mrdata.usgs.gov/to-json.php?db=sedznpb&id=rec_id&labno=396
144,mrdata_json/sedznpb/3.json,3,Kherzet Youcef,4.0438888888889,34.525,CAam,https://mrdata.usgs.gov/to-json.php?db=sedznpb&id=rec_id&labno=3
145,mrdata_json/sedznpb/375.json,375,Upper Silesia,19.533333333333,50.283333333333,CAam,https://mrdata.usgs.gov/to-json.php?db=sedznpb&id=rec_id&labno=375
146,mrdata_json/sedznpb/81.json,81,Colby,-118.73777777778,50.730555555556,MLig,https://mrdata.usgs.gov/to-json.php?db=sedznpb&id=rec_id&labno=81
147,mrdata_json/sedznpb/489.json,489,Sherman,-106.17472222222,39.210277777778,CAig,https://mrdata.usgs.gov/to-json.php?db=sedznpb&id=rec_id&labno=489
148,mrdata_json/sedznpb/118.json,118,Newfoundland Zinc,-57.471111111111,50.281944444444,CAam,https://mrdata.usgs.gov/to-json.php?db=sedznpb&id=rec_id&labno=118
149,mrdata_json/sedznpb/285.json,285,Tsumo,131.8975,34.645555555556,CAig,https://mrdata.usgs.gov/to-json.php?db=sedznpb&id=rec_id&labno=285
150,mrdata_json/sedznpb/192.json,192,Castellanos/La Esperanza,-83.976944444444,22.635555555556,SHam,https://mrdata.usgs.gov/to-json.php?db=sedznpb&id=rec_id&labno=192
151,mrdata_json/sedznpb/333.json,333,Touissit-Bou Beker-El Abed,-4.9375,32.823611111111,CAam,https://mrdata.usgs.gov/to-json.php?db=sedznpb&id=rec_id&labno=333
152,mrdata_json/sedznpb/102.json,102,Legion,-116.57444444444,49.206666666667,CAam,https://mrdata.usgs.gov/to-json.php?db=sedznpb&id=rec_id&labno=102
153,mrdata_json/sedznpb/329.json,329,Bou Mia,-5.1038888888889,32.716388888889,SS,https://mrdata.usgs.gov/to-json.php?db=sedznpb&id=rec_id&labno=329
154,mrdata_json/sedznpb/83.json,83,Cottonbelt,-118.82333333333,51.447222222222,MLig,https://mrdata.usgs.gov/to-json.php?db=sedznpb&id=rec_id&labno=83
155,mrdata_json/sedznpb/254.json,254,Galmoy,-7.5861111111111,52.784722222222,CAam,https://mrdata.usgs.gov/to-json.php?db=sedznpb&id=rec_id&labno=254
156,mrdata_json/sedznpb/260.json,260,Navan,-6.7152777777778,53.654444444444,CAam,https://mrdata.usgs.gov/to-json.php?db=sedznpb&id=rec_id&labno=260
157,mrdata_json/sedznpb/153.json,153,Daliangzi,102.86972222222,26.631666666667,CAam,https://mrdata.usgs.gov/to-json.php?db=sedznpb&id=rec_id&labno=153
158,mrdata_json/sedznpb/321.json,321,Sombrerete,-103.62388888889,23.630833333333,CAig,https://mrdata.usgs.gov/to-json.php?db=sedznpb&id=rec_id&labno=321
159,mrdata_json/sedznpb/203.json,203,Villemagne,3.4658333333333,44.11,CAam,https://mrdata.usgs.gov/to-json.php?db=sedznpb&id=rec_id&labno=203
160,mrdata_json/sedznpb/287.json,287,Bayzhansay,69.925,43.161944444444,CAam,https://mrdata.usgs.gov/to-json.php?db=sedznpb&id=rec_id&labno=287
161,mrdata_json/sedznpb/55.json,55,Boquira,-42.7325,-12.811111111111,MLig,https://mrdata.usgs.gov/to-json.php?db=sedznpb&id=rec_id&labno=55
162,mrdata_json/sedznpb/177.json,177,Qingchengzi,123.61694444444,40.733888888889,MLig,https://mrdata.usgs.gov/to-json.php?db=sedznpb&id=rec_id&labno=177
163,mrdata_json/sedznpb/385.json,385,Moryanikhinskoe,93.245833333333,58.529166666667,CAam,https://mrdata.usgs.gov/to-json.php?db=sedznpb&id=rec_id&labno=385
164,mrdata_json/sedznpb/147.json,147,Bajiazi,120.09861111111,40.586111111111,CAig,https://mrdata.usgs.gov/to-json.php?db=sedznpb&id=rec_id&labno=147
165,mrdata_json/sedznpb/16.json,16,Cannington,140.92305555556,-21.869166666667,MLig,https://mrdata.usgs.gov/to-json.php?db=sedznpb&id=rec_id&labno=16
166,mrdata_json/sedznpb/69.json,69,Bear,-125.79,57.96,SHam,https://mrdata.usgs.gov/to-json.php?db=sedznpb&id=rec_id&labno=69
167,mrdata_json/sedznpb/322.json,322,Taxco,-99.596111111111,18.533611111111,CAig,https://mrdata.usgs.gov/to-json.php?db=sedznpb&id=rec_id&labno=322
168,mrdata_json/sedznpb/112.json,112,Monarch-Kicking Horse,-116.44722222222,51.423888888889,CAam,https://mrdata.usgs.gov/to-json.php?db=sedznpb&id=rec_id&labno=112
169,mrdata_json/sedznpb/240.json,240,Angouran,47.405277777778,36.624722222222,MLig,https://mrdata.usgs.gov/to-json.php?db=sedznpb&id=rec_id&labno=240
170,mrdata_json/sedznpb/129.json,129,Ruddock Creek,-118.90111111111,51.776388888889,MLig,https://mrdata.usgs.gov/to-json.php?db=sedznpb&id=rec_id&labno=129
171,mrdata_json/sedznpb/339.json,339,Kombat,17.705833333333,-19.71,Kipushi,https://mrdata.usgs.gov/to-json.php?db=sedznpb&id=rec_id&labno=339
172,mrdata_json/sedznpb/480.json,480,Pan American,-114.60666666667,37.871666666667,CAig,https://mrdata.usgs.gov/to-json.php?db=sedznpb&id=rec_id&labno=480
173,mrdata_json/sedznpb/485.json,485,Red Dog,-162.82333333333,68.066944444444,SHam,https://mrdata.usgs.gov/to-json.php?db=sedznpb&id=rec_id&labno=485
174,mrdata_json/sedznpb/150.json,150,Bijiashan,105.68111111111,33.860555555556,CAig,https://mrdata.usgs.gov/to-json.php?db=sedznpb&id=rec_id&labno=150
175,mrdata_json/sedznpb/166.json,166,Huayuan,109.375,28.5325,CAam,https://mrdata.usgs.gov/to-json.php?db=sedznpb&id=rec_id&labno=166
176,mrdata_json/sedznpb/51.json,51,Katekh,46.543888888889,41.646111111111,SHig,https://mrdata.usgs.gov/to-json.php?db=sedznpb&id=rec_id&labno=51
177,mrdata_json/sedznpb/319.json,319,Santa Eulalia,-105.87555555556,28.607777777778,CAig,https://mrdata.usgs.gov/to-json.php?db=sedznpb&id=rec_id&labno=319
178,mrdata_json/sedznpb/169.json,169,Jinding,99.407222222222,26.426944444444,SS,https://mrdata.usgs.gov/to-json.php?db=sedznpb&id=rec_id&labno=169
179,mrdata_json/sedznpb/49.json,49,Filizchai,46.414166666667,41.717222222222,SHig,https://mrdata.usgs.gov/to-json.php?db=sedznpb&id=rec_id&labno=49
180,mrdata_json/sedznpb/104.json,104,Lustdust,-125.41444444444,55.565833333333,CAig,https://mrdata.usgs.gov/to-json.php?db=sedznpb&id=rec_id&labno=104
181,mrdata_json/sedznpb/23.json,23,Fossil Downs,125.77666666667,-18.139166666667,CAam,https://mrdata.usgs.gov/to-json.php?db=sedznpb&id=rec_id&labno=23
182,mrdata_json/sedznpb/347.json,347,Bleikvassli,13.807222222222,65.908611111111,MLig,https://mrdata.usgs.gov/to-json.php?db=sedznpb&id=rec_id&labno=347
183,mrdata_json/sedznpb/316.json,316,Porroquio-Magistral,-101.19194444444,20.771944444444,CAig,https://mrdata.usgs.gov/to-json.php?db=sedznpb&id=rec_id&labno=316
184,mrdata_json/sedznpb/178.json,178,Qixiashan,118.96527777778,32.158333333333,CAig,https://mrdata.usgs.gov/to-json.php?db=sedznpb&id=rec_id&labno=178
185,mrdata_json/sedznpb/401.json,401,Bushy Park,23.596944444444,-28.474166666667,CAam,https://mrdata.usgs.gov/to-json.php?db=sedznpb&id=rec_id&labno=401
186,mrdata_json/sedznpb/483.json,483,Pierrepont,-75.031388888889,44.508611111111,CAig,https://mrdata.usgs.gov/to-json.php?db=sedznpb&id=rec_id&labno=483
187,mrdata_json/sedznpb/469.json,469,Illinois-Kentucky,-88.169444444444,37.4975,CAam,https://mrdata.usgs.gov/to-json.php?db=sedznpb&id=rec_id&labno=469
188,mrdata_json/sedznpb/293.json,293,Shaimerden,62.345,52.015555555556,CAam,https://mrdata.usgs.gov/to-json.php?db=sedznpb&id=rec_id&labno=293
189,mrdata_json/sedznpb/393.json,393,Rudnik,20.495555555556,44.1325,CAig,https://mrdata.usgs.gov/to-json.php?db=sedznpb&id=rec_id&labno=393
190,mrdata_json/sedznpb/70.json,70,Bear-Twit,-129.42,64.043333333333,CAam,https://mrdata.usgs.gov/to-json.php?db=sedznpb&id=rec_id&labno=70
191,mrdata_json/sedznpb/299.json,299,Zhairem,70.229444444444,48.276388888889,CAig,https://mrdata.usgs.gov/to-json.php?db=sedznpb&id=rec_id&labno=299
192,mrdata_json/sedznpb/263.json,263,Silvermines,-8.2544444444445,52.789722222222,CAam,https://mrdata.usgs.gov/to-json.php?db=sedznpb&id=rec_id&labno=263
193,mrdata_json/sedznpb/500.json,500,Upper Mississippi Valley,-90.433333333333,42.416666666667,CAam,https://mrdata.usgs.gov/to-json.php?db=sedznpb&id=rec_id&labno=500
194,mrdata_json/sedznpb/230.json,230,Rangpo,88.533055555556,27.180277777778,MLme,https://mrdata.usgs.gov/to-json.php?db=sedznpb&id=rec_id&labno=230
195,mrdata_json/sedznpb/423.json,423,Vassbo,12.558055555556,61.948611111111,SS,https://mrdata.usgs.gov/to-json.php?db=sedznpb&id=rec_id&labno=423
196,mrdata_json/sedznpb/440.json,440,American Fork,-111.61666666667,40.533333333333,CAig,https://mrdata.usgs.gov/to-json.php?db=sedznpb&id=rec_id&labno=440
197,mrdata_json/sedznpb/340.json,340,Rosh Pinah,16.764444444444,-27.950555555556,MLig,https://mrdata.usgs.gov/to-json.php?db=sedznpb&id=rec_id&labno=340
198,mrdata_json/sedznpb/432.json,432,Akdağmadeni,35.883888888889,39.663055555556,CAig,https://mrdata.usgs.gov/to-json.php?db=sedznpb&id=rec_id&labno=432
199,mrdata_json/sedznpb/490.json,490,Spruce Mountain,-114.82138888889,40.553333333333,CAig,https://mrdata.usgs.gov/to-json.php?db=sedznpb&id=rec_id&labno=490
200,mrdata_json/sedznpb/273.json,273,Southern Sulcis,8.7894444444445,38.961388888889,CAig,https://mrdata.usgs.gov/to-json.php?db=sedznpb&id=rec_id&labno=273
201,mrdata_json/sedznpb/52.json,52,Verviers,6.0086111111111,50.710555555556,CAam,https://mrdata.usgs.gov/to-json.php?db=sedznpb&id=rec_id&labno=52
202,mrdata_json/sedznpb/53.json,53,Veovača,18.368055555556,44.152222222222,CAam,https://mrdata.usgs.gov/to-json.php?db=sedznpb&id=rec_id&labno=53
203,mrdata_json/sedznpb/164.json,164,Huangshaping,112.69972222222,25.733611111111,CAig,https://mrdata.usgs.gov/to-json.php?db=sedznpb&id=rec_id&labno=164
204,mrdata_json/sedznpb/213.json,213,Olympias,23.749166666667,40.600833333333,CAig,https://mrdata.usgs.gov/to-json.php?db=sedznpb&id=rec_id&labno=213
205,mrdata_json/sedznpb/85.json,85,Driftpile,-125.90805555556,58.066666666667,SHam,https://mrdata.usgs.gov/to-json.php?db=sedznpb&id=rec_id&labno=85
206,mrdata_json/sedznpb/257.json,257,Keel/Garrycam,-7.7355555555556,53.648888888889,CAam,https://mrdata.usgs.gov/to-json.php?db=sedznpb&id=rec_id&labno=257
207,mrdata_json/sedznpb/197.json,197,Um Gheig,34.530555555556,25.720277777778,CAam,https://mrdata.usgs.gov/to-json.php?db=sedznpb&id=rec_id&labno=197
208,mrdata_json/sedznpb/26.json,26,Iron Blow,131.54444444444,-13.513611111111,SHig,https://mrdata.usgs.gov/to-json.php?db=sedznpb&id=rec_id&labno=26
209,mrdata_json/sedznpb/71.json,71,Bend,-118.225,52.054722222222,CAme,https://mrdata.usgs.gov/to-json.php?db=sedznpb&id=rec_id&labno=71
210,mrdata_json/sedznpb/306.json,306,Cerro San Pedro,-100.80305555556,22.221944444444,CAig,https://mrdata.usgs.gov/to-json.php?db=sedznpb&id=rec_id&labno=306
211,mrdata_json/sedznpb/73.json,73,Big Ledge,-118.05444444444,50.4675,MLig,https://mrdata.usgs.gov/to-json.php?db=sedznpb&id=rec_id&labno=73
212,mrdata_json/sedznpb/91.json,91,Gayna River,-130.68333333333,64.933333333333,CAam,https://mrdata.usgs.gov/to-json.php?db=sedznpb&id=rec_id&labno=91
213,mrdata_json/sedznpb/100.json,100,Kootenay King,-115.58722222222,49.727777777778,SHig,https://mrdata.usgs.gov/to-json.php?db=sedznpb&id=rec_id&labno=100
214,mrdata_json/sedznpb/154.json,154,Dengjiashan,105.36027777778,33.845833333333,CAig,https://mrdata.usgs.gov/to-json.php?db=sedznpb&id=rec_id&labno=154
215,mrdata_json/sedznpb/9.json,9,Abra,118.58611111111,-24.644444444444,SHig,https://mrdata.usgs.gov/to-json.php?db=sedznpb&id=rec_id&labno=9
216,mrdata_json/sedznpb/310.json,310,La Negra,-99.490833333333,20.8425,CAig,https://mrdata.usgs.gov/to-json.php?db=sedznpb&id=rec_id&labno=310
217,mrdata_json/sedznpb/235.json,235,Tiranga,74.534722222222,25.32,MLme,https://mrdata.usgs.gov/to-json.php?db=sedznpb&id=rec_id&labno=235
218,mrdata_json/sedznpb/345.json,345,Motukokako,174.33916666667,-35.164444444444,CAig,https://mrdata.usgs.gov/to-json.php?db=sedznpb&id=rec_id&labno=345
219,mrdata_json/sedznpb/457.json,457,Edwards,-75.254444444444,44.330833333333,CAig,https://mrdata.usgs.gov/to-json.php?db=sedznpb&id=rec_id&labno=457
220,mrdata_json/sedznpb/201.json,201,Les Malines,3.6227777777778,43.924166666667,CAam,https://mrdata.usgs.gov/to-json.php?db=sedznpb&id=rec_id&labno=201
221,mrdata_json/sedznpb/137.json,137,Walton,-64.041666666667,45.205555555556,CAig,https://mrdata.usgs.gov/to-json.php?db=sedznpb&id=rec_id&labno=137
222,mrdata_json/sedznpb/66.json,66,Madan,24.924166666667,41.488611111111,CAig,https://mrdata.usgs.gov/to-json.php?db=sedznpb&id=rec_id&labno=66
223,mrdata_json/sedznpb/149.json,149,Beishan,108.14333333333,25.1925,CAam,https://mrdata.usgs.gov/to-json.php?db=sedznpb&id=rec_id&labno=149
224,mrdata_json/sedznpb/191.json,191,Yanga-Koubanza,13.849166666667,-4.37,Kipushi,https://mrdata.usgs.gov/to-json.php?db=sedznpb&id=rec_id&labno=191
225,mrdata_json/sedznpb/422.json,422,Sagliden,12.388055555556,62.022222222222,SS,https://mrdata.usgs.gov/to-json.php?db=sedznpb&id=rec_id&labno=422
226,mrdata_json/sedznpb/93.json,93,George Lake,-103.75388888889,57.475,SS,https://mrdata.usgs.gov/to-json.php?db=sedznpb&id=rec_id&labno=93
227,mrdata_json/sedznpb/317.json,317,Providencia,-101.465,24.693333333333,CAig,https://mrdata.usgs.gov/to-json.php?db=sedznpb&id=rec_id&labno=317
228,mrdata_json/sedznpb/245.json,245,Kushk,55.763611111111,31.7525,SHam,https://mrdata.usgs.gov/to-json.php?db=sedznpb&id=rec_id&labno=245
229,mrdata_json/sedznpb/403.json,403,Pering,24.269722222222,-27.430555555556,CAam,https://mrdata.usgs.gov/to-json.php?db=sedznpb&id=rec_id&labno=403
230,mrdata_json/sedznpb/193.json,193,Matahambre,-83.941944444444,22.591111111111,SHam,https://mrdata.usgs.gov/to-json.php?db=sedznpb&id=rec_id&labno=193
231,mrdata_json/sedznpb/24.json,24,Grevillea,138.685,-19.1075,SHam,https://mrdata.usgs.gov/to-json.php?db=sedznpb&id=rec_id&labno=24
232,mrdata_json/sedznpb/283.json,283,Ohori |,140.51944444444,38.735555555556,CAig,https://mrdata.usgs.gov/to-json.php?db=sedznpb&id=rec_id&labno=283
233,mrdata_json/sedznpb/473.json,473,Little & Big Cottonwood,-111.63333333333,40.616666666667,CAig,https://mrdata.usgs.gov/to-json.php?db=sedznpb&id=rec_id&labno=473
234,mrdata_json/sedznpb/202.json,202,Trèves,3.3888888888889,44.077777777778,CAam,https://mrdata.usgs.gov/to-json.php?db=sedznpb&id=rec_id&labno=202
235,mrdata_json/sedznpb/87.json,87,Dy/Grum/Vangorda,-133.21694444444,62.260833333333,SHig,https://mrdata.usgs.gov/to-json.php?db=sedznpb&id=rec_id&labno=87
236,mrdata_json/sedznpb/338.json,338,Khusib Spring,18.021944444444,-19.426111111111,Kipushi,https://mrdata.usgs.gov/to-json.php?db=sedznpb&id=rec_id&labno=338
237,mrdata_json/sedznpb/33.json,33,Menninnie,136.41694444444,-32.649444444444,CAig,https://mrdata.usgs.gov/to-json.php?db=sedznpb&id=rec_id&labno=33
238,mrdata_json/sedznpb/327.json,327,Tumurtui South,106.91666666667,45.216666666667,CAig,https://mrdata.usgs.gov/to-json.php?db=sedznpb&id=rec_id&labno=327
239,mrdata_json/sedznpb/145.json,145,Bafangshan,106.88,33.59,CAam,https://mrdata.usgs.gov/to-json.php?db=sedznpb&id=rec_id&labno=145
240,mrdata_json/sedznpb/295.json,295,Talap,67.611388888889,43.664722222222,CAam,https://mrdata.usgs.gov/to-json.php?db=sedznpb&id=rec_id&labno=295
241,mrdata_json/sedznpb/455.json,455,Darwin,-117.59416666667,36.283888888889,CAig,https://mrdata.usgs.gov/to-json.php?db=sedznpb&id=rec_id&labno=455
242,mrdata_json/sedznpb/303.json,303,Bismark,-107.58555555556,31.234444444444,CAig,https://mrdata.usgs.gov/to-json.php?db=sedznpb&id=rec_id&labno=303
243,mrdata_json/sedznpb/54.json,54,Ambrósia,-46.763888888889,-17.104444444444,CAam,https://mrdata.usgs.gov/to-json.php?db=sedznpb&id=rec_id&labno=54
244,mrdata_json/sedznpb/315.json,315,Plomosas,-105.24361111111,29.079722222222,CAig,https://mrdata.usgs.gov/to-json.php?db=sedznpb&id=rec_id&labno=315
245,mrdata_json/sedznpb/174.json,174,Niujiaotang,107.66527777778,26.235833333333,CAam,https://mrdata.usgs.gov/to-json.php?db=sedznpb&id=rec_id&labno=174
246,mrdata_json/sedznpb/395.json,395,Veliki Majdan,19.340555555556,44.270833333333,CAig,https://mrdata.usgs.gov/to-json.php?db=sedznpb&id=rec_id&labno=395
247,mrdata_json/sedznpb/227.json,227,Mamandur,78.951388888889,12.014722222222,MLig,https://mrdata.usgs.gov/to-json.php?db=sedznpb&id=rec_id&labno=227
248,mrdata_json/sedznpb/410.json,410,Yeonhwa II,129.15694444444,37.100833333333,CAig,https://mrdata.usgs.gov/to-json.php?db=sedznpb&id=rec_id&labno=410
249,mrdata_json/sedznpb/184.json,184,Tongmugou,109.93805555556,33.444722222222,SHig,https://mrdata.usgs.gov/to-json.php?db=sedznpb&id=rec_id&labno=184
250,mrdata_json/sedznpb/152.json,152,Dabaoshan,113.72222222222,24.554166666667,CAig,https://mrdata.usgs.gov/to-json.php?db=sedznpb&id=rec_id&labno=152
251,mrdata_json/sedznpb/377.json,377,Dognecea,21.756944444444,45.284444444444,CAig,https://mrdata.usgs.gov/to-json.php?db=sedznpb&id=rec_id&labno=377
252,mrdata_json/sedznpb/346.json,346,Geomdeok,128.83,40.381944444444,CAig,https://mrdata.usgs.gov/to-json.php?db=sedznpb&id=rec_id&labno=346
253,mrdata_json/sedznpb/431.json,431,Sidi Driss,9.1083333333333,37.053333333333,CAam,https://mrdata.usgs.gov/to-json.php?db=sedznpb&id=rec_id&labno=431
254,mrdata_json/sedznpb/488.json,488,San Francisco,-113.34555555556,38.482777777778,CAig,https://mrdata.usgs.gov/to-json.php?db=sedznpb&id=rec_id&labno=488
255,mrdata_json/sedznpb/266.json,266,Campiglia,10.601111111111,43.096944444444,CAig,https://mrdata.usgs.gov/to-json.php?db=sedznpb&id=rec_id&labno=266
256,mrdata_json/sedznpb/179.json,179,Shuikoushan,112.58361111111,26.548888888889,CAig,https://mrdata.usgs.gov/to-json.php?db=sedznpb&id=rec_id&labno=179
257,mrdata_json/sedznpb/267.json,267,Funtana Raminosa,9.1716666666667,39.8775,CAig,https://mrdata.usgs.gov/to-json.php?db=sedznpb&id=rec_id&labno=267
258,mrdata_json/sedznpb/477.json,477,North Arkansas-Ozark,-92.688611111111,36.24,CAam,https://mrdata.usgs.gov/to-json.php?db=sedznpb&id=rec_id&labno=477
259,mrdata_json/sedznpb/251.json,251,Boston Hill,-6.9266666666667,53.226111111111,CAam,https://mrdata.usgs.gov/to-json.php?db=sedznpb&id=rec_id&labno=251
260,mrdata_json/sedznpb/463.json,463,Gilman,-106.39722222222,39.5275,CAig,https://mrdata.usgs.gov/to-json.php?db=sedznpb&id=rec_id&labno=463
261,mrdata_json/sedznpb/335.json,335,Border,17.916666666667,-19.475,CAam,https://mrdata.usgs.gov/to-json.php?db=sedznpb&id=rec_id&labno=335
262,mrdata_json/sedznpb/162.json,162,Haobugao,119.26305555556,44.6375,CAig,https://mrdata.usgs.gov/to-json.php?db=sedznpb&id=rec_id&labno=162
263,mrdata_json/sedznpb/399.json,399,Black Mountain,18.730277777778,-29.2325,MLig,https://mrdata.usgs.gov/to-json.php?db=sedznpb&id=rec_id&labno=399
264,mrdata_json/sedznpb/105.json,105,Matt Berry,-129.40388888889,61.475555555556,SHig,https://mrdata.usgs.gov/to-json.php?db=sedznpb&id=rec_id&labno=105
265,mrdata_json/sedznpb/78.json,78,Caledonia,-127.60305555556,50.644444444445,CAig,https://mrdata.usgs.gov/to-json.php?db=sedznpb&id=rec_id&labno=78
266,mrdata_json/sedznpb/397.json,397,Topla,14.778055555556,46.476666666667,CAam,https://mrdata.usgs.gov/to-json.php?db=sedznpb&id=rec_id&labno=397
267,mrdata_json/sedznpb/140.json,140,Yava,-60.410833333333,45.857222222222,SS,https://mrdata.usgs.gov/to-json.php?db=sedznpb&id=rec_id&labno=140
268,mrdata_json/sedznpb/200.json,200,Carboire,1.3005555555556,42.750277777778,SHig,https://mrdata.usgs.gov/to-json.php?db=sedznpb&id=rec_id&labno=200
269,mrdata_json/sedznpb/420.json,420,Lovstrand,15.993333333333,64.487222222222,SS,https://mrdata.usgs.gov/to-json.php?db=sedznpb&id=rec_id&labno=420
270,mrdata_json/sedznpb/151.json,151,Changba/Lijiagou,105.69111111111,33.979444444444,CAig,https://mrdata.usgs.gov/to-json.php?db=sedznpb&id=rec_id&labno=151
271,mrdata_json/sedznpb/307.json,307,Chalchihuites,-103.75777777778,23.380277777778,CAig,https://mrdata.usgs.gov/to-json.php?db=sedznpb&id=rec_id&labno=307
272,mrdata_json/sedznpb/239.json,239,Āhangarān,49.244722222222,34.089444444444,CAam,https://mrdata.usgs.gov/to-json.php?db=sedznpb&id=rec_id&labno=239
273,mrdata_json/sedznpb/478.json,478,Old Lead Belt,-90.5225,37.895833333333,CAam,https://mrdata.usgs.gov/to-json.php?db=sedznpb&id=rec_id&labno=478
274,mrdata_json/sedznpb/384.json,384,Klichkinskoe,117.98944444444,50.434722222222,CAig,https://mrdata.usgs.gov/to-json.php?db=sedznpb&id=rec_id&labno=384
275,mrdata_json/sedznpb/171.json,171,Lame,107.58361111111,24.818055555556,CAig,https://mrdata.usgs.gov/to-json.php?db=sedznpb&id=rec_id&labno=171
276,mrdata_json/sedznpb/211.json,211,Kassandra,23.796111111111,40.519722222222,CAig,https://mrdata.usgs.gov/to-json.php?db=sedznpb&id=rec_id&labno=211
277,mrdata_json/sedznpb/382.json,382,Gorno-Zerentuiskoe,119.55222222222,51.2325,CAig,https://mrdata.usgs.gov/to-json.php?db=sedznpb&id=rec_id&labno=382
278,mrdata_json/sedznpb/390.json,390,Jabal Dhaylan,37.031111111111,25.503055555556,CAam,https://mrdata.usgs.gov/to-json.php?db=sedznpb&id=rec_id&labno=390
279,mrdata_json/sedznpb/280.json,280,Mizuhiki,139.515,37.014444444444,CAig,https://mrdata.usgs.gov/to-json.php?db=sedznpb&id=rec_id&labno=280
280,mrdata_json/sedznpb/425.json,425,Altyn-Topkan,69.596666666667,40.629722222222,CAig,https://mrdata.usgs.gov/to-json.php?db=sedznpb&id=rec_id&labno=425
281,mrdata_json/sedznpb/352.json,352,Nyseter,10.615555555556,60.257777777778,CAig,https://mrdata.usgs.gov/to-json.php?db=sedznpb&id=rec_id&labno=352
282,mrdata_json/sedznpb/57.json,57,Canoas,-48.831944444444,-24.833611111111,MLme,https://mrdata.usgs.gov/to-json.php?db=sedznpb&id=rec_id&labno=57
283,mrdata_json/sedznpb/416.json,416,Abu Samar,36.178611111111,17.7925,MLig,https://mrdata.usgs.gov/to-json.php?db=sedznpb&id=rec_id&labno=416
284,mrdata_json/sedznpb/360.json,360,Antamina,-77.051388888889,-9.5416666666667,CAig,https://mrdata.usgs.gov/to-json.php?db=sedznpb&id=rec_id&labno=360
285,mrdata_json/sedznpb/320.json,320,Sierra Mojada,-103.68972222222,27.273333333333,CAig,https://mrdata.usgs.gov/to-json.php?db=sedznpb&id=rec_id&labno=320
286,mrdata_json/sedznpb/418.json,418,Guttusjon,12.333611111111,61.950277777778,SS,https://mrdata.usgs.gov/to-json.php?db=sedznpb&id=rec_id&labno=418
287,mrdata_json/sedznpb/392.json,392,Kopaonik,20.823333333333,43.2425,CAig,https://mrdata.usgs.gov/to-json.php?db=sedznpb&id=rec_id&labno=392
288,mrdata_json/sedznpb/447.json,447,Bisbee,-109.89888888889,31.431944444444,CAig,https://mrdata.usgs.gov/to-json.php?db=sedznpb&id=rec_id&labno=447
289,mrdata_json/sedznpb/376.json,376,Băita,22.873888888889,46.031944444444,CAig,https://mrdata.usgs.gov/to-json.php?db=sedznpb&id=rec_id&labno=376
290,mrdata_json/sedznpb/50.json,50,Kasdag,46.368611111111,41.746388888889,SHig,https://mrdata.usgs.gov/to-json.php?db=sedznpb&id=rec_id&labno=50
291,mrdata_json/sedznpb/131.json,131,Smithfield,-63.076666666667,45.2725,CAam,https://mrdata.usgs.gov/to-json.php?db=sedznpb&id=rec_id&labno=131
292,mrdata_json/sedznpb/187.json,187,Xiyupi,111.9825,37.599722222222,CAig,https://mrdata.usgs.gov/to-json.php?db=sedznpb&id=rec_id&labno=187
293,mrdata_json/sedznpb/156.json,156,Dongshengmiao,107.07333333333,41.11,MLig,https://mrdata.usgs.gov/to-json.php?db=sedznpb&id=rec_id&labno=156
294,mrdata_json/sedznpb/65.json,65,Vazante,-46.784166666667,-17.923611111111,CAig,https://mrdata.usgs.gov/to-json.php?db=sedznpb&id=rec_id&labno=65
295,mrdata_json/sedznpb/208.json,208,Meggen,8.0777777777778,51.129166666667,SHam,https://mrdata.usgs.gov/to-json.php?db=sedznpb&id=rec_id&labno=208
296,mrdata_json/sedznpb/89.json,89,Esker,-113.32361111111,66.966944444444,CAam,https://mrdata.usgs.gov/to-json.php?db=sedznpb&id=rec_id&labno=89
297,mrdata_json/sedznpb/497.json,497,Tombstone,-110.06111111111,31.706944444444,CAig,https://mrdata.usgs.gov/to-json.php?db=sedznpb&id=rec_id&labno=497
298,mrdata_json/sedznpb/421.json,421,Maiva,17.248333333333,66.186666666667,SS,https://mrdata.usgs.gov/to-json.php?db=sedznpb&id=rec_id&labno=421
299,mrdata_json/sedznpb/436.json,436,Keskin,33.615277777778,39.664722222222,CAig,https://mrdata.usgs.gov/to-json.php?db=sedznpb&id=rec_id&labno=436
300,mrdata_json/sedznpb/433.json,433,Balya,27.590555555556,39.753055555556,CAig,https://mrdata.usgs.gov/to-json.php?db=sedznpb&id=rec_id&labno=433
301,mrdata_json/sedznpb/407.json,407,Sinyemi,128.66916666667,37.194722222222,CAig,https://mrdata.usgs.gov/to-json.php?db=sedznpb&id=rec_id&labno=407
302,mrdata_json/sedznpb/160.json,160,Guangmenshan,124.28777777778,42.645833333333,CAig,https://mrdata.usgs.gov/to-json.php?db=sedznpb&id=rec_id&labno=160
303,mrdata_json/sedznpb/349.json,349,Husvika,12.650277777778,65.828333333333,CAig,https://mrdata.usgs.gov/to-json.php?db=sedznpb&id=rec_id&labno=349
304,mrdata_json/sedznpb/120.json,120,Piedmont-Hope,-117.41555555556,49.726111111111,CAig,https://mrdata.usgs.gov/to-json.php?db=sedznpb&id=rec_id&labno=120
305,mrdata_json/sedznpb/29.json,29,Lady Loretta,139.04527777778,-19.771388888889,SHam,https://mrdata.usgs.gov/to-json.php?db=sedznpb&id=rec_id&labno=29
306,mrdata_json/sedznpb/456.json,456,Drenchwater Creek,-158.68333333333,68.566666666667,SHam,https://mrdata.usgs.gov/to-json.php?db=sedznpb&id=rec_id&labno=456
307,mrdata_json/sedznpb/487.json,487,Ruby Creek,-156.94444444444,67.083333333333,Kipushi,https://mrdata.usgs.gov/to-json.php?db=sedznpb&id=rec_id&labno=487
308,mrdata_json/sedznpb/206.json,206,Maubach,6.4447222222222,50.745833333333,SS,https://mrdata.usgs.gov/to-json.php?db=sedznpb&id=rec_id&labno=206
309,mrdata_json/sedznpb/25.json,25,Hilton/George Fisher,139.47555555556,-20.568055555556,SHig,https://mrdata.usgs.gov/to-json.php?db=sedznpb&id=rec_id&labno=25
310,mrdata_json/sedznpb/92.json,92,Gays River,-63.338888888889,45.028611111111,CAam,https://mrdata.usgs.gov/to-json.php?db=sedznpb&id=rec_id&labno=92
311,mrdata_json/sedznpb/486.json,486,Rico,-108.03194444444,37.694444444444,CAig,https://mrdata.usgs.gov/to-json.php?db=sedznpb&id=rec_id&labno=486
312,mrdata_json/sedznpb/15.json,15,Cadjebut,125.96444444444,-18.718611111111,CAam,https://mrdata.usgs.gov/to-json.php?db=sedznpb&id=rec_id&labno=15
313,mrdata_json/sedznpb/464.json,464,Goodsprings,-115.47611111111,35.842222222222,CAig,https://mrdata.usgs.gov/to-json.php?db=sedznpb&id=rec_id&labno=464
314,mrdata_json/sedznpb/470.json,470,Indian Creek,-90.856666666667,38.099166666667,CAam,https://mrdata.usgs.gov/to-json.php?db=sedznpb&id=rec_id&labno=470
315,mrdata_json/sedznpb/238.json,238,Sopokomil,98.227777777778,2.5069444444444,SHam,https://mrdata.usgs.gov/to-json.php?db=sedznpb&id=rec_id&labno=238
316,mrdata_json/sedznpb/101.json,101,Lafontaine/Lietch,-75.955555555556,46.116944444444,CAig,https://mrdata.usgs.gov/to-json.php?db=sedznpb&id=rec_id&labno=101
317,mrdata_json/sedznpb/255.json,255,Gortdrum,-8.1869444444444,52.522222222222,Kipushi,https://mrdata.usgs.gov/to-json.php?db=sedznpb&id=rec_id&labno=255
318,mrdata_json/sedznpb/274.json,274,Su Zurfuru,8.5011111111111,39.423611111111,CAig,https://mrdata.usgs.gov/to-json.php?db=sedznpb&id=rec_id&labno=274
319,mrdata_json/sedznpb/122.json,122,Polaris,-96.931111111111,75.387777777778,CAam,https://mrdata.usgs.gov/to-json.php?db=sedznpb&id=rec_id&labno=122
320,mrdata_json/sedznpb/286.json,286,Achisay,68.894444444445,43.528611111111,CAam,https://mrdata.usgs.gov/to-json.php?db=sedznpb&id=rec_id&labno=286
321,mrdata_json/sedznpb/288.json,288,Bestyube,72.097222222222,48.218055555556,SHam,https://mrdata.usgs.gov/to-json.php?db=sedznpb&id=rec_id&labno=288
322,mrdata_json/sedznpb/400.json,400,Broken Hill,18.801944444444,-29.257222222222,MLme,https://mrdata.usgs.gov/to-json.php?db=sedznpb&id=rec_id&labno=400
323,mrdata_json/sedznpb/88.json,88,Eclipse,-96.193888888889,75.569444444444,CAam,https://mrdata.usgs.gov/to-json.php?db=sedznpb&id=rec_id&labno=88
324,mrdata_json/sedznpb/17.json,17,Century,138.605,-18.725,SHam,https://mrdata.usgs.gov/to-json.php?db=sedznpb&id=rec_id&labno=17
325,mrdata_json/sedznpb/389.json,389,Urultun,148.69916666667,63.665555555556,CAam,https://mrdata.usgs.gov/to-json.php?db=sedznpb&id=rec_id&labno=389
326,mrdata_json/sedznpb/373.json,373,Yauricocha,-75.753888888889,-12.393611111111,CAig,https://mrdata.usgs.gov/to-json.php?db=sedznpb&id=rec_id&labno=373
327,mrdata_json/sedznpb/355.json,355,Snertingdal,10.385833333333,60.88,SS,https://mrdata.usgs.gov/to-json.php?db=sedznpb&id=rec_id&labno=355
328,mrdata_json/sedznpb/32.json,32,McArthur River,136.99583333333,-16.432777777778,SHam,https://mrdata.usgs.gov/to-json.php?db=sedznpb&id=rec_id&labno=32
329,mrdata_json/sedznpb/290.json,290,Kairakty,73.211944444444,48.462777777778,MLig,https://mrdata.usgs.gov/to-json.php?db=sedznpb&id=rec_id&labno=290
330,mrdata_json/sedznpb/37.json,37,Muldiva,144.56666666667,-17.35,CAig,https://mrdata.usgs.gov/to-json.php?db=sedznpb&id=rec_id&labno=37
331,mrdata_json/sedznpb/30.json,30,Leadville,149.54055555556,-32.020277777778,CAig,https://mrdata.usgs.gov/to-json.php?db=sedznpb&id=rec_id&labno=30
332,mrdata_json/sedznpb/479.json,479,Oswaldo,-108.06944444444,32.818333333333,CAig,https://mrdata.usgs.gov/to-json.php?db=sedznpb&id=rec_id&labno=479
333,mrdata_json/sedznpb/163.json,163,Houhongqiao,111.72,25.3,CAam,https://mrdata.usgs.gov/to-json.php?db=sedznpb&id=rec_id&labno=163
334,mrdata_json/sedznpb/296.json,296,Tekeli,78.861944444444,44.810833333333,SHig,https://mrdata.usgs.gov/to-json.php?db=sedznpb&id=rec_id&labno=296
335,mrdata_json/sedznpb/114.json,114,Mt. Alcoc,-125.40083333333,57.664722222222,SHam,https://mrdata.usgs.gov/to-json.php?db=sedznpb&id=rec_id&labno=114
336,mrdata_json/sedznpb/173.json,173,Maozu,102.98416666667,27.351944444444,CAam,https://mrdata.usgs.gov/to-json.php?db=sedznpb&id=rec_id&labno=173
337,mrdata_json/sedznpb/451.json,451,Central district,-108.08388888889,32.809444444444,CAig,https://mrdata.usgs.gov/to-json.php?db=sedznpb&id=rec_id&labno=451
338,mrdata_json/sedznpb/41.json,41,Pinnacles,141.32916666667,-32.051944444444,MLig,https://mrdata.usgs.gov/to-json.php?db=sedznpb&id=rec_id&labno=41
339,mrdata_json/sedznpb/496.json,496,Tintic–East Tintic,-112.10888888889,39.915555555556,CAig,https://mrdata.usgs.gov/to-json.php?db=sedznpb&id=rec_id&labno=496
340,mrdata_json/sedznpb/2.json,2,Boukdema/Kef Semmah,4.89,36.21,CAam,https://mrdata.usgs.gov/to-json.php?db=sedznpb&id=rec_id&labno=2
341,mrdata_json/sedznpb/45.json,45,Wagon Pass,124.63972222222,-17.171944444444,CAam,https://mrdata.usgs.gov/to-json.php?db=sedznpb&id=rec_id&labno=45
342,mrdata_json/sedznpb/359.json,359,Shekran,66.431666666667,27.8525,SHam,https://mrdata.usgs.gov/to-json.php?db=sedznpb&id=rec_id&labno=359
343,mrdata_json/sedznpb/242.json,242,Emarat,49.608055555556,33.850833333333,CAam,https://mrdata.usgs.gov/to-json.php?db=sedznpb&id=rec_id&labno=242
344,mrdata_json/sedznpb/219.json,219,Bajta Central,75.266944444445,25.818333333333,CAig,https://mrdata.usgs.gov/to-json.php?db=sedznpb&id=rec_id&labno=219
345,mrdata_json/sedznpb/84.json,84,Craig,-133.35611111111,64.155833333333,CAig,https://mrdata.usgs.gov/to-json.php?db=sedznpb&id=rec_id&labno=84
346,mrdata_json/sedznpb/47.json,47,Bleiberg,13.651666666667,46.625,CAam,https://mrdata.usgs.gov/to-json.php?db=sedznpb&id=rec_id&labno=47
347,mrdata_json/sedznpb/217.json,217,El Mochito,-88.075,14.861666666667,CAig,https://mrdata.usgs.gov/to-json.php?db=sedznpb&id=rec_id&labno=217
348,mrdata_json/sedznpb/189.json,189,Yinmusi,106.84972222222,33.751388888889,SHam,https://mrdata.usgs.gov/to-json.php?db=sedznpb&id=rec_id&labno=189
349,mrdata_json/sedznpb/408.json,408,Uljin,129.2825,37.079444444444,CAig,https://mrdata.usgs.gov/to-json.php?db=sedznpb&id=rec_id&labno=408
350,mrdata_json/sedznpb/499.json,499,Triumph,-114.25666666667,44.645555555556,SHig,https://mrdata.usgs.gov/to-json.php?db=sedznpb&id=rec_id&labno=499
351,mrdata_json/sedznpb/398.json,398,Big Syncline,18.789444444444,-29.214722222222,MLig,https://mrdata.usgs.gov/to-json.php?db=sedznpb&id=rec_id&labno=398
352,mrdata_json/sedznpb/465.json,465,Groundhog,-108.105,32.768888888889,CAig,https://mrdata.usgs.gov/to-json.php?db=sedznpb&id=rec_id&labno=465
353,mrdata_json/sedznpb/291.json,291,Karagaily,75.708611111111,49.369166666667,MLig,https://mrdata.usgs.gov/to-json.php?db=sedznpb&id=rec_id&labno=291
354,mrdata_json/sedznpb/233.json,233,Sargipali,83.920555555555,22.051944444444,SHig,https://mrdata.usgs.gov/to-json.php?db=sedznpb&id=rec_id&labno=233
355,mrdata_json/sedznpb/195.json,195,Santa Lucia,-83.955833333333,22.642777777778,SHam,https://mrdata.usgs.gov/to-json.php?db=sedznpb&id=rec_id&labno=195
356,mrdata_json/sedznpb/64.json,64,Três Irmãs,-41.803333333333,-11.325,CAam,https://mrdata.usgs.gov/to-json.php?db=sedznpb&id=rec_id&labno=64
357,mrdata_json/sedznpb/391.json,391,Blagodat,22.240555555556,42.526388888889,SHig,https://mrdata.usgs.gov/to-json.php?db=sedznpb&id=rec_id&labno=391
358,mrdata_json/sedznpb/220.json,220,Corubathan,88.651388888889,26.975,MLme,https://mrdata.usgs.gov/to-json.php?db=sedznpb&id=rec_id&labno=220
359,mrdata_json/sedznpb/453.json,453,Central Tennessee,-85.933333333333,36.195277777778,CAam,https://mrdata.usgs.gov/to-json.php?db=sedznpb&id=rec_id&labno=453
360,mrdata_json/sedznpb/182.json,182,Tianbaoshan,128.98833333333,42.917222222222,CAig,https://mrdata.usgs.gov/to-json.php?db=sedznpb&id=rec_id&labno=182
361,mrdata_json/sedznpb/364.json,364,Colquijirca,-76.271666666667,-10.752222222222,CAig,https://mrdata.usgs.gov/to-json.php?db=sedznpb&id=rec_id&labno=364
362,mrdata_json/sedznpb/216.json,216,Nunngarut,-51.233888888889,71.096111111111,CAme,https://mrdata.usgs.gov/to-json.php?db=sedznpb&id=rec_id&labno=216
363,mrdata_json/sedznpb/406.json,406,Janggun,129.06388888889,36.8575,CAig,https://mrdata.usgs.gov/to-json.php?db=sedznpb&id=rec_id&labno=406
364,mrdata_json/sedznpb/127.json,127,River Jordan,-118.41222222222,51.125,MLig,https://mrdata.usgs.gov/to-json.php?db=sedznpb&id=rec_id&labno=127
365,mrdata_json/sedznpb/294.json,294,Shalkiya,67.374444444445,43.960833333333,CAam,https://mrdata.usgs.gov/to-json.php?db=sedznpb&id=rec_id&labno=294
366,mrdata_json/sedznpb/492.json,492,Stockton,-112.35361111111,40.472222222222,CAig,https://mrdata.usgs.gov/to-json.php?db=sedznpb&id=rec_id&labno=492
367,mrdata_json/sedznpb/380.json,380,Dal’negorskoe,135.59777777778,44.552777777778,CAig,https://mrdata.usgs.gov/to-json.php?db=sedznpb&id=rec_id&labno=380
368,mrdata_json/sedznpb/252.json,252,Carrickittle,-8.3383333333333,52.521111111111,CAam,https://mrdata.usgs.gov/to-json.php?db=sedznpb&id=rec_id&labno=252
369,mrdata_json/sedznpb/413.json,413,Picos de Europa,-4.7866666666667,43.168055555556,CAam,https://mrdata.usgs.gov/to-json.php?db=sedznpb&id=rec_id&labno=413
370,mrdata_json/sedznpb/298.json,298,Ushkatyn III,70.320833333333,48.374444444444,CAig,https://mrdata.usgs.gov/to-json.php?db=sedznpb&id=rec_id&labno=298
371,mrdata_json/sedznpb/109.json,109,Mel,-127.39861111111,60.355277777778,CAam,https://mrdata.usgs.gov/to-json.php?db=sedznpb&id=rec_id&labno=109
372,mrdata_json/sedznpb/493.json,493,Su-Lik,-163.19027777778,68.175,SHam,https://mrdata.usgs.gov/to-json.php?db=sedznpb&id=rec_id&labno=493
373,mrdata_json/sedznpb/494.json,494,Sweetwater,-84.466111111111,35.591111111111,CAam,https://mrdata.usgs.gov/to-json.php?db=sedznpb&id=rec_id&labno=494
374,mrdata_json/sedznpb/246.json,246,Lakan,49.892777777778,33.7375,CAam,https://mrdata.usgs.gov/to-json.php?db=sedznpb&id=rec_id&labno=246
375,mrdata_json/sedznpb/412.json,412,Arditurri,-1.805,43.283888888889,SHig,https://mrdata.usgs.gov/to-json.php?db=sedznpb&id=rec_id&labno=412
376,mrdata_json/sedznpb/318.json,318,Real de Angeles,-101.9125,22.414166666667,SHig,https://mrdata.usgs.gov/to-json.php?db=sedznpb&id=rec_id&labno=318
377,mrdata_json/sedznpb/475.json,475,Mascot-Jefferson City,-83.613055555556,36.076666666667,CAam,https://mrdata.usgs.gov/to-json.php?db=sedznpb&id=rec_id&labno=475
378,mrdata_json/sedznpb/20.json,20,Coxco,136.14972222222,-16.538611111111,CAam,https://mrdata.usgs.gov/to-json.php?db=sedznpb&id=rec_id&labno=20
379,mrdata_json/sedznpb/168.json,168,Jiashengpan,109.33388888889,41.22,CAig,https://mrdata.usgs.gov/to-json.php?db=sedznpb&id=rec_id&labno=168
380,mrdata_json/sedznpb/21.json,21,Dugald River,140.16333333333,-20.247777777778,SHig,https://mrdata.usgs.gov/to-json.php?db=sedznpb&id=rec_id&labno=21
381,mrdata_json/sedznpb/128.json,128,Robb Lake,-123.71305555556,56.93,CAam,https://mrdata.usgs.gov/to-json.php?db=sedznpb&id=rec_id&labno=128
382,mrdata_json/sedznpb/344.json,344,Ganesh Himal,85.120277777778,28.391944444444,CAme,https://mrdata.usgs.gov/to-json.php?db=sedznpb&id=rec_id&labno=344
383,mrdata_json/sedznpb/281.json,281,Nakatatsu,136.57138888889,35.877777777778,CAig,https://mrdata.usgs.gov/to-json.php?db=sedznpb&id=rec_id&labno=281
384,mrdata_json/sedznpb/214.json,214,Black Angel,-51.278055555556,71.126111111111,CAme,https://mrdata.usgs.gov/to-json.php?db=sedznpb&id=rec_id&labno=214
385,mrdata_json/sedznpb/103.json,103,Long Lake,-76.762222222222,44.686388888889,CAig,https://mrdata.usgs.gov/to-json.php?db=sedznpb&id=rec_id&labno=103
386,mrdata_json/sedznpb/247.json,247,Mehdiabad,55.280555555556,31.033055555556,CAam,https://mrdata.usgs.gov/to-json.php?db=sedznpb&id=rec_id&labno=247
387,mrdata_json/sedznpb/452.json,452,Central Missouri,-92.816666666667,38.25,CAam,https://mrdata.usgs.gov/to-json.php?db=sedznpb&id=rec_id&labno=452
388,mrdata_json/sedznpb/363.json,363,Cerro de Pasco,-76.261111111111,-10.6775,CAig,https://mrdata.usgs.gov/to-json.php?db=sedznpb&id=rec_id&labno=363
389,mrdata_json/sedznpb/357.json,357,Gunga,66.534722222222,27.744722222222,SHam,https://mrdata.usgs.gov/to-json.php?db=sedznpb&id=rec_id&labno=357
390,mrdata_json/sedznpb/148.json,148,Bao’an,108.98111111111,25.408611111111,SS,https://mrdata.usgs.gov/to-json.php?db=sedznpb&id=rec_id&labno=148
391,mrdata_json/sedznpb/80.json,80,Clear Lake,-135.14333333333,62.784444444444,SHam,https://mrdata.usgs.gov/to-json.php?db=sedznpb&id=rec_id&labno=80
392,mrdata_json/sedznpb/58.json,58,Fagundes,-46.930555555556,-16.966111111111,CAam,https://mrdata.usgs.gov/to-json.php?db=sedznpb&id=rec_id&labno=58
393,mrdata_json/sedznpb/126.json,126,Ritco,-128.87888888889,60.547777777778,CAig,https://mrdata.usgs.gov/to-json.php?db=sedznpb&id=rec_id&labno=126
394,mrdata_json/sedznpb/445.json,445,Austinville-Ivanhoe,-80.920277777778,36.846944444444,CAam,https://mrdata.usgs.gov/to-json.php?db=sedznpb&id=rec_id&labno=445
395,mrdata_json/sedznpb/111.json,111,Mineral King,-116.425,50.340555555556,CAam,https://mrdata.usgs.gov/to-json.php?db=sedznpb&id=rec_id&labno=111
396,mrdata_json/sedznpb/155.json,155,Dongjiahe,110.46138888889,28.193055555556,CAam,https://mrdata.usgs.gov/to-json.php?db=sedznpb&id=rec_id&labno=155
397,mrdata_json/sedznpb/279.json,279,Magome,139.55305555556,37.073333333333,CAig,https://mrdata.usgs.gov/to-json.php?db=sedznpb&id=rec_id&labno=279
398,mrdata_json/sedznpb/196.json,196,Kipushi,27.245555555556,-11.761111111111,Kipushi,https://mrdata.usgs.gov/to-json.php?db=sedznpb&id=rec_id&labno=196
399,mrdata_json/sedznpb/4.json,4,Mesloula,7.8341666666667,35.871388888889,CAam,https://mrdata.usgs.gov/to-json.php?db=sedznpb&id=rec_id&labno=4
400,mrdata_json/sedznpb/498.json,498,Tri State,-94.65,37.083333333333,CAam,https://mrdata.usgs.gov/to-json.php?db=sedznpb&id=rec_id&labno=498
401,mrdata_json/sedznpb/275.json,275,Tregiovo,11.053333333333,46.438333333333,SS,https://mrdata.usgs.gov/to-json.php?db=sedznpb&id=rec_id&labno=275
402,mrdata_json/sedznpb/123.json,123,Prairie Creek,-124.79694444444,61.555555555556,CAam,https://mrdata.usgs.gov/to-json.php?db=sedznpb&id=rec_id&labno=123
403,mrdata_json/sedznpb/343.json,343,Tsumeb,17.716111111111,-19.239444444444,Kipushi,https://mrdata.usgs.gov/to-json.php?db=sedznpb&id=rec_id&labno=343
404,mrdata_json/sedznpb/302.json,302,Toranica,22.490555555556,42.169444444444,CAig,https://mrdata.usgs.gov/to-json.php?db=sedznpb&id=rec_id&labno=302
405,mrdata_json/sedznpb/262.json,262,Rickardstown,-6.8197222222222,53.191111111111,CAam,https://mrdata.usgs.gov/to-json.php?db=sedznpb&id=rec_id&labno=262
406,mrdata_json/sedznpb/361.json,361,Atacocha,-76.191944444444,-10.578055555556,CAig,https://mrdata.usgs.gov/to-json.php?db=sedznpb&id=rec_id&labno=361
407,mrdata_json/sedznpb/107.json,107,McMillan,-127.94277777778,60.490555555556,SHig,https://mrdata.usgs.gov/to-json.php?db=sedznpb&id=rec_id&labno=107
408,mrdata_json/sedznpb/326.json,326,Tumurtiin Ovoo,113.32638888889,46.782222222222,CAig,https://mrdata.usgs.gov/to-json.php?db=sedznpb&id=rec_id&labno=326
409,mrdata_json/sedznpb/383.json,383,Kholodninskoe,109.91861111111,56.257777777778,SHig,https://mrdata.usgs.gov/to-json.php?db=sedznpb&id=rec_id&labno=383
410,mrdata_json/sedznpb/476.json,476,Mine LaMotte- Fredericktown,-90.275,37.5475,CAam,https://mrdata.usgs.gov/to-json.php?db=sedznpb&id=rec_id&labno=476
411,mrdata_json/sedznpb/387.json,387,Rassokhinskoe,93.335277777778,58.386666666667,SHam,https://mrdata.usgs.gov/to-json.php?db=sedznpb&id=rec_id&labno=387
412,mrdata_json/sedznpb/462.json,462,Friedensville,-75.405,40.554444444444,CAam,https://mrdata.usgs.gov/to-json.php?db=sedznpb&id=rec_id&labno=462
413,mrdata_json/sedznpb/334.json,334,Berg Aukas,18.2675,-19.516111111111,CAam,https://mrdata.usgs.gov/to-json.php?db=sedznpb&id=rec_id&labno=334
414,mrdata_json/sedznpb/48.json,48,Lafatsch,11.448888888889,47.360555555556,CAam,https://mrdata.usgs.gov/to-json.php?db=sedznpb&id=rec_id&labno=48
415,mrdata_json/sedznpb/331.json,331,Mibladen,-4.6325,32.766388888889,CAam,https://mrdata.usgs.gov/to-json.php?db=sedznpb&id=rec_id&labno=331
416,mrdata_json/sedznpb/124.json,124,Reeves MacDonald,-117.34416666667,49.030277777778,CAam,https://mrdata.usgs.gov/to-json.php?db=sedznpb&id=rec_id&labno=124
417,mrdata_json/sedznpb/404.json,404,Putsberg,19.690555555556,-29.323611111111,MLig,https://mrdata.usgs.gov/to-json.php?db=sedznpb&id=rec_id&labno=404
418,mrdata_json/sedznpb/207.json,207,Mechernich,6.6116666666667,50.572777777778,SS,https://mrdata.usgs.gov/to-json.php?db=sedznpb&id=rec_id&labno=207
419,mrdata_json/sedznpb/172.json,172,Luoba,105.07055555556,34.322222222222,CAam,https://mrdata.usgs.gov/to-json.php?db=sedznpb&id=rec_id&labno=172
420,mrdata_json/sedznpb/8.json,8,Yanzi,-67.327777777778,-31.405,CAig,https://mrdata.usgs.gov/to-json.php?db=sedznpb&id=rec_id&labno=8
421,mrdata_json/sedznpb/502.json,502,Viburnum Trend,-91.1225,37.605277777778,CAam,https://mrdata.usgs.gov/to-json.php?db=sedznpb&id=rec_id&labno=502
422,mrdata_json/sedznpb/342.json,342,Tsongoari,13.407777777778,-18.780555555556,MLig,https://mrdata.usgs.gov/to-json.php?db=sedznpb&id=rec_id&labno=342
423,mrdata_json/sedznpb/146.json,146,Baiyinnuo,118.88777777778,44.449166666667,CAig,https://mrdata.usgs.gov/to-json.php?db=sedznpb&id=rec_id&labno=146
424,mrdata_json/sedznpb/119.json,119,Paradise,-116.30166666667,50.471666666667,CAig,https://mrdata.usgs.gov/to-json.php?db=sedznpb&id=rec_id&labno=119
425,mrdata_json/sedznpb/324.json,324,Zimapan,-99.400277777778,20.738333333333,CAig,https://mrdata.usgs.gov/to-json.php?db=sedznpb&id=rec_id&labno=324
426,mrdata_json/sedznpb/139.json,139,Zip,-126.91194444444,50.362777777778,CAig,https://mrdata.usgs.gov/to-json.php?db=sedznpb&id=rec_id&labno=139
427,mrdata_json/sedznpb/86.json,86,Duncan,-116.95138888889,50.363888888889,CAam,https://mrdata.usgs.gov/to-json.php?db=sedznpb&id=rec_id&labno=86
428,mrdata_json/sedznpb/161.json,161,Guantangzhi,118.23305555556,40.848055555556,CAam,https://mrdata.usgs.gov/to-json.php?db=sedznpb&id=rec_id&labno=161
429,mrdata_json/sedznpb/353.json,353,Osen,11.778055555556,61.303611111111,SS,https://mrdata.usgs.gov/to-json.php?db=sedznpb&id=rec_id&labno=353
430,mrdata_json/sedznpb/10.json,10,Admiral Bay,122.28,-19.226944444444,CAam,https://mrdata.usgs.gov/to-json.php?db=sedznpb&id=rec_id&labno=10
431,mrdata_json/sedznpb/170.json,170,Kuangshanchang,103.70027777778,26.633888888889,CAig,https://mrdata.usgs.gov/to-json.php?db=sedznpb&id=rec_id&labno=170
432,mrdata_json/sedznpb/62.json,62,Panelas,-48.870833333333,-24.688333333333,CAig,https://mrdata.usgs.gov/to-json.php?db=sedznpb&id=rec_id&labno=62
433,mrdata_json/sedznpb/394.json,394,Trepča,20.921111111111,42.934444444445,CAig,https://mrdata.usgs.gov/to-json.php?db=sedznpb&id=rec_id&labno=394
434,mrdata_json/sedznpb/241.json,241,Anjireh-Vejin,51.148888888889,32.730555555556,CAam,https://mrdata.usgs.gov/to-json.php?db=sedznpb&id=rec_id&labno=241
435,mrdata_json/sedznpb/282.json,282,Nikko/Doukura,139.57111111111,36.987222222222,CAig,https://mrdata.usgs.gov/to-json.php?db=sedznpb&id=rec_id&labno=282
436,mrdata_json/sedznpb/459.json,459,Eureka,-115.98555555556,39.505555555556,CAig,https://mrdata.usgs.gov/to-json.php?db=sedznpb&id=rec_id&labno=459
437,mrdata_json/sedznpb/224.json,224,Kayar,74.686388888889,26.589444444444,MLig,https://mrdata.usgs.gov/to-json.php?db=sedznpb&id=rec_id&labno=224
438,mrdata_json/sedznpb/314.json,314,Nuestra Señora,-106.60027777778,24.400833333333,CAig,https://mrdata.usgs.gov/to-json.php?db=sedznpb&id=rec_id&labno=314
439,mrdata_json/sedznpb/236.json,236,Zawar,73.716111111111,24.363611111111,CAme,https://mrdata.usgs.gov/to-json.php?db=sedznpb&id=rec_id&labno=236
440,mrdata_json/sedznpb/430.json,430,Fedj-el Adoum,9.1041666666667,36.378888888889,CAam,https://mrdata.usgs.gov/to-json.php?db=sedznpb&id=rec_id&labno=430
441,mrdata_json/sedznpb/369.json,369,San Gregorio,-76.271111111111,-10.790555555556,CAig,https://mrdata.usgs.gov/to-json.php?db=sedznpb&id=rec_id&labno=369
442,mrdata_json/sedznpb/276.json,276,Chichibu,138.92638888889,35.984444444444,CAig,https://mrdata.usgs.gov/to-json.php?db=sedznpb&id=rec_id&labno=276
443,mrdata_json/sedznpb/501.json,501,Van Stone,-117.75666666667,48.760555555556,CAig,https://mrdata.usgs.gov/to-json.php?db=sedznpb&id=rec_id&labno=501
444,mrdata_json/sedznpb/429.json,429,Djebba,9.0861111111111,36.462777777778,CAam,https://mrdata.usgs.gov/to-json.php?db=sedznpb&id=rec_id&labno=429
445,mrdata_json/sedznpb/309.json,309,La Encantada,-102.57777777778,28.365833333333,CAig,https://mrdata.usgs.gov/to-json.php?db=sedznpb&id=rec_id&labno=309
446,mrdata_json/sedznpb/186.json,186,Xidonggou,109.14916666667,33.098333333333,CAam,https://mrdata.usgs.gov/to-json.php?db=sedznpb&id=rec_id&labno=186
447,mrdata_json/sedznpb/460.json,460,Fountain Run,-85.940555555556,36.723888888889,CAam,https://mrdata.usgs.gov/to-json.php?db=sedznpb&id=rec_id&labno=460
448,mrdata_json/sedznpb/56.json,56,Caboclo,-41.537222222222,-9.9080555555556,CAam,https://mrdata.usgs.gov/to-json.php?db=sedznpb&id=rec_id&labno=56
449,mrdata_json/sedznpb/185.json,185,Weiquan,91.731944444444,41.884166666667,CAig,https://mrdata.usgs.gov/to-json.php?db=sedznpb&id=rec_id&labno=185
450,mrdata_json/sedznpb/270.json,270,Oridda,8.56,39.389166666667,CAig,https://mrdata.usgs.gov/to-json.php?db=sedznpb&id=rec_id&labno=270
451,mrdata_json/sedznpb/14.json,14,Bulman,134.41,-13.42,CAam,https://mrdata.usgs.gov/to-json.php?db=sedznpb&id=rec_id&labno=14
452,mrdata_json/sedznpb/134.json,134,Tom,-130.14444444444,63.164722222222,SHig,https://mrdata.usgs.gov/to-json.php?db=sedznpb&id=rec_id&labno=134
453,mrdata_json/sedznpb/135.json,135,Upton,-72.67,45.68,CAam,https://mrdata.usgs.gov/to-json.php?db=sedznpb&id=rec_id&labno=135
454,mrdata_json/sedznpb/450.json,450,Burkesville,-85.351944444444,36.764722222222,CAam,https://mrdata.usgs.gov/to-json.php?db=sedznpb&id=rec_id&labno=450
455,mrdata_json/sedznpb/426.json,426,Padaeng,98.661944444444,16.661388888889,CAam,https://mrdata.usgs.gov/to-json.php?db=sedznpb&id=rec_id&labno=426
456,mrdata_json/sedznpb/292.json,292,Mirgalimsay,68.461944444444,43.507777777778,CAam,https://mrdata.usgs.gov/to-json.php?db=sedznpb&id=rec_id&labno=292
457,mrdata_json/sedznpb/439.json,439,Ben Eagach,-3.8719444444444,56.685277777778,MLme,https://mrdata.usgs.gov/to-json.php?db=sedznpb&id=rec_id&labno=439
458,mrdata_json/sedznpb/157.json,157,Fankou,113.60138888889,25.096111111111,CAam,https://mrdata.usgs.gov/to-json.php?db=sedznpb&id=rec_id&labno=157
459,mrdata_json/sedznpb/311.json,311,La Reforma,-108.1725,26.947222222222,CAig,https://mrdata.usgs.gov/to-json.php?db=sedznpb&id=rec_id&labno=311
460,mrdata_json/sedznpb/67.json,67,Sedmochislenitsi,23.475833333333,43.143611111111,CAig,https://mrdata.usgs.gov/to-json.php?db=sedznpb&id=rec_id&labno=67
461,mrdata_json/sedznpb/379.json,379,Blagodatskoe,119.55444444444,51.272222222222,CAig,https://mrdata.usgs.gov/to-json.php?db=sedznpb&id=rec_id&labno=379
462,mrdata_json/sedznpb/350.json,350,Konnerudkollen,10.125,59.735,CAig,https://mrdata.usgs.gov/to-json.php?db=sedznpb&id=rec_id&labno=350
463,mrdata_json/sedznpb/328.json,328,Ulaan,114.09222222222,49.084166666667,CAig,https://mrdata.usgs.gov/to-json.php?db=sedznpb&id=rec_id&labno=328
464,mrdata_json/sedznpb/194.json,194,Nieves,-83.949166666667,22.570555555556,SHam,https://mrdata.usgs.gov/to-json.php?db=sedznpb&id=rec_id&labno=194
465,mrdata_json/sedznpb/505.json,505,Uchkulach,67.276111111111,40.529166666667,CAig,https://mrdata.usgs.gov/to-json.php?db=sedznpb&id=rec_id&labno=505
466,mrdata_json/sedznpb/221.json,221,Devpura/South Dedwas,74.617777777778,25.397777777778,MLme,https://mrdata.usgs.gov/to-json.php?db=sedznpb&id=rec_id&labno=221
467,mrdata_json/sedznpb/301.json,301,Sasa,22.536666666667,42.061666666667,CAig,https://mrdata.usgs.gov/to-json.php?db=sedznpb&id=rec_id&labno=301
468,mrdata_json/sedznpb/117.json,117,New Calumet,-76.677777777778,45.700555555556,MLig,https://mrdata.usgs.gov/to-json.php?db=sedznpb&id=rec_id&labno=117
469,mrdata_json/sedznpb/374.json,374,Thanksgiving,120.60361111111,16.369722222222,CAig,https://mrdata.usgs.gov/to-json.php?db=sedznpb&id=rec_id&labno=374
470,mrdata_json/sedznpb/234.json,234,Sawar/Tikhi,75.219166666667,25.752222222222,CAig,https://mrdata.usgs.gov/to-json.php?db=sedznpb&id=rec_id&labno=234
471,mrdata_json/sedznpb/411.json,411,Antonina/Santa Barbara,-6.6002777777778,42.516111111111,CAig,https://mrdata.usgs.gov/to-json.php?db=sedznpb&id=rec_id&labno=411
472,mrdata_json/sedznpb/271.json,271,Raibl,13.571388888889,46.441111111111,CAam,https://mrdata.usgs.gov/to-json.php?db=sedznpb&id=rec_id&labno=271
473,mrdata_json/sedznpb/330.json,330,Bou-Sellam,-4.0686111111111,32.65,SS,https://mrdata.usgs.gov/to-json.php?db=sedznpb&id=rec_id&labno=330
474,mrdata_json/sedznpb/74.json,74,Blende,-134.66666666667,64.4,CAig,https://mrdata.usgs.gov/to-json.php?db=sedznpb&id=rec_id&labno=74
475,mrdata_json/sedznpb/435.json,435,Demirboku,28.481666666667,39.59,CAig,https://mrdata.usgs.gov/to-json.php?db=sedznpb&id=rec_id&labno=435
476,mrdata_json/sedznpb/209.json,209,Oberpfalz,11.934722222222,49.609444444444,SS,https://mrdata.usgs.gov/to-json.php?db=sedznpb&id=rec_id&labno=209
477,mrdata_json/sedznpb/34.json,34,Mount Bonnie,131.55027777778,-13.544444444444,SHig,https://mrdata.usgs.gov/to-json.php?db=sedznpb&id=rec_id&labno=34
478,mrdata_json/sedznpb/60.json,60,Morro Agudo,-46.820833333333,-17.503888888889,CAam,https://mrdata.usgs.gov/to-json.php?db=sedznpb&id=rec_id&labno=60
479,mrdata_json/sedznpb/61.json,61,Nova Redenção,-41.106944444444,-12.796666666667,CAam,https://mrdata.usgs.gov/to-json.php?db=sedznpb&id=rec_id&labno=61
480,mrdata_json/sedznpb/77.json,77,Cadieux,-76.704722222222,45.417777777778,CAig,https://mrdata.usgs.gov/to-json.php?db=sedznpb&id=rec_id&labno=77
481,mrdata_json/sedznpb/256.json,256,Harberton Bridge/Allenwood West,-6.8638888888889,53.283888888889,CAam,https://mrdata.usgs.gov/to-json.php?db=sedznpb&id=rec_id&labno=256
482,mrdata_json/sedznpb/428.json,428,Bou Jabeur,8.28,35.78,CAam,https://mrdata.usgs.gov/to-json.php?db=sedznpb&id=rec_id&labno=428
483,mrdata_json/sedznpb/481.json,481,Park City,-111.45083333333,40.677222222222,CAig,https://mrdata.usgs.gov/to-json.php?db=sedznpb&id=rec_id&labno=481
484,mrdata_json/sedznpb/133.json,133,Swim,-133.03472222222,62.2075,SHig,https://mrdata.usgs.gov/to-json.php?db=sedznpb&id=rec_id&labno=133
485,mrdata_json/sedznpb/138.json,138,Wigwam,-117.96777777778,50.88,CAme,https://mrdata.usgs.gov/to-json.php?db=sedznpb&id=rec_id&labno=138
486,mrdata_json/sedznpb/141.json,141,El Faldeo,-72.475,-47.424166666667,CAig,https://mrdata.usgs.gov/to-json.php?db=sedznpb&id=rec_id&labno=141
487,mrdata_json/sedznpb/419.json,419,Laisvall,17.163888888889,66.149722222222,SS,https://mrdata.usgs.gov/to-json.php?db=sedznpb&id=rec_id&labno=419
488,mrdata_json/sedznpb/90.json,90,Faro,-133.36694444444,62.356666666667,SHig,https://mrdata.usgs.gov/to-json.php?db=sedznpb&id=rec_id&labno=90
489,mrdata_json/sedznpb/258.json,258,Lisheen,-7.7113888888889,52.759166666667,CAam,https://mrdata.usgs.gov/to-json.php?db=sedznpb&id=rec_id&labno=258
490,mrdata_json/sedznpb/381.json,381,Gorevskoe,93.502777777778,58.130555555556,CAig,https://mrdata.usgs.gov/to-json.php?db=sedznpb&id=rec_id&labno=381
491,mrdata_json/sedznpb/506.json,506,Kabwe,28.433055555556,-14.455833333333,CAam,https://mrdata.usgs.gov/to-json.php?db=sedznpb&id=rec_id&labno=506
492,mrdata_json/sedznpb/44.json,44,Twelve Mile Bore,125.85861111111,-18.628333333333,CAam,https://mrdata.usgs.gov/to-json.php?db=sedznpb&id=rec_id&labno=44
493,mrdata_json/sedznpb/28.json,28,King Vol,144.26361111111,-16.934166666667,CAig,https://mrdata.usgs.gov/to-json.php?db=sedznpb&id=rec_id&labno=28
494,mrdata_json/sedznpb/43.json,43,Squirrel Hills,141.0,-21.5,MLig,https://mrdata.usgs.gov/to-json.php?db=sedznpb&id=rec_id&labno=43
495,mrdata_json/sedznpb/27.json,27,Kamarga,138.83333333333,-18.816666666667,CAam,https://mrdata.usgs.gov/to-json.php?db=sedznpb&id=rec_id&labno=27
496,mrdata_json/sedznpb/222.json,222,Ganeshpura,75.243611111111,25.803888888889,CAig,https://mrdata.usgs.gov/to-json.php?db=sedznpb&id=rec_id&labno=222
497,mrdata_json/sedznpb/484.json,484,Pioche,-114.44472222222,37.940833333333,CAig,https://mrdata.usgs.gov/to-json.php?db=sedznpb&id=rec_id&labno=484
498,mrdata_json/sedznpb/305.json,305,Catorce,-100.88,23.689444444444,CAig,https://mrdata.usgs.gov/to-json.php?db=sedznpb&id=rec_id&labno=305
499,mrdata_json/sedznpb/409.json,409,Yeonhwa I,129.02138888889,37.083888888889,CAig,https://mrdata.usgs.gov/to-json.php?db=sedznpb&id=rec_id&labno=409
500,mrdata_json/sedznpb/272.json,272,Salafossa,12.583333333333,46.566944444445,CAam,https://mrdata.usgs.gov/to-json.php?db=sedznpb&id=rec_id&labno=272
501,mrdata_json/sedznpb/482.json,482,Pend Oreille-Metaline,-117.36083333333,48.882222222222,CAam,https://mrdata.usgs.gov/to-json.php?db=sedznpb&id=rec_id&labno=482
502,mrdata_json/sedznpb/11.json,11,Ban Ban,151.96305555556,-25.806388888889,CAig,https://mrdata.usgs.gov/to-json.php?db=sedznpb&id=rec_id&labno=11
503,mrdata_json/sedznpb/414.json,414,Reocin,-4.0847222222222,43.345,CAam,https://mrdata.usgs.gov/to-json.php?db=sedznpb&id=rec_id&labno=414
504,mrdata_json/sedznpb/415.json,415,Troya,-2.2897222222222,43.041666666667,CAam,https://mrdata.usgs.gov/to-json.php?db=sedznpb&id=rec_id&labno=415
505,mrdata_json/sedznpb/5.json,5,Aguilar,-65.716944444444,-23.203611111111,SHig,https://mrdata.usgs.gov/to-json.php?db=sedznpb&id=rec_id&labno=5
