,deposit_id,deposit_name,latitude,longitude,deposit_model,url
0,686,Sardalas,25.7926,10.4503,evaporite,https://mrdata.usgs.gov/to-json.php?db=potash&id=gid&labno=686
1,87,Biserica Slanic,46.25,26.55,halokinetic potash-bearing salt,https://mrdata.usgs.gov/to-json.php?db=potash&id=gid&labno=87
2,166,Deep Springs Lake,37.2738,-118.0451,potash-bearing brine,https://mrdata.usgs.gov/to-json.php?db=potash&id=gid&labno=166
3,223,Flachstockheim,52.084,10.439,halokinetic potash-bearing salt,https://mrdata.usgs.gov/to-json.php?db=potash&id=gid&labno=223
4,480,Modrych,49.3181,23.4804,halokinetic potash-bearing salt,https://mrdata.usgs.gov/to-json.php?db=potash&id=gid&labno=480
5,490,Mosqueiro area,-11.0167,-37.1833,stratabound potash-bearing salt,https://mrdata.usgs.gov/to-json.php?db=potash&id=gid&labno=490
6,491,Mount Sdom,31.08,35.39,halokinetic potash-bearing salt,https://mrdata.usgs.gov/to-json.php?db=potash&id=gid&labno=491
7,650,Sabkha el Mehabeul,33.4125,10.8517,evaporite,https://mrdata.usgs.gov/to-json.php?db=potash&id=gid&labno=650
8,821,Tsokar Lake,33.304,78.008,potash-bearing brine,https://mrdata.usgs.gov/to-json.php?db=potash&id=gid&labno=821
9,782,sylvite occurrence,47.4646,58.946,evaporite,https://mrdata.usgs.gov/to-json.php?db=potash&id=gid&labno=782
10,850,Vaughn,42.373,-104.617,evaporite,https://mrdata.usgs.gov/to-json.php?db=potash&id=gid&labno=850
11,50,Balykley,49.5667,45.1667,stratabound potash-bearing salt,https://mrdata.usgs.gov/to-json.php?db=potash&id=gid&labno=50
12,90,Boevogor,51.1025,54.9497,halokinetic potash-bearing salt,https://mrdata.usgs.gov/to-json.php?db=potash&id=gid&labno=90
13,94,Bolganmola,49.225,49.597,halokinetic potash-bearing salt,https://mrdata.usgs.gov/to-json.php?db=potash&id=gid&labno=94
14,110,Bury No. 1,-25.0444,145.6056,stratabound potash-bearing salt,https://mrdata.usgs.gov/to-json.php?db=potash&id=gid&labno=110
15,154,Dachaidan,37.83,95.23,potash-bearing brine,https://mrdata.usgs.gov/to-json.php?db=potash&id=gid&labno=154
16,157,Dangxiongcuo,31.5772,86.7268,potash-bearing brine,https://mrdata.usgs.gov/to-json.php?db=potash&id=gid&labno=157
17,177,Dologoluka,49.1682,23.6856,halokinetic potash-bearing salt,https://mrdata.usgs.gov/to-json.php?db=potash&id=gid&labno=177
18,229,Fuerti,39.5167,9.0167,not determined,https://mrdata.usgs.gov/to-json.php?db=potash&id=gid&labno=229
19,233,Gas Hure,38.1333,90.75,potash-bearing brine,https://mrdata.usgs.gov/to-json.php?db=potash&id=gid&labno=233
20,279,Havre-Aubert,47.235,-61.948,halokinetic potash-bearing salt,https://mrdata.usgs.gov/to-json.php?db=potash&id=gid&labno=279
21,280,Hecla Day,32.2896,-103.7813,stratabound potash-bearing salt,https://mrdata.usgs.gov/to-json.php?db=potash&id=gid&labno=280
22,297,Hormuz Island,27.0663,56.4585,halokinetic potash-bearing salt,https://mrdata.usgs.gov/to-json.php?db=potash&id=gid&labno=297
23,324,Jisr Ash Shaddadi,36.0667,40.75,stratabound potash-bearing salt,https://mrdata.usgs.gov/to-json.php?db=potash&id=gid&labno=324
24,340,Kalmius-Toretskaya A,48.6683,36.9578,stratabound potash-bearing salt,https://mrdata.usgs.gov/to-json.php?db=potash&id=gid&labno=340
25,370,Khurghoo,27.5445,56.295,halokinetic potash-bearing salt,https://mrdata.usgs.gov/to-json.php?db=potash&id=gid&labno=370
26,406,Lake Inder,48.4603,51.86,potash-bearing brine,https://mrdata.usgs.gov/to-json.php?db=potash&id=gid&labno=406
27,419,Linevenoe,51.1406,54.1169,halokinetic potash-bearing salt,https://mrdata.usgs.gov/to-json.php?db=potash&id=gid&labno=419
28,465,Mertvosol,51.2747,54.8981,halokinetic potash-bearing salt,https://mrdata.usgs.gov/to-json.php?db=potash&id=gid&labno=465
29,481,Mokrousov,51.293,48.025,stratabound potash-bearing salt,https://mrdata.usgs.gov/to-json.php?db=potash&id=gid&labno=481
30,540,occurrence,48.6678,58.499,evaporite,https://mrdata.usgs.gov/to-json.php?db=potash&id=gid&labno=540
31,583,Petrobras potash occurrence,-3.6626,-58.9041,stratabound potash-bearing salt,https://mrdata.usgs.gov/to-json.php?db=potash&id=gid&labno=583
32,641,Roven,50.7667,46.05,stratabound potash-bearing salt,https://mrdata.usgs.gov/to-json.php?db=potash&id=gid&labno=641
33,670,Salinas Grandes,-23.623,-65.873,potash-bearing brine,https://mrdata.usgs.gov/to-json.php?db=potash&id=gid&labno=670
34,775,Sundukli,38.3449,64.4709,stratabound potash-bearing salt,https://mrdata.usgs.gov/to-json.php?db=potash&id=gid&labno=775
35,798,Tauorga,31.917,15.2,potash-bearing brine,https://mrdata.usgs.gov/to-json.php?db=potash&id=gid&labno=798
36,895,Yartsevo,55.0667,32.6667,evaporite,https://mrdata.usgs.gov/to-json.php?db=potash&id=gid&labno=895
37,920,Zuwarah,32.933,12.067,evaporite,https://mrdata.usgs.gov/to-json.php?db=potash&id=gid&labno=920
38,31,Aneba,-2.796,-58.774,stratabound potash-bearing salt,https://mrdata.usgs.gov/to-json.php?db=potash&id=gid&labno=31
39,923,Mengla,21.4667,101.5833,halokinetic potash-bearing salt,https://mrdata.usgs.gov/to-json.php?db=potash&id=gid&labno=923
40,1,Abganerov,48.1374,44.1059,halokinetic potash-bearing salt,https://mrdata.usgs.gov/to-json.php?db=potash&id=gid&labno=1
41,2,Abu Khammash,33.0484,11.7264,evaporite,https://mrdata.usgs.gov/to-json.php?db=potash&id=gid&labno=2
42,20,Alekseev,50.9667,52.4167,halokinetic potash-bearing salt,https://mrdata.usgs.gov/to-json.php?db=potash&id=gid&labno=20
43,981,Taoudenni,22.667,-3.9833,evaporite,https://mrdata.usgs.gov/to-json.php?db=potash&id=gid&labno=981
44,3,Abu Nigar A,27.3307,33.9083,halokinetic potash-bearing salt,https://mrdata.usgs.gov/to-json.php?db=potash&id=gid&labno=3
45,4,Abu Shaar NE 1,27.446,33.7481,halokinetic potash-bearing salt,https://mrdata.usgs.gov/to-json.php?db=potash&id=gid&labno=4
46,5,Adamtash,38.6581,67.1321,mixed stratabound potash-bearing salt and halokinetic potash-bearing salt,https://mrdata.usgs.gov/to-json.php?db=potash&id=gid&labno=5
47,6,Agedabia,30.6,19.917,evaporite,https://mrdata.usgs.gov/to-json.php?db=potash&id=gid&labno=6
48,7,Agenaise,41.882,1.856,mixed stratabound potash-bearing salt and halokinetic potash-bearing salt,https://mrdata.usgs.gov/to-json.php?db=potash&id=gid&labno=7
49,8,Agua Verde,-25.4,-70.0333,evaporite,https://mrdata.usgs.gov/to-json.php?db=potash&id=gid&labno=8
50,9,Ahnebergen-Hauslingen,52.85,9.333,halokinetic potash-bearing salt,https://mrdata.usgs.gov/to-json.php?db=potash&id=gid&labno=9
51,10,Aizovat,38.967,65.3,stratabound potash-bearing salt,https://mrdata.usgs.gov/to-json.php?db=potash&id=gid&labno=10
52,11,Akbash,38.1703,66.571,mixed stratabound potash-bearing salt and halokinetic potash-bearing salt,https://mrdata.usgs.gov/to-json.php?db=potash&id=gid&labno=11
53,12,Akdzhar,49.35,57.85,halokinetic potash-bearing salt,https://mrdata.usgs.gov/to-json.php?db=potash&id=gid&labno=12
54,13,Akmal,49.359,49.026,halokinetic potash-bearing salt,https://mrdata.usgs.gov/to-json.php?db=potash&id=gid&labno=13
55,46,Bajsak,48.3333,54.25,halokinetic potash-bearing salt,https://mrdata.usgs.gov/to-json.php?db=potash&id=gid&labno=46
56,14,Akrabat,38.2706,66.7906,mixed stratabound potash-bearing salt and halokinetic potash-bearing salt,https://mrdata.usgs.gov/to-json.php?db=potash&id=gid&labno=14
57,15,Aksaray,46.8473,48.0437,halokinetic potash-bearing salt,https://mrdata.usgs.gov/to-json.php?db=potash&id=gid&labno=15
58,16,Akshat,50.4422,57.3172,halokinetic potash-bearing salt,https://mrdata.usgs.gov/to-json.php?db=potash&id=gid&labno=16
59,17,Al Jawi,31.5813,20.3939,evaporite,https://mrdata.usgs.gov/to-json.php?db=potash&id=gid&labno=17
60,18,Al Kufrah,24.1833,23.1333,stratabound potash-bearing salt,https://mrdata.usgs.gov/to-json.php?db=potash&id=gid&labno=18
61,19,Al Qunfudhah,19.1228,41.0856,halokinetic potash-bearing salt,https://mrdata.usgs.gov/to-json.php?db=potash&id=gid&labno=19
62,21,Alex,47.854,7.274,stratabound potash-bearing salt,https://mrdata.usgs.gov/to-json.php?db=potash&id=gid&labno=21
63,22,Alexandershall,50.928,10.056,stratabound potash-bearing salt,https://mrdata.usgs.gov/to-json.php?db=potash&id=gid&labno=22
64,23,Alfa,41.838,1.66,mixed stratabound potash-bearing salt and halokinetic potash-bearing salt,https://mrdata.usgs.gov/to-json.php?db=potash&id=gid&labno=23
65,24,Alimtay,37.749,69.432,halokinetic potash-bearing salt,https://mrdata.usgs.gov/to-json.php?db=potash&id=gid&labno=24
66,25,Allan,51.9318,-106.0744,stratabound potash-bearing salt,https://mrdata.usgs.gov/to-json.php?db=potash&id=gid&labno=25
67,26,Altatinskiy,51.191,49.033,halokinetic potash-bearing salt,https://mrdata.usgs.gov/to-json.php?db=potash&id=gid&labno=26
68,27,Alyaudyn-Tau,38.4,65.55,stratabound potash-bearing salt,https://mrdata.usgs.gov/to-json.php?db=potash&id=gid&labno=27
69,28,Amarloo,32.32,50.83,evaporite,https://mrdata.usgs.gov/to-json.php?db=potash&id=gid&labno=28
70,29,Amax,32.6708,-103.9681,stratabound potash-bearing salt,https://mrdata.usgs.gov/to-json.php?db=potash&id=gid&labno=29
71,30,Amelie,47.794,7.2485,stratabound potash-bearing salt,https://mrdata.usgs.gov/to-json.php?db=potash&id=gid&labno=30
72,32,Anna,47.7954,7.2995,stratabound potash-bearing salt,https://mrdata.usgs.gov/to-json.php?db=potash&id=gid&labno=32
73,33,Anna West,47.7949,7.2964,stratabound potash-bearing salt,https://mrdata.usgs.gov/to-json.php?db=potash&id=gid&labno=33
74,98,Borovski,59.7564,56.8002,stratabound potash-bearing salt,https://mrdata.usgs.gov/to-json.php?db=potash&id=gid&labno=98
75,78,Bestamak,50.0472,57.351,halokinetic potash-bearing salt,https://mrdata.usgs.gov/to-json.php?db=potash&id=gid&labno=78
76,34,Anse-a-la-Cabane,47.387,-61.947,halokinetic potash-bearing salt,https://mrdata.usgs.gov/to-json.php?db=potash&id=gid&labno=34
77,35,Aracaju area,-10.905,-37.0786,stratabound potash-bearing salt,https://mrdata.usgs.gov/to-json.php?db=potash&id=gid&labno=35
78,36,Araltyubessor,49.478,48.239,halokinetic potash-bearing salt,https://mrdata.usgs.gov/to-json.php?db=potash&id=gid&labno=36
79,37,Arari,-3.3997,-58.6631,stratabound potash-bearing salt,https://mrdata.usgs.gov/to-json.php?db=potash&id=gid&labno=37
80,38,Arths Pasture,38.6119,-109.7169,halokinetic potash-bearing salt,https://mrdata.usgs.gov/to-json.php?db=potash&id=gid&labno=38
81,39,Asche-Bulak,49.3606,56.5731,halokinetic potash-bearing salt,https://mrdata.usgs.gov/to-json.php?db=potash&id=gid&labno=39
82,40,Aschersleben,51.7656,11.4276,halokinetic potash-bearing salt,https://mrdata.usgs.gov/to-json.php?db=potash&id=gid&labno=40
83,41,Asse,52.1297,10.6705,halokinetic potash-bearing salt,https://mrdata.usgs.gov/to-json.php?db=potash&id=gid&labno=41
84,42,Assoro,37.617,14.417,halokinetic potash-bearing salt,https://mrdata.usgs.gov/to-json.php?db=potash&id=gid&labno=42
85,43,Astakos 1,38.562,21.114,stratabound potash-bearing salt,https://mrdata.usgs.gov/to-json.php?db=potash&id=gid&labno=43
86,44,Auketaychagyl,48.953,49.968,halokinetic potash-bearing salt,https://mrdata.usgs.gov/to-json.php?db=potash&id=gid&labno=44
87,45,Azikuduk,48.384,52.332,halokinetic potash-bearing salt,https://mrdata.usgs.gov/to-json.php?db=potash&id=gid&labno=45
88,47,Bakhmutskaya,48.6494,37.3419,stratabound potash-bearing salt,https://mrdata.usgs.gov/to-json.php?db=potash&id=gid&labno=47
89,48,Balakhontsevo,59.2589,56.8831,stratabound potash-bearing salt,https://mrdata.usgs.gov/to-json.php?db=potash&id=gid&labno=48
90,49,Baltatesti Cracaoani,47.1064,26.3023,halokinetic potash-bearing salt,https://mrdata.usgs.gov/to-json.php?db=potash&id=gid&labno=49
91,51,Bamnet Narong,15.497,101.687,mixed stratabound potash-bearing salt and halokinetic potash-bearing salt,https://mrdata.usgs.gov/to-json.php?db=potash&id=gid&labno=51
92,52,Barkhannaya,48.537,51.087,halokinetic potash-bearing salt,https://mrdata.usgs.gov/to-json.php?db=potash&id=gid&labno=52
93,53,Barradeel,53.217,5.517,stratabound potash-bearing salt,https://mrdata.usgs.gov/to-json.php?db=potash&id=gid&labno=53
94,54,Bartlett Flat,38.645,-109.8647,halokinetic potash-bearing salt,https://mrdata.usgs.gov/to-json.php?db=potash&id=gid&labno=54
95,55,Barylbaj,48.6667,54.5,halokinetic potash-bearing salt,https://mrdata.usgs.gov/to-json.php?db=potash&id=gid&labno=55
96,56,Baskunchak,48.2025,46.9288,halokinetic potash-bearing salt,https://mrdata.usgs.gov/to-json.php?db=potash&id=gid&labno=56
97,57,Bayovar,-5.689,-80.624,potash-bearing brine,https://mrdata.usgs.gov/to-json.php?db=potash&id=gid&labno=57
98,58,Bazyrev,51.0814,54.4489,halokinetic potash-bearing salt,https://mrdata.usgs.gov/to-json.php?db=potash&id=gid&labno=58
99,59,Beehive Butte,38.5525,-109.8294,halokinetic potash-bearing salt,https://mrdata.usgs.gov/to-json.php?db=potash&id=gid&labno=59
100,60,Beesen-Laublingen,51.717,11.7,halokinetic potash-bearing salt,https://mrdata.usgs.gov/to-json.php?db=potash&id=gid&labno=60
101,61,Behar NE 1,27.7481,33.5515,halokinetic potash-bearing salt,https://mrdata.usgs.gov/to-json.php?db=potash&id=gid&labno=61
102,62,Beienrode-Dorm,52.305,10.824,halokinetic potash-bearing salt,https://mrdata.usgs.gov/to-json.php?db=potash&id=gid&labno=62
103,63,Belesyainak,38.3891,66.4833,mixed stratabound potash-bearing salt and halokinetic potash-bearing salt,https://mrdata.usgs.gov/to-json.php?db=potash&id=gid&labno=63
104,64,Belina Velikaya,49.5294,23.46,halokinetic potash-bearing salt,https://mrdata.usgs.gov/to-json.php?db=potash&id=gid&labno=64
105,79,Bestandigkeit,51.975,10.131,halokinetic potash-bearing salt,https://mrdata.usgs.gov/to-json.php?db=potash&id=gid&labno=79
106,65,Belle-Plaine,50.4295,-105.1976,stratabound potash-bearing salt,https://mrdata.usgs.gov/to-json.php?db=potash&id=gid&labno=65
107,66,Ben Hillal,32.8,-8.3333,mixed stratabound potash-bearing salt and halokinetic potash-bearing salt,https://mrdata.usgs.gov/to-json.php?db=potash&id=gid&labno=66
108,67,Benthe,52.35,9.65,halokinetic potash-bearing salt,https://mrdata.usgs.gov/to-json.php?db=potash&id=gid&labno=67
109,68,Berezniki 1,59.3901,56.7775,stratabound potash-bearing salt,https://mrdata.usgs.gov/to-json.php?db=potash&id=gid&labno=68
110,69,Berezniki 2,59.3448,56.9284,stratabound potash-bearing salt,https://mrdata.usgs.gov/to-json.php?db=potash&id=gid&labno=69
111,70,Berezniki 3,59.2788,56.8435,stratabound potash-bearing salt,https://mrdata.usgs.gov/to-json.php?db=potash&id=gid&labno=70
112,71,Berezniki 4,59.4289,56.8722,stratabound potash-bearing salt,https://mrdata.usgs.gov/to-json.php?db=potash&id=gid&labno=71
113,72,Bergmannssegen-Hugo,52.3464,9.9577,halokinetic potash-bearing salt,https://mrdata.usgs.gov/to-json.php?db=potash&id=gid&labno=72
114,73,Beriain,42.7333,-1.6333,mixed stratabound potash-bearing salt and halokinetic potash-bearing salt,https://mrdata.usgs.gov/to-json.php?db=potash&id=gid&labno=73
115,74,Bernburg,51.775,11.7312,stratabound potash-bearing salt,https://mrdata.usgs.gov/to-json.php?db=potash&id=gid&labno=74
116,75,Bernterode,51.416,10.457,stratabound potash-bearing salt,https://mrdata.usgs.gov/to-json.php?db=potash&id=gid&labno=75
117,76,Berrichid,33.25,-7.4333,mixed stratabound potash-bearing salt and halokinetic potash-bearing salt,https://mrdata.usgs.gov/to-json.php?db=potash&id=gid&labno=76
118,77,Beshkent,38.821,65.653,stratabound potash-bearing salt,https://mrdata.usgs.gov/to-json.php?db=potash&id=gid&labno=77
119,80,Beta,41.824,1.826,mixed stratabound potash-bearing salt and halokinetic potash-bearing salt,https://mrdata.usgs.gov/to-json.php?db=potash&id=gid&labno=80
120,81,Bharusari,29.3083,74.2717,stratabound potash-bearing salt,https://mrdata.usgs.gov/to-json.php?db=potash&id=gid&labno=81
121,82,Big Hill,29.3039,-95.8883,halokinetic potash-bearing salt,https://mrdata.usgs.gov/to-json.php?db=potash&id=gid&labno=82
122,83,Biikzhal,46.8669,54.6636,halokinetic potash-bearing salt,https://mrdata.usgs.gov/to-json.php?db=potash&id=gid&labno=83
123,84,Bilyna Velyka,49.5209,23.5282,halokinetic potash-bearing salt,https://mrdata.usgs.gov/to-json.php?db=potash&id=gid&labno=84
124,85,Bis-Buljuk,47.3333,53.3333,halokinetic potash-bearing salt,https://mrdata.usgs.gov/to-json.php?db=potash&id=gid&labno=85
125,86,Bischofferode,51.4905,10.4149,stratabound potash-bearing salt,https://mrdata.usgs.gov/to-json.php?db=potash&id=gid&labno=86
126,88,Black Mountain,14.2207,40.2869,stratabound potash-bearing salt,https://mrdata.usgs.gov/to-json.php?db=potash&id=gid&labno=88
127,89,Bleicherode,51.4523,10.5976,stratabound potash-bearing salt,https://mrdata.usgs.gov/to-json.php?db=potash&id=gid&labno=89
128,91,Bokeloh,52.4,9.4,halokinetic potash-bearing salt,https://mrdata.usgs.gov/to-json.php?db=potash&id=gid&labno=91
129,92,Bokolo area,-2.646,10.242,stratabound potash-bearing salt,https://mrdata.usgs.gov/to-json.php?db=potash&id=gid&labno=92
130,93,Bolekhov,49.0727,23.859,halokinetic potash-bearing salt,https://mrdata.usgs.gov/to-json.php?db=potash&id=gid&labno=93
131,784,sylvite occurrence,45.5014,57.1419,evaporite,https://mrdata.usgs.gov/to-json.php?db=potash&id=gid&labno=784
132,95,Bolokhov,49.2965,23.9046,halokinetic potash-bearing salt,https://mrdata.usgs.gov/to-json.php?db=potash&id=gid&labno=95
133,96,Bonnie No. 1,-25.0003,145.3669,stratabound potash-bearing salt,https://mrdata.usgs.gov/to-json.php?db=potash&id=gid&labno=96
134,97,Boree No. 1,-24.7589,145.5767,stratabound potash-bearing salt,https://mrdata.usgs.gov/to-json.php?db=potash&id=gid&labno=97
135,99,Borth,51.6,6.55,stratabound potash-bearing salt,https://mrdata.usgs.gov/to-json.php?db=potash&id=gid&labno=99
136,100,Borislav,49.3153,23.4538,halokinetic potash-bearing salt,https://mrdata.usgs.gov/to-json.php?db=potash&id=gid&labno=100
137,101,Boufekrane,33.883,-5.55,mixed stratabound potash-bearing salt and halokinetic potash-bearing salt,https://mrdata.usgs.gov/to-json.php?db=potash&id=gid&labno=101
138,102,Boularderie,46.0753,-60.6439,halokinetic potash-bearing salt,https://mrdata.usgs.gov/to-json.php?db=potash&id=gid&labno=102
139,103,Boulby,54.5524,-0.8251,stratabound potash-bearing salt,https://mrdata.usgs.gov/to-json.php?db=potash&id=gid&labno=103
140,104,Bredenbury,50.9424,-102.0457,stratabound potash-bearing salt,https://mrdata.usgs.gov/to-json.php?db=potash&id=gid&labno=104
141,105,Bryan Mound,28.9164,-95.3772,halokinetic potash-bearing salt,https://mrdata.usgs.gov/to-json.php?db=potash&id=gid&labno=105
142,106,Buggingen,47.8581,7.6195,stratabound potash-bearing salt,https://mrdata.usgs.gov/to-json.php?db=potash&id=gid&labno=106
143,107,Buran,50.9786,54.4647,halokinetic potash-bearing salt,https://mrdata.usgs.gov/to-json.php?db=potash&id=gid&labno=107
144,108,Burbach,52.25,11.09,halokinetic potash-bearing salt,https://mrdata.usgs.gov/to-json.php?db=potash&id=gid&labno=108
145,109,Burr,52.0121,-105.1949,stratabound potash-bearing salt,https://mrdata.usgs.gov/to-json.php?db=potash&id=gid&labno=109
146,111,Buzuluk,52.417,52.25,stratabound potash-bearing salt,https://mrdata.usgs.gov/to-json.php?db=potash&id=gid&labno=111
147,112,Bygelsko-Troizki,59.4297,56.9594,stratabound potash-bearing salt,https://mrdata.usgs.gov/to-json.php?db=potash&id=gid&labno=112
148,128,Chapaev,47.65,44.515,halokinetic potash-bearing salt,https://mrdata.usgs.gov/to-json.php?db=potash&id=gid&labno=128
149,113,Calu,46.8353,26.4374,halokinetic potash-bearing salt,https://mrdata.usgs.gov/to-json.php?db=potash&id=gid&labno=113
150,114,Cane Creek,38.5225,-109.6578,halokinetic potash-bearing salt,https://mrdata.usgs.gov/to-json.php?db=potash&id=gid&labno=114
151,115,Captain Cook 1,48.4025,-58.5291,halokinetic potash-bearing salt,https://mrdata.usgs.gov/to-json.php?db=potash&id=gid&labno=115
152,116,Cardona,41.9045,1.6766,halokinetic potash-bearing salt,https://mrdata.usgs.gov/to-json.php?db=potash&id=gid&labno=116
153,117,Carey,38.0472,-97.8721,stratabound potash-bearing salt,https://mrdata.usgs.gov/to-json.php?db=potash&id=gid&labno=117
154,118,Carlsbad District,32.4903,-103.9375,stratabound potash-bearing salt,https://mrdata.usgs.gov/to-json.php?db=potash&id=gid&labno=118
155,119,Carlsbad-Lea Mine,32.5708,-103.5519,stratabound potash-bearing salt,https://mrdata.usgs.gov/to-json.php?db=potash&id=gid&labno=119
156,120,Carlsfund,51.951,10.108,halokinetic potash-bearing salt,https://mrdata.usgs.gov/to-json.php?db=potash&id=gid&labno=120
157,121,Carmack Potash,38.3358,-108.8726,halokinetic potash-bearing salt,https://mrdata.usgs.gov/to-json.php?db=potash&id=gid&labno=121
158,122,Central Kurgantau,48.548,51.907,halokinetic potash-bearing salt,https://mrdata.usgs.gov/to-json.php?db=potash&id=gid&labno=122
159,123,Cerdac,46.2337,26.4954,halokinetic potash-bearing salt,https://mrdata.usgs.gov/to-json.php?db=potash&id=gid&labno=123
160,124,Cerro Chiuido Sur-Canadon Amarillo,-36.9287,-69.4003,stratabound potash-bearing salt,https://mrdata.usgs.gov/to-json.php?db=potash&id=gid&labno=124
161,125,Cerro Prieto,32.425,-115.2786,potash-bearing brine,https://mrdata.usgs.gov/to-json.php?db=potash&id=gid&labno=125
162,126,Chalaka,32.912,82.513,potash-bearing brine,https://mrdata.usgs.gov/to-json.php?db=potash&id=gid&labno=126
163,127,Chalyklin,51.1667,49.4,halokinetic potash-bearing salt,https://mrdata.usgs.gov/to-json.php?db=potash&id=gid&labno=127
164,129,Chapurin,51.5833,51.0167,stratabound potash-bearing salt,https://mrdata.usgs.gov/to-json.php?db=potash&id=gid&labno=129
165,130,Chashranta,37.5856,66.1969,mixed stratabound potash-bearing salt and halokinetic potash-bearing salt,https://mrdata.usgs.gov/to-json.php?db=potash&id=gid&labno=130
166,131,Chashtepe,39.1991,63.5844,stratabound potash-bearing salt,https://mrdata.usgs.gov/to-json.php?db=potash&id=gid&labno=131
167,132,Chaturaphak-Phiman,15.85,103.55,mixed stratabound potash-bearing salt and halokinetic potash-bearing salt,https://mrdata.usgs.gov/to-json.php?db=potash&id=gid&labno=132
168,133,Chehr Abad,36.9144,47.8589,halokinetic potash-bearing salt,https://mrdata.usgs.gov/to-json.php?db=potash&id=gid&labno=133
169,134,Chelkar,50.5656,51.699,halokinetic potash-bearing salt,https://mrdata.usgs.gov/to-json.php?db=potash&id=gid&labno=134
170,135,Chervonaya Sloboda,52.5237,28.4651,stratabound potash-bearing salt,https://mrdata.usgs.gov/to-json.php?db=potash&id=gid&labno=135
171,136,Chinarev,51.5631,52.4692,halokinetic potash-bearing salt,https://mrdata.usgs.gov/to-json.php?db=potash&id=gid&labno=136
172,137,Chlapcwo,54.7833,18.2833,stratabound potash-bearing salt,https://mrdata.usgs.gov/to-json.php?db=potash&id=gid&labno=137
173,138,Chott Djerid,33.7167,8.6167,potash-bearing brine,https://mrdata.usgs.gov/to-json.php?db=potash&id=gid&labno=138
174,139,Chukhonastov,49.8667,45.1,stratabound potash-bearing salt,https://mrdata.usgs.gov/to-json.php?db=potash&id=gid&labno=139
175,140,Cleveland,45.6478,-61.154,halokinetic potash-bearing salt,https://mrdata.usgs.gov/to-json.php?db=potash&id=gid&labno=140
176,155,Dalangtan,38.5597,91.3939,potash-bearing brine,https://mrdata.usgs.gov/to-json.php?db=potash&id=gid&labno=155
177,141,Clover Hill,45.56,-65.5708,halokinetic potash-bearing salt,https://mrdata.usgs.gov/to-json.php?db=potash&id=gid&labno=141
178,142,Colluli,14.392,40.345,stratabound potash-bearing salt,https://mrdata.usgs.gov/to-json.php?db=potash&id=gid&labno=142
179,143,Colonsay,51.9331,-105.7664,stratabound potash-bearing salt,https://mrdata.usgs.gov/to-json.php?db=potash&id=gid&labno=143
180,144,Conow,53.223,11.331,halokinetic potash-bearing salt,https://mrdata.usgs.gov/to-json.php?db=potash&id=gid&labno=144
181,145,Corvillo,37.631,14.133,halokinetic potash-bearing salt,https://mrdata.usgs.gov/to-json.php?db=potash&id=gid&labno=145
182,146,Cory,52.093,-106.8534,stratabound potash-bearing salt,https://mrdata.usgs.gov/to-json.php?db=potash&id=gid&labno=146
183,147,Cozzo Campana,37.517,14.096,halokinetic potash-bearing salt,https://mrdata.usgs.gov/to-json.php?db=potash&id=gid&labno=147
184,148,Crescent,14.2417,40.2972,stratabound potash-bearing salt,https://mrdata.usgs.gov/to-json.php?db=potash&id=gid&labno=148
185,149,Cucueti Vest,46.3162,26.5528,halokinetic potash-bearing salt,https://mrdata.usgs.gov/to-json.php?db=potash&id=gid&labno=149
186,150,Cucueti-Culmea Berzunti,46.4087,26.6501,halokinetic potash-bearing salt,https://mrdata.usgs.gov/to-json.php?db=potash&id=gid&labno=150
187,151,Cut,46.8836,26.4164,halokinetic potash-bearing salt,https://mrdata.usgs.gov/to-json.php?db=potash&id=gid&labno=151
188,152,Dabiele,37.0192,94.557,potash-bearing brine,https://mrdata.usgs.gov/to-json.php?db=potash&id=gid&labno=152
189,153,Dabusun,36.9166,95.25,potash-bearing brine,https://mrdata.usgs.gov/to-json.php?db=potash&id=gid&labno=153
190,156,Dallol,14.35,40.2333,stratabound potash-bearing salt,https://mrdata.usgs.gov/to-json.php?db=potash&id=gid&labno=156
191,158,Danikil,14.33,40.26,stratabound potash-bearing salt,https://mrdata.usgs.gov/to-json.php?db=potash&id=gid&labno=158
192,159,Darasinsky,52.9,27.78,stratabound potash-bearing salt,https://mrdata.usgs.gov/to-json.php?db=potash&id=gid&labno=159
193,160,Darbaza,39.2179,64.8379,stratabound potash-bearing salt,https://mrdata.usgs.gov/to-json.php?db=potash&id=gid&labno=160
194,161,Datyi,42.94,45.291,potash-bearing brine,https://mrdata.usgs.gov/to-json.php?db=potash&id=gid&labno=161
195,162,Dawenkou,35.948,117.096,evaporite,https://mrdata.usgs.gov/to-json.php?db=potash&id=gid&labno=162
196,163,Dax,43.7083,-1.0494,halokinetic potash-bearing salt,https://mrdata.usgs.gov/to-json.php?db=potash&id=gid&labno=163
197,164,Day Star,51.517,-104.223,stratabound potash-bearing salt,https://mrdata.usgs.gov/to-json.php?db=potash&id=gid&labno=164
198,165,Dead Man Point,38.6017,-109.9661,halokinetic potash-bearing salt,https://mrdata.usgs.gov/to-json.php?db=potash&id=gid&labno=165
199,167,Delyatin,48.516,24.6776,halokinetic potash-bearing salt,https://mrdata.usgs.gov/to-json.php?db=potash&id=gid&labno=167
200,168,Demidov,49.2333,45.3667,halokinetic potash-bearing salt,https://mrdata.usgs.gov/to-json.php?db=potash&id=gid&labno=168
201,169,Dengizkul,39.095,64.118,stratabound potash-bearing salt,https://mrdata.usgs.gov/to-json.php?db=potash&id=gid&labno=169
202,170,Desdemona,52.012,9.792,halokinetic potash-bearing salt,https://mrdata.usgs.gov/to-json.php?db=potash&id=gid&labno=170
203,171,Dhariala,32.65,73.219,potash-bearing brine,https://mrdata.usgs.gov/to-json.php?db=potash&id=gid&labno=171
204,172,Dietlas,50.817,10.083,stratabound potash-bearing salt,https://mrdata.usgs.gov/to-json.php?db=potash&id=gid&labno=172
205,173,Dixie Marsh,39.8333,-117.9642,potash-bearing brine,https://mrdata.usgs.gov/to-json.php?db=potash&id=gid&labno=173
206,174,Dobrohostiv,49.2387,23.6266,halokinetic potash-bearing salt,https://mrdata.usgs.gov/to-json.php?db=potash&id=gid&labno=174
207,175,Dolina,51.1465,47.4179,stratabound potash-bearing salt,https://mrdata.usgs.gov/to-json.php?db=potash&id=gid&labno=175
208,176,Dolina,48.9854,23.977,halokinetic potash-bearing salt,https://mrdata.usgs.gov/to-json.php?db=potash&id=gid&labno=176
209,178,Dombrov,49.1887,24.4508,halokinetic potash-bearing salt,https://mrdata.usgs.gov/to-json.php?db=potash&id=gid&labno=178
210,179,Dongling,37.283,94.8287,potash-bearing brine,https://mrdata.usgs.gov/to-json.php?db=potash&id=gid&labno=179
211,180,Donguzsyrt,37.4667,65.4094,mixed stratabound potash-bearing salt and halokinetic potash-bearing salt,https://mrdata.usgs.gov/to-json.php?db=potash&id=gid&labno=180
212,181,Dossor,47.5272,52.9811,halokinetic potash-bearing salt,https://mrdata.usgs.gov/to-json.php?db=potash&id=gid&labno=181
213,182,Doukkala,32.5993,-8.8536,mixed stratabound potash-bearing salt and halokinetic potash-bearing salt,https://mrdata.usgs.gov/to-json.php?db=potash&id=gid&labno=182
214,183,Dragomirov,50.5667,57.1,halokinetic potash-bearing salt,https://mrdata.usgs.gov/to-json.php?db=potash&id=gid&labno=183
215,184,Dripping Spring,38.7542,-109.9414,halokinetic potash-bearing salt,https://mrdata.usgs.gov/to-json.php?db=potash&id=gid&labno=184
216,185,Dubov,49.0556,44.8287,halokinetic potash-bearing salt,https://mrdata.usgs.gov/to-json.php?db=potash&id=gid&labno=185
217,186,Duryman,59.3033,56.9369,stratabound potash-bearing salt,https://mrdata.usgs.gov/to-json.php?db=potash&id=gid&labno=186
218,187,Duz Kand,36.5042,47.8958,halokinetic potash-bearing salt,https://mrdata.usgs.gov/to-json.php?db=potash&id=gid&labno=187
219,188,Dvoryan,50.245,45.275,stratabound potash-bearing salt,https://mrdata.usgs.gov/to-json.php?db=potash&id=gid&labno=188
220,189,Dzhamantau,48.3333,51.8667,halokinetic potash-bearing salt,https://mrdata.usgs.gov/to-json.php?db=potash&id=gid&labno=189
221,190,Dzhambulak,38.8666,66.4006,stratabound potash-bearing salt,https://mrdata.usgs.gov/to-json.php?db=potash&id=gid&labno=190
222,191,Dzhien-Kazgantau,48.585,51.904,halokinetic potash-bearing salt,https://mrdata.usgs.gov/to-json.php?db=potash&id=gid&labno=191
223,235,Gave Khoni,32.0672,52.7697,potash-bearing brine,https://mrdata.usgs.gov/to-json.php?db=potash&id=gid&labno=235
224,192,Eagle,39.691,-106.898,halokinetic potash-bearing salt,https://mrdata.usgs.gov/to-json.php?db=potash&id=gid&labno=192
225,193,East Karail,38.7272,67.0819,mixed stratabound potash-bearing salt and halokinetic potash-bearing salt,https://mrdata.usgs.gov/to-json.php?db=potash&id=gid&labno=193
226,194,East Sharnut,47.607,44.047,halokinetic potash-bearing salt,https://mrdata.usgs.gov/to-json.php?db=potash&id=gid&labno=194
227,195,Eddy,32.5732,-103.9995,stratabound potash-bearing salt,https://mrdata.usgs.gov/to-json.php?db=potash&id=gid&labno=195
228,196,Edri,27.5333,13.15,potash-bearing brine,https://mrdata.usgs.gov/to-json.php?db=potash&id=gid&labno=196
229,197,Ehmen,52.398,10.71,halokinetic potash-bearing salt,https://mrdata.usgs.gov/to-json.php?db=potash&id=gid&labno=197
230,198,Einigkeit,53.045,11.4,halokinetic potash-bearing salt,https://mrdata.usgs.gov/to-json.php?db=potash&id=gid&labno=198
231,199,El Agheila,30.283,19.567,potash-bearing brine,https://mrdata.usgs.gov/to-json.php?db=potash&id=gid&labno=199
232,200,El Lisan,31.283,35.467,halokinetic potash-bearing salt,https://mrdata.usgs.gov/to-json.php?db=potash&id=gid&labno=200
233,201,Elephant Knoll SE,40.2778,-113.7592,potash-bearing brine,https://mrdata.usgs.gov/to-json.php?db=potash&id=gid&labno=201
234,202,Elkhorn,49.915,-101.249,stratabound potash-bearing salt,https://mrdata.usgs.gov/to-json.php?db=potash&id=gid&labno=202
235,203,Elton,49.1348,46.6782,halokinetic potash-bearing salt,https://mrdata.usgs.gov/to-json.php?db=potash&id=gid&labno=203
236,204,Elton North,49.2244,46.6936,halokinetic potash-bearing salt,https://mrdata.usgs.gov/to-json.php?db=potash&id=gid&labno=204
237,205,Elton Ulagan,49.1952,46.8022,halokinetic potash-bearing salt,https://mrdata.usgs.gov/to-json.php?db=potash&id=gid&labno=205
238,236,Gazhenka,59.167,108.35,stratabound potash-bearing salt,https://mrdata.usgs.gov/to-json.php?db=potash&id=gid&labno=236
239,206,Ensisheim,47.8622,7.3355,stratabound potash-bearing salt,https://mrdata.usgs.gov/to-json.php?db=potash&id=gid&labno=206
240,207,Ernst Thalman,50.8215,10.123,stratabound potash-bearing salt,https://mrdata.usgs.gov/to-json.php?db=potash&id=gid&labno=207
241,208,Ershov,51.241,48.209,stratabound potash-bearing salt,https://mrdata.usgs.gov/to-json.php?db=potash&id=gid&labno=208
242,209,Esh El Mellaha,27.7419,33.4049,halokinetic potash-bearing salt,https://mrdata.usgs.gov/to-json.php?db=potash&id=gid&labno=209
243,210,Esparza-Undino,42.75,-1.6833,mixed stratabound potash-bearing salt and halokinetic potash-bearing salt,https://mrdata.usgs.gov/to-json.php?db=potash&id=gid&labno=210
244,211,Etymdag,37.4178,66.2919,mixed stratabound potash-bearing salt and halokinetic potash-bearing salt,https://mrdata.usgs.gov/to-json.php?db=potash&id=gid&labno=211
245,212,Eugene,47.8246,7.327,stratabound potash-bearing salt,https://mrdata.usgs.gov/to-json.php?db=potash&id=gid&labno=212
246,213,Ewing Bank,28.5,-91.0,halokinetic potash-bearing salt,https://mrdata.usgs.gov/to-json.php?db=potash&id=gid&labno=213
247,214,Eyehill Creek,52.256,-110.3519,stratabound potash-bearing salt,https://mrdata.usgs.gov/to-json.php?db=potash&id=gid&labno=214
248,215,Farab,39.1737,63.6076,stratabound potash-bearing salt,https://mrdata.usgs.gov/to-json.php?db=potash&id=gid&labno=215
249,216,Faro,-2.1575,-56.7365,stratabound potash-bearing salt,https://mrdata.usgs.gov/to-json.php?db=potash&id=gid&labno=216
250,217,Fazendinha,-3.7539,-58.8356,stratabound potash-bearing salt,https://mrdata.usgs.gov/to-json.php?db=potash&id=gid&labno=217
251,218,Fernand,47.8014,7.3239,stratabound potash-bearing salt,https://mrdata.usgs.gov/to-json.php?db=potash&id=gid&labno=218
252,249,Girne,49.1989,23.7269,halokinetic potash-bearing salt,https://mrdata.usgs.gov/to-json.php?db=potash&id=gid&labno=249
253,219,FF83-2,28.8222,32.9159,halokinetic potash-bearing salt,https://mrdata.usgs.gov/to-json.php?db=potash&id=gid&labno=219
254,220,FF83-3,28.8232,32.9071,halokinetic potash-bearing salt,https://mrdata.usgs.gov/to-json.php?db=potash&id=gid&labno=220
255,221,Fioristella,37.4833,14.3667,not determined,https://mrdata.usgs.gov/to-json.php?db=potash&id=gid&labno=221
256,222,Fischells Brook,48.3016,-58.564,halokinetic potash-bearing salt,https://mrdata.usgs.gov/to-json.php?db=potash&id=gid&labno=222
257,224,Fort Ellice 2-14-16-28W,50.36,-101.2301,stratabound potash-bearing salt,https://mrdata.usgs.gov/to-json.php?db=potash&id=gid&labno=224
258,484,Morozov,49.05,45.5,halokinetic potash-bearing salt,https://mrdata.usgs.gov/to-json.php?db=potash&id=gid&labno=484
259,225,Friedenshall,51.771,11.7705,stratabound potash-bearing salt,https://mrdata.usgs.gov/to-json.php?db=potash&id=gid&labno=225
260,226,Friedenshall-Bernburg,51.773,11.74,stratabound potash-bearing salt,https://mrdata.usgs.gov/to-json.php?db=potash&id=gid&labno=226
261,227,Friedrichshall,52.3114,9.9591,halokinetic potash-bearing salt,https://mrdata.usgs.gov/to-json.php?db=potash&id=gid&labno=227
262,228,Frumoasa,47.59,25.92,halokinetic potash-bearing salt,https://mrdata.usgs.gov/to-json.php?db=potash&id=gid&labno=228
263,230,Furmanova III,49.66,49.347,halokinetic potash-bearing salt,https://mrdata.usgs.gov/to-json.php?db=potash&id=gid&labno=230
264,231,Galeanu,46.2839,26.6053,halokinetic potash-bearing salt,https://mrdata.usgs.gov/to-json.php?db=potash&id=gid&labno=231
265,232,Gambler 2-14-18-29W,50.5368,-101.3701,stratabound potash-bearing salt,https://mrdata.usgs.gov/to-json.php?db=potash&id=gid&labno=232
266,250,Girsan,38.6167,65.1667,stratabound potash-bearing salt,https://mrdata.usgs.gov/to-json.php?db=potash&id=gid&labno=250
267,234,Gaurdak,37.8847,66.0408,mixed stratabound potash-bearing salt and halokinetic potash-bearing salt,https://mrdata.usgs.gov/to-json.php?db=potash&id=gid&labno=234
268,237,Gebel El Zeit 2,27.9713,33.3821,halokinetic potash-bearing salt,https://mrdata.usgs.gov/to-json.php?db=potash&id=gid&labno=237
269,238,Gebra-Lohra,51.409,10.5726,stratabound potash-bearing salt,https://mrdata.usgs.gov/to-json.php?db=potash&id=gid&labno=238
270,239,GG83-1,28.7826,32.9239,halokinetic potash-bearing salt,https://mrdata.usgs.gov/to-json.php?db=potash&id=gid&labno=239
271,516,Niniev,49.1329,23.7977,halokinetic potash-bearing salt,https://mrdata.usgs.gov/to-json.php?db=potash&id=gid&labno=516
272,240,GG83-2,28.759,32.9159,halokinetic potash-bearing salt,https://mrdata.usgs.gov/to-json.php?db=potash&id=gid&labno=240
273,241,GG83-3,28.7246,32.9154,halokinetic potash-bearing salt,https://mrdata.usgs.gov/to-json.php?db=potash&id=gid&labno=241
274,242,GG83-5,28.7418,32.9015,halokinetic potash-bearing salt,https://mrdata.usgs.gov/to-json.php?db=potash&id=gid&labno=242
275,243,Ghaba,20.92,56.611,halokinetic potash-bearing salt,https://mrdata.usgs.gov/to-json.php?db=potash&id=gid&labno=243
276,244,Ghare Aghaj,37.25,47.6611,halokinetic potash-bearing salt,https://mrdata.usgs.gov/to-json.php?db=potash&id=gid&labno=244
277,245,Ghoi Garmab,35.9292,48.2961,halokinetic potash-bearing salt,https://mrdata.usgs.gov/to-json.php?db=potash&id=gid&labno=245
278,246,Giarabutio,29.667,24.667,stratabound potash-bearing salt,https://mrdata.usgs.gov/to-json.php?db=potash&id=gid&labno=246
279,247,Gilten,52.7111,9.5742,halokinetic potash-bearing salt,https://mrdata.usgs.gov/to-json.php?db=potash&id=gid&labno=247
280,248,Gircoina Pietra Neamt,46.9351,26.3737,halokinetic potash-bearing salt,https://mrdata.usgs.gov/to-json.php?db=potash&id=gid&labno=248
281,251,Gmelinka,50.35,46.9167,halokinetic potash-bearing salt,https://mrdata.usgs.gov/to-json.php?db=potash&id=gid&labno=251
282,252,Gold Hills,40.2378,-113.76,potash-bearing brine,https://mrdata.usgs.gov/to-json.php?db=potash&id=gid&labno=252
283,253,Gorleban,53.0269,11.3482,halokinetic potash-bearing salt,https://mrdata.usgs.gov/to-json.php?db=potash&id=gid&labno=253
284,254,Gorodishche,48.7962,44.4778,halokinetic potash-bearing salt,https://mrdata.usgs.gov/to-json.php?db=potash&id=gid&labno=254
285,255,Gorokhov,52.2101,29.0476,stratabound potash-bearing salt,https://mrdata.usgs.gov/to-json.php?db=potash&id=gid&labno=255
286,256,Grasleben,52.317,11.017,halokinetic potash-bearing salt,https://mrdata.usgs.gov/to-json.php?db=potash&id=gid&labno=256
287,257,Great Salt Lake,41.2169,-112.4989,potash-bearing brine,https://mrdata.usgs.gov/to-json.php?db=potash&id=gid&labno=257
288,258,Greben,51.9333,54.3,stratabound potash-bearing salt,https://mrdata.usgs.gov/to-json.php?db=potash&id=gid&labno=258
289,259,Green Canyon,27.5,-91.0,halokinetic potash-bearing salt,https://mrdata.usgs.gov/to-json.php?db=potash&id=gid&labno=259
290,260,Gremuchiy,51.1734,49.6877,halokinetic potash-bearing salt,https://mrdata.usgs.gov/to-json.php?db=potash&id=gid&labno=260
291,261,Grethem,52.7264,9.5712,halokinetic potash-bearing salt,https://mrdata.usgs.gov/to-json.php?db=potash&id=gid&labno=261
292,262,Grigorev,51.0544,52.9381,halokinetic potash-bearing salt,https://mrdata.usgs.gov/to-json.php?db=potash&id=gid&labno=262
293,263,Gross Rhuden,51.95,10.117,halokinetic potash-bearing salt,https://mrdata.usgs.gov/to-json.php?db=potash&id=gid&labno=263
294,264,Guben,51.95,14.6833,stratabound potash-bearing salt,https://mrdata.usgs.gov/to-json.php?db=potash&id=gid&labno=264
295,265,Gumbulak,38.5798,66.8533,stratabound potash-bearing salt,https://mrdata.usgs.gov/to-json.php?db=potash&id=gid&labno=265
296,266,Gusainsar,28.2486,73.95,stratabound potash-bearing salt,https://mrdata.usgs.gov/to-json.php?db=potash&id=gid&labno=266
297,785,sylvite occurrence,47.2984,59.0863,evaporite,https://mrdata.usgs.gov/to-json.php?db=potash&id=gid&labno=785
298,267,Gypsum Valley,38.0442,-108.6988,halokinetic potash-bearing salt,https://mrdata.usgs.gov/to-json.php?db=potash&id=gid&labno=267
299,268,Gypsum Valley #2,38.1381,-108.9126,halokinetic potash-bearing salt,https://mrdata.usgs.gov/to-json.php?db=potash&id=gid&labno=268
300,269,H and K Potash,40.9292,-112.7131,potash-bearing brine,https://mrdata.usgs.gov/to-json.php?db=potash&id=gid&labno=269
301,270,Habighorst,52.706,10.229,halokinetic potash-bearing salt,https://mrdata.usgs.gov/to-json.php?db=potash&id=gid&labno=270
302,271,Hackel,51.844,11.336,halokinetic potash-bearing salt,https://mrdata.usgs.gov/to-json.php?db=potash&id=gid&labno=271
303,272,Hainrode,51.4167,10.7,stratabound potash-bearing salt,https://mrdata.usgs.gov/to-json.php?db=potash&id=gid&labno=272
304,273,Hamlin Pool No. 1,-26.024,114.2061,stratabound potash-bearing salt,https://mrdata.usgs.gov/to-json.php?db=potash&id=gid&labno=273
305,274,Hamlin Pool No. 2,-26.1474,114.3581,stratabound potash-bearing salt,https://mrdata.usgs.gov/to-json.php?db=potash&id=gid&labno=274
306,275,Hansa-Empelde,52.3472,9.6455,halokinetic potash-bearing salt,https://mrdata.usgs.gov/to-json.php?db=potash&id=gid&labno=275
307,276,Hansa-Silberberg,52.3457,9.6507,halokinetic potash-bearing salt,https://mrdata.usgs.gov/to-json.php?db=potash&id=gid&labno=276
308,277,Harlyberg,51.96,10.58,halokinetic potash-bearing salt,https://mrdata.usgs.gov/to-json.php?db=potash&id=gid&labno=277
309,278,Hattorf,50.8412,9.9788,stratabound potash-bearing salt,https://mrdata.usgs.gov/to-json.php?db=potash&id=gid&labno=278
310,281,Hedwigsburg,52.132,10.585,halokinetic potash-bearing salt,https://mrdata.usgs.gov/to-json.php?db=potash&id=gid&labno=281
311,282,Heimboldshausen,50.841,9.916,stratabound potash-bearing salt,https://mrdata.usgs.gov/to-json.php?db=potash&id=gid&labno=282
312,674,Salton Trough,33.1418,-115.605,potash-bearing brine,https://mrdata.usgs.gov/to-json.php?db=potash&id=gid&labno=674
313,283,Heitersheim,47.8581,7.6195,stratabound potash-bearing salt,https://mrdata.usgs.gov/to-json.php?db=potash&id=gid&labno=283
314,284,Herfa-Neurode,50.881,9.939,stratabound potash-bearing salt,https://mrdata.usgs.gov/to-json.php?db=potash&id=gid&labno=284
315,285,Hershey,43.8299,-85.3599,stratabound potash-bearing salt,https://mrdata.usgs.gov/to-json.php?db=potash&id=gid&labno=285
316,286,Highland's River,48.1218,-58.791,halokinetic potash-bearing salt,https://mrdata.usgs.gov/to-json.php?db=potash&id=gid&labno=286
317,287,Hildesheim,52.1372,9.8999,halokinetic potash-bearing salt,https://mrdata.usgs.gov/to-json.php?db=potash&id=gid&labno=287
318,288,Hildesia,52.0934,9.9035,halokinetic potash-bearing salt,https://mrdata.usgs.gov/to-json.php?db=potash&id=gid&labno=288
319,289,Hobbs,32.5047,-103.7797,stratabound potash-bearing salt,https://mrdata.usgs.gov/to-json.php?db=potash&id=gid&labno=289
320,290,Hodges,32.3085,-103.9488,stratabound potash-bearing salt,https://mrdata.usgs.gov/to-json.php?db=potash&id=gid&labno=290
321,291,Hohenfels,52.292,9.932,halokinetic potash-bearing salt,https://mrdata.usgs.gov/to-json.php?db=potash&id=gid&labno=291
322,292,Hohenzollern,51.927,9.773,stratabound potash-bearing salt,https://mrdata.usgs.gov/to-json.php?db=potash&id=gid&labno=292
323,293,Holbrook,34.75,-109.8333,stratabound potash-bearing salt,https://mrdata.usgs.gov/to-json.php?db=potash&id=gid&labno=293
324,294,Holle,-4.552,12.0879,stratabound potash-bearing salt,https://mrdata.usgs.gov/to-json.php?db=potash&id=gid&labno=294
325,295,Holyn,49.0308,24.2414,halokinetic potash-bearing salt,https://mrdata.usgs.gov/to-json.php?db=potash&id=gid&labno=295
326,296,Hope,52.6153,9.6554,halokinetic potash-bearing salt,https://mrdata.usgs.gov/to-json.php?db=potash&id=gid&labno=296
327,298,Hupstedt,51.3322,10.4258,stratabound potash-bearing salt,https://mrdata.usgs.gov/to-json.php?db=potash&id=gid&labno=298
328,299,Hvornum,56.611,9.705,halokinetic potash-bearing salt,https://mrdata.usgs.gov/to-json.php?db=potash&id=gid&labno=299
329,300,Iletsk,51.1524,55.0007,halokinetic potash-bearing salt,https://mrdata.usgs.gov/to-json.php?db=potash&id=gid&labno=300
330,301,Iljagh,37.0353,47.5558,halokinetic potash-bearing salt,https://mrdata.usgs.gov/to-json.php?db=potash&id=gid&labno=301
331,302,"IMC (T22S, R29E)",32.4169,-103.935,stratabound potash-bearing salt,https://mrdata.usgs.gov/to-json.php?db=potash&id=gid&labno=302
332,303,Imperial Provost 2,52.333,-110.267,stratabound potash-bearing salt,https://mrdata.usgs.gov/to-json.php?db=potash&id=gid&labno=303
333,320,Jaitpura,28.8583,74.05,stratabound potash-bearing salt,https://mrdata.usgs.gov/to-json.php?db=potash&id=gid&labno=320
334,304,Inder,48.5076,51.8567,halokinetic potash-bearing salt,https://mrdata.usgs.gov/to-json.php?db=potash&id=gid&labno=304
335,305,Inder Area III,48.5641,51.8213,halokinetic potash-bearing salt,https://mrdata.usgs.gov/to-json.php?db=potash&id=gid&labno=305
336,306,Inder Area IV,48.5466,51.7905,halokinetic potash-bearing salt,https://mrdata.usgs.gov/to-json.php?db=potash&id=gid&labno=306
337,307,Inder Area XI,48.5973,51.9931,halokinetic potash-bearing salt,https://mrdata.usgs.gov/to-json.php?db=potash&id=gid&labno=307
338,308,Inder Deposit 99,48.536,51.987,halokinetic potash-bearing salt,https://mrdata.usgs.gov/to-json.php?db=potash&id=gid&labno=308
339,309,Inder North,48.5309,51.9106,halokinetic potash-bearing salt,https://mrdata.usgs.gov/to-json.php?db=potash&id=gid&labno=309
340,310,Intrepid East,32.5084,-103.7897,stratabound potash-bearing salt,https://mrdata.usgs.gov/to-json.php?db=potash&id=gid&labno=310
341,329,Juruti,-2.2303,-55.9499,stratabound potash-bearing salt,https://mrdata.usgs.gov/to-json.php?db=potash&id=gid&labno=329
342,786,sylvite occurrence,45.8885,57.1603,evaporite,https://mrdata.usgs.gov/to-json.php?db=potash&id=gid&labno=786
343,311,Intrepid West,32.4847,-103.9386,stratabound potash-bearing salt,https://mrdata.usgs.gov/to-json.php?db=potash&id=gid&labno=311
344,312,Irtek,51.5253,52.6739,halokinetic potash-bearing salt,https://mrdata.usgs.gov/to-json.php?db=potash&id=gid&labno=312
345,313,Ishimbaev,53.4333,56.3,halokinetic potash-bearing salt,https://mrdata.usgs.gov/to-json.php?db=potash&id=gid&labno=313
346,314,Iskine,47.3667,52.6667,halokinetic potash-bearing salt,https://mrdata.usgs.gov/to-json.php?db=potash&id=gid&labno=314
347,315,Issouggare,31.85,-4.8167,mixed stratabound potash-bearing salt and halokinetic potash-bearing salt,https://mrdata.usgs.gov/to-json.php?db=potash&id=gid&labno=315
348,316,Ithrah,31.3803,37.6136,evaporite,https://mrdata.usgs.gov/to-json.php?db=potash&id=gid&labno=316
349,317,Ivano-Frankov,48.9359,24.7354,halokinetic potash-bearing salt,https://mrdata.usgs.gov/to-json.php?db=potash&id=gid&labno=317
350,318,Ivanov,52.417,52.383,stratabound potash-bearing salt,https://mrdata.usgs.gov/to-json.php?db=potash&id=gid&labno=318
351,319,Jabal al Buwanah,24.7494,37.3375,halokinetic potash-bearing salt,https://mrdata.usgs.gov/to-json.php?db=potash&id=gid&labno=319
352,321,James River,45.5607,-62.1261,halokinetic potash-bearing salt,https://mrdata.usgs.gov/to-json.php?db=potash&id=gid&labno=321
353,322,Jansen,51.783,-104.717,stratabound potash-bearing salt,https://mrdata.usgs.gov/to-json.php?db=potash&id=gid&labno=322
354,323,Jessenitz,53.2697,11.0843,halokinetic potash-bearing salt,https://mrdata.usgs.gov/to-json.php?db=potash&id=gid&labno=323
355,325,Johannashall,51.574,11.772,stratabound potash-bearing salt,https://mrdata.usgs.gov/to-json.php?db=potash&id=gid&labno=325
356,326,Joseph-Else,47.7785,7.2314,stratabound potash-bearing salt,https://mrdata.usgs.gov/to-json.php?db=potash&id=gid&labno=326
357,327,Juga,46.6351,26.4786,halokinetic potash-bearing salt,https://mrdata.usgs.gov/to-json.php?db=potash&id=gid&labno=327
358,328,Juldashev,53.2833,55.4333,stratabound potash-bearing salt,https://mrdata.usgs.gov/to-json.php?db=potash&id=gid&labno=328
359,330,Justus I,51.714,9.22,stratabound potash-bearing salt,https://mrdata.usgs.gov/to-json.php?db=potash&id=gid&labno=330
360,331,K-1,50.7277,-101.9316,stratabound potash-bearing salt,https://mrdata.usgs.gov/to-json.php?db=potash&id=gid&labno=331
361,332,K-2,50.6603,-101.845,stratabound potash-bearing salt,https://mrdata.usgs.gov/to-json.php?db=potash&id=gid&labno=332
362,333,K-3,-4.6706,11.9607,stratabound potash-bearing salt,https://mrdata.usgs.gov/to-json.php?db=potash&id=gid&labno=333
363,334,Kahmir,26.95,55.6,halokinetic potash-bearing salt,https://mrdata.usgs.gov/to-json.php?db=potash&id=gid&labno=334
364,335,Kaidak,44.8894,53.5726,halokinetic potash-bearing salt,https://mrdata.usgs.gov/to-json.php?db=potash&id=gid&labno=335
365,336,Kairovka,51.7847,56.5325,halokinetic potash-bearing salt,https://mrdata.usgs.gov/to-json.php?db=potash&id=gid&labno=336
366,337,Kaiseroda,50.837,10.164,stratabound potash-bearing salt,https://mrdata.usgs.gov/to-json.php?db=potash&id=gid&labno=337
367,338,Kalabagh,32.9116,71.5887,halokinetic potash-bearing salt,https://mrdata.usgs.gov/to-json.php?db=potash&id=gid&labno=338
368,339,Kalinovo,52.5657,28.2327,stratabound potash-bearing salt,https://mrdata.usgs.gov/to-json.php?db=potash&id=gid&labno=339
369,341,Kalmius-Toretskaya B,48.3964,37.2395,stratabound potash-bearing salt,https://mrdata.usgs.gov/to-json.php?db=potash&id=gid&labno=341
370,342,Kalush,49.0221,24.3487,halokinetic potash-bearing salt,https://mrdata.usgs.gov/to-json.php?db=potash&id=gid&labno=342
371,343,Kamashi,38.85,65.383,stratabound potash-bearing salt,https://mrdata.usgs.gov/to-json.php?db=potash&id=gid&labno=343
372,344,Kamyshin,50.1,45.4,stratabound potash-bearing salt,https://mrdata.usgs.gov/to-json.php?db=potash&id=gid&labno=344
373,345,Kamyshok,50.2611,48.3611,halokinetic potash-bearing salt,https://mrdata.usgs.gov/to-json.php?db=potash&id=gid&labno=345
374,733,Solotvin,48.7023,24.4276,halokinetic potash-bearing salt,https://mrdata.usgs.gov/to-json.php?db=potash&id=gid&labno=733
375,346,Kantau,38.4667,66.7333,mixed stratabound potash-bearing salt and halokinetic potash-bearing salt,https://mrdata.usgs.gov/to-json.php?db=potash&id=gid&labno=346
376,347,Karabay,38.6004,66.565,mixed stratabound potash-bearing salt and halokinetic potash-bearing salt,https://mrdata.usgs.gov/to-json.php?db=potash&id=gid&labno=347
377,348,Karabek,49.45,51.9333,halokinetic potash-bearing salt,https://mrdata.usgs.gov/to-json.php?db=potash&id=gid&labno=348
378,349,Karabil,37.6828,66.2019,mixed stratabound potash-bearing salt and halokinetic potash-bearing salt,https://mrdata.usgs.gov/to-json.php?db=potash&id=gid&labno=349
379,350,Karabulak-Achaluk,43.3586,44.9034,potash-bearing brine,https://mrdata.usgs.gov/to-json.php?db=potash&id=gid&labno=350
380,351,Karail,38.5142,66.6567,mixed stratabound potash-bearing salt and halokinetic potash-bearing salt,https://mrdata.usgs.gov/to-json.php?db=potash&id=gid&labno=351
381,352,Karakamys-Akkalin group,49.0506,53.0885,halokinetic potash-bearing salt,https://mrdata.usgs.gov/to-json.php?db=potash&id=gid&labno=352
382,353,Karasal,47.769,43.805,halokinetic potash-bearing salt,https://mrdata.usgs.gov/to-json.php?db=potash&id=gid&labno=353
383,354,Karaton,46.4353,53.4864,halokinetic potash-bearing salt,https://mrdata.usgs.gov/to-json.php?db=potash&id=gid&labno=354
384,355,Kardailov,51.5386,53.9042,halokinetic potash-bearing salt,https://mrdata.usgs.gov/to-json.php?db=potash&id=gid&labno=355
385,356,Karlyuk,37.5696,66.3011,mixed stratabound potash-bearing salt and halokinetic potash-bearing salt,https://mrdata.usgs.gov/to-json.php?db=potash&id=gid&labno=356
386,357,Karpen,51.2,47.868,stratabound potash-bearing salt,https://mrdata.usgs.gov/to-json.php?db=potash&id=gid&labno=357
387,358,Karshi,38.8667,65.8,stratabound potash-bearing salt,https://mrdata.usgs.gov/to-json.php?db=potash&id=gid&labno=358
388,359,Kenkiyak,48.6033,57.1219,halokinetic potash-bearing salt,https://mrdata.usgs.gov/to-json.php?db=potash&id=gid&labno=359
389,360,Khamkan,38.0925,66.7388,mixed stratabound potash-bearing salt and halokinetic potash-bearing salt,https://mrdata.usgs.gov/to-json.php?db=potash&id=gid&labno=360
390,361,Kharkinskaya I,48.7333,51.8167,halokinetic potash-bearing salt,https://mrdata.usgs.gov/to-json.php?db=potash&id=gid&labno=361
391,362,Kharkinskaya II,48.7333,51.8167,halokinetic potash-bearing salt,https://mrdata.usgs.gov/to-json.php?db=potash&id=gid&labno=362
392,363,Khauzak,39.1415,63.6689,stratabound potash-bearing salt,https://mrdata.usgs.gov/to-json.php?db=potash&id=gid&labno=363
393,364,Khemisset,33.7667,-6.0333,mixed stratabound potash-bearing salt and halokinetic potash-bearing salt,https://mrdata.usgs.gov/to-json.php?db=potash&id=gid&labno=364
394,365,Khewra,32.6481,73.0086,halokinetic potash-bearing salt,https://mrdata.usgs.gov/to-json.php?db=potash&id=gid&labno=365
395,366,Khodzhaikan,37.573,66.547,mixed stratabound potash-bearing salt and halokinetic potash-bearing salt,https://mrdata.usgs.gov/to-json.php?db=potash&id=gid&labno=366
396,367,Kholmy,51.3193,32.2306,halokinetic potash-bearing salt,https://mrdata.usgs.gov/to-json.php?db=potash&id=gid&labno=367
397,368,Khon Kaen,16.428,102.826,mixed stratabound potash-bearing salt and halokinetic potash-bearing salt,https://mrdata.usgs.gov/to-json.php?db=potash&id=gid&labno=368
398,369,Khour,33.833,55.583,potash-bearing brine,https://mrdata.usgs.gov/to-json.php?db=potash&id=gid&labno=369
399,371,King 1,38.8031,-109.6469,halokinetic potash-bearing salt,https://mrdata.usgs.gov/to-json.php?db=potash&id=gid&labno=371
400,372,Kishtuvan,39.1276,63.3448,stratabound potash-bearing salt,https://mrdata.usgs.gov/to-json.php?db=potash&id=gid&labno=372
401,373,Kleinbodungen,51.4631,10.5366,stratabound potash-bearing salt,https://mrdata.usgs.gov/to-json.php?db=potash&id=gid&labno=373
402,374,Kleinschierstedt,51.7539,11.5672,stratabound potash-bearing salt,https://mrdata.usgs.gov/to-json.php?db=potash&id=gid&labno=374
403,375,Klodawa,52.25,18.9167,halokinetic potash-bearing salt,https://mrdata.usgs.gov/to-json.php?db=potash&id=gid&labno=375
404,376,Kokmiyar,38.0104,66.1356,mixed stratabound potash-bearing salt and halokinetic potash-bearing salt,https://mrdata.usgs.gov/to-json.php?db=potash&id=gid&labno=376
405,377,Komarovichi,52.4733,28.7703,stratabound potash-bearing salt,https://mrdata.usgs.gov/to-json.php?db=potash&id=gid&labno=377
406,378,Komsomolsk,47.32,53.6653,halokinetic potash-bearing salt,https://mrdata.usgs.gov/to-json.php?db=potash&id=gid&labno=378
407,379,Konigshall-Hindenburg,51.6125,9.9983,stratabound potash-bearing salt,https://mrdata.usgs.gov/to-json.php?db=potash&id=gid&labno=379
408,380,Kopatkevichy,52.2997,28.4595,stratabound potash-bearing salt,https://mrdata.usgs.gov/to-json.php?db=potash&id=gid&labno=380
409,381,Koschagyl,46.8458,53.8047,halokinetic potash-bearing salt,https://mrdata.usgs.gov/to-json.php?db=potash&id=gid&labno=381
410,382,KOU-11,-4.8429,11.9199,stratabound potash-bearing salt,https://mrdata.usgs.gov/to-json.php?db=potash&id=gid&labno=382
411,383,Kraja,51.4485,10.5144,stratabound potash-bearing salt,https://mrdata.usgs.gov/to-json.php?db=potash&id=gid&labno=383
412,384,Krasnoarmeysk,48.5119,44.5681,halokinetic potash-bearing salt,https://mrdata.usgs.gov/to-json.php?db=potash&id=gid&labno=384
413,385,Krasnojarka,51.5153,55.316,halokinetic potash-bearing salt,https://mrdata.usgs.gov/to-json.php?db=potash&id=gid&labno=385
414,386,Krasnokholm,51.5958,54.1564,halokinetic potash-bearing salt,https://mrdata.usgs.gov/to-json.php?db=potash&id=gid&labno=386
415,387,Krasnokut,51.245,47.567,stratabound potash-bearing salt,https://mrdata.usgs.gov/to-json.php?db=potash&id=gid&labno=387
416,388,Krotenkovsko-Grigorovskaya,49.489,34.9344,stratabound potash-bearing salt,https://mrdata.usgs.gov/to-json.php?db=potash&id=gid&labno=388
417,389,Krugly,49.2833,51.8667,halokinetic potash-bearing salt,https://mrdata.usgs.gov/to-json.php?db=potash&id=gid&labno=389
418,390,Krugly-Lebyazhin,50.9333,50.6167,halokinetic potash-bearing salt,https://mrdata.usgs.gov/to-json.php?db=potash&id=gid&labno=390
419,391,Kshi-Kurgantau,48.561,51.88,halokinetic potash-bearing salt,https://mrdata.usgs.gov/to-json.php?db=potash&id=gid&labno=391
420,392,Kugitang,37.8791,66.4159,mixed stratabound potash-bearing salt and halokinetic potash-bearing salt,https://mrdata.usgs.gov/to-json.php?db=potash&id=gid&labno=392
421,393,Kultai,38.7183,64.7021,stratabound potash-bearing salt,https://mrdata.usgs.gov/to-json.php?db=potash&id=gid&labno=393
422,394,Kultak,38.75,64.8833,stratabound potash-bearing salt,https://mrdata.usgs.gov/to-json.php?db=potash&id=gid&labno=394
423,395,Kumertau,52.7833,55.8833,halokinetic potash-bearing salt,https://mrdata.usgs.gov/to-json.php?db=potash&id=gid&labno=395
424,396,Kunteyi,38.4528,92.4722,potash-bearing brine,https://mrdata.usgs.gov/to-json.php?db=potash&id=gid&labno=396
425,397,Kurilov,50.723,48.027,halokinetic potash-bearing salt,https://mrdata.usgs.gov/to-json.php?db=potash&id=gid&labno=397
426,398,Kuruksay,38.483,65.9,stratabound potash-bearing salt,https://mrdata.usgs.gov/to-json.php?db=potash&id=gid&labno=398
427,399,Kuttubaj,47.9167,53.0833,halokinetic potash-bearing salt,https://mrdata.usgs.gov/to-json.php?db=potash&id=gid&labno=399
428,400,Kuzhor,44.6154,40.2974,halokinetic potash-bearing salt,https://mrdata.usgs.gov/to-json.php?db=potash&id=gid&labno=400
429,401,Kyzylbayrak,38.5697,67.0047,stratabound potash-bearing salt,https://mrdata.usgs.gov/to-json.php?db=potash&id=gid&labno=401
430,402,Kyzylmazar,37.8999,66.2261,mixed stratabound potash-bearing salt and halokinetic potash-bearing salt,https://mrdata.usgs.gov/to-json.php?db=potash&id=gid&labno=402
431,403,Laba,44.4986,40.8549,halokinetic potash-bearing salt,https://mrdata.usgs.gov/to-json.php?db=potash&id=gid&labno=403
432,404,Lagunas Pastos Grandes,-21.6417,-67.7944,potash-bearing brine,https://mrdata.usgs.gov/to-json.php?db=potash&id=gid&labno=404
433,405,Lake Barlee,-29.1775,119.2502,potash-bearing brine,https://mrdata.usgs.gov/to-json.php?db=potash&id=gid&labno=405
434,407,Lake Katwe,-0.1333,29.8667,potash-bearing brine,https://mrdata.usgs.gov/to-json.php?db=potash&id=gid&labno=407
435,408,Lake Macleod,-24.2207,113.6429,evaporite,https://mrdata.usgs.gov/to-json.php?db=potash&id=gid&labno=408
436,409,Lake Magadi,-1.8667,36.2833,potash-bearing brine,https://mrdata.usgs.gov/to-json.php?db=potash&id=gid&labno=409
437,410,Lake Rezayeh,37.6483,45.6056,potash-bearing brine,https://mrdata.usgs.gov/to-json.php?db=potash&id=gid&labno=410
438,411,Lakhasar,29.1,73.8694,stratabound potash-bearing salt,https://mrdata.usgs.gov/to-json.php?db=potash&id=gid&labno=411
439,412,Lanchin,48.55,24.75,halokinetic potash-bearing salt,https://mrdata.usgs.gov/to-json.php?db=potash&id=gid&labno=412
440,413,Langham,52.381,-106.911,stratabound potash-bearing salt,https://mrdata.usgs.gov/to-json.php?db=potash&id=gid&labno=413
441,414,Lanigan,51.8535,-105.2086,stratabound potash-bearing salt,https://mrdata.usgs.gov/to-json.php?db=potash&id=gid&labno=414
442,415,Lea County Mine,32.5711,-103.804,stratabound potash-bearing salt,https://mrdata.usgs.gov/to-json.php?db=potash&id=gid&labno=415
443,416,Legacy,50.6853,-105.353,stratabound potash-bearing salt,https://mrdata.usgs.gov/to-json.php?db=potash&id=gid&labno=416
444,417,Leinetal,51.909,9.94,halokinetic potash-bearing salt,https://mrdata.usgs.gov/to-json.php?db=potash&id=gid&labno=417
445,449,Marie,47.8307,7.2631,stratabound potash-bearing salt,https://mrdata.usgs.gov/to-json.php?db=potash&id=gid&labno=449
446,418,Leopoldshall,51.8499,11.6062,halokinetic potash-bearing salt,https://mrdata.usgs.gov/to-json.php?db=potash&id=gid&labno=418
447,420,Linievka,51.133,54.117,halokinetic potash-bearing salt,https://mrdata.usgs.gov/to-json.php?db=potash&id=gid&labno=420
448,421,Lisbon Valley,38.1972,-109.2078,halokinetic potash-bearing salt,https://mrdata.usgs.gov/to-json.php?db=potash&id=gid&labno=421
449,422,Llobregat,41.8197,1.9012,mixed stratabound potash-bearing salt and halokinetic potash-bearing salt,https://mrdata.usgs.gov/to-json.php?db=potash&id=gid&labno=422
450,423,Lobodin,49.3667,45.3833,halokinetic potash-bearing salt,https://mrdata.usgs.gov/to-json.php?db=potash&id=gid&labno=423
451,424,Lohberg,51.5381,6.7599,stratabound potash-bearing salt,https://mrdata.usgs.gov/to-json.php?db=potash&id=gid&labno=424
452,425,Long Park,38.2897,-108.8168,halokinetic potash-bearing salt,https://mrdata.usgs.gov/to-json.php?db=potash&id=gid&labno=425
453,426,Lop Nur,40.75,90.9,potash-bearing brine,https://mrdata.usgs.gov/to-json.php?db=potash&id=gid&labno=426
454,427,Lower Tsaritsin,48.442,43.858,stratabound potash-bearing salt,https://mrdata.usgs.gov/to-json.php?db=potash&id=gid&labno=427
455,428,Lubtheen,53.2997,11.0833,halokinetic potash-bearing salt,https://mrdata.usgs.gov/to-json.php?db=potash&id=gid&labno=428
456,429,Luchow,52.967,11.15,halokinetic potash-bearing salt,https://mrdata.usgs.gov/to-json.php?db=potash&id=gid&labno=429
457,430,Ludington,43.9386,-86.4331,potash-bearing brine,https://mrdata.usgs.gov/to-json.php?db=potash&id=gid&labno=430
458,431,Ludwig,51.85,11.7524,stratabound potash-bearing salt,https://mrdata.usgs.gov/to-json.php?db=potash&id=gid&labno=431
459,432,Luneburg,53.238,10.403,halokinetic potash-bearing salt,https://mrdata.usgs.gov/to-json.php?db=potash&id=gid&labno=432
460,433,Lyalimkan,37.9516,66.2675,mixed stratabound potash-bearing salt and halokinetic potash-bearing salt,https://mrdata.usgs.gov/to-json.php?db=potash&id=gid&labno=433
461,434,Lyuban,52.7421,27.9639,stratabound potash-bearing salt,https://mrdata.usgs.gov/to-json.php?db=potash&id=gid&labno=434
462,435,M. Mimiani,37.575,13.928,halokinetic potash-bearing salt,https://mrdata.usgs.gov/to-json.php?db=potash&id=gid&labno=435
463,436,Macintyre Lake,45.6664,-61.2803,halokinetic potash-bearing salt,https://mrdata.usgs.gov/to-json.php?db=potash&id=gid&labno=436
464,437,Madre,37.717,14.334,halokinetic potash-bearing salt,https://mrdata.usgs.gov/to-json.php?db=potash&id=gid&labno=437
465,438,Madrusali,24.833,14.533,stratabound potash-bearing salt,https://mrdata.usgs.gov/to-json.php?db=potash&id=gid&labno=438
466,439,Mahai,38.099,94.499,potash-bearing brine,https://mrdata.usgs.gov/to-json.php?db=potash&id=gid&labno=439
467,440,Makat,47.6511,53.3593,halokinetic potash-bearing salt,https://mrdata.usgs.gov/to-json.php?db=potash&id=gid&labno=440
468,441,Makola,-4.5667,12.1333,stratabound potash-bearing salt,https://mrdata.usgs.gov/to-json.php?db=potash&id=gid&labno=441
469,442,Malagash,45.7943,-63.3542,halokinetic potash-bearing salt,https://mrdata.usgs.gov/to-json.php?db=potash&id=gid&labno=442
470,443,Malagawatch,45.8671,-60.948,halokinetic potash-bearing salt,https://mrdata.usgs.gov/to-json.php?db=potash&id=gid&labno=443
471,444,Malchin,53.745,12.751,halokinetic potash-bearing salt,https://mrdata.usgs.gov/to-json.php?db=potash&id=gid&labno=444
472,445,Malmal,35.375,53.726,halokinetic potash-bearing salt,https://mrdata.usgs.gov/to-json.php?db=potash&id=gid&labno=445
473,446,Mamana,-0.4889,9.9402,stratabound potash-bearing salt,https://mrdata.usgs.gov/to-json.php?db=potash&id=gid&labno=446
474,447,Marada,29.2333,19.2167,evaporite,https://mrdata.usgs.gov/to-json.php?db=potash&id=gid&labno=447
475,448,Mariagluck,52.6924,10.2755,halokinetic potash-bearing salt,https://mrdata.usgs.gov/to-json.php?db=potash&id=gid&labno=448
476,450,Marie-Louise,47.831,7.2606,stratabound potash-bearing salt,https://mrdata.usgs.gov/to-json.php?db=potash&id=gid&labno=450
477,451,Marie-Louise Ouest,47.8325,7.2674,stratabound potash-bearing salt,https://mrdata.usgs.gov/to-json.php?db=potash&id=gid&labno=451
478,452,Marin,43.8825,43.4914,potash-bearing brine,https://mrdata.usgs.gov/to-json.php?db=potash&id=gid&labno=452
479,453,Marin,47.696,44.105,halokinetic potash-bearing salt,https://mrdata.usgs.gov/to-json.php?db=potash&id=gid&labno=453
480,454,Markham,29.0017,-96.0572,halokinetic potash-bearing salt,https://mrdata.usgs.gov/to-json.php?db=potash&id=gid&labno=454
481,787,sylvite occurrence,47.0603,58.5018,evaporite,https://mrdata.usgs.gov/to-json.php?db=potash&id=gid&labno=787
482,455,Markovo,48.6436,24.4668,halokinetic potash-bearing salt,https://mrdata.usgs.gov/to-json.php?db=potash&id=gid&labno=455
483,456,Matenkozha,48.749,52.75,halokinetic potash-bearing salt,https://mrdata.usgs.gov/to-json.php?db=potash&id=gid&labno=456
484,457,Max,47.7873,7.2611,stratabound potash-bearing salt,https://mrdata.usgs.gov/to-json.php?db=potash&id=gid&labno=457
485,458,Mayumba,-3.556,10.912,stratabound potash-bearing salt,https://mrdata.usgs.gov/to-json.php?db=potash&id=gid&labno=458
486,459,Mediouna,33.3667,-7.3333,mixed stratabound potash-bearing salt and halokinetic potash-bearing salt,https://mrdata.usgs.gov/to-json.php?db=potash&id=gid&labno=459
487,460,Megrine,36.7828,10.2203,not determined,https://mrdata.usgs.gov/to-json.php?db=potash&id=gid&labno=460
488,461,Meleuz,52.9613,55.9318,halokinetic potash-bearing salt,https://mrdata.usgs.gov/to-json.php?db=potash&id=gid&labno=461
489,462,Melhe,35.375,53.717,halokinetic potash-bearing salt,https://mrdata.usgs.gov/to-json.php?db=potash&id=gid&labno=462
490,463,Mengo,-4.6691,11.9622,stratabound potash-bearing salt,https://mrdata.usgs.gov/to-json.php?db=potash&id=gid&labno=463
491,464,Menzengraben,50.7928,10.0998,stratabound potash-bearing salt,https://mrdata.usgs.gov/to-json.php?db=potash&id=gid&labno=464
492,466,Mesri,31.85,-4.2833,mixed stratabound potash-bearing salt and halokinetic potash-bearing salt,https://mrdata.usgs.gov/to-json.php?db=potash&id=gid&labno=466
493,467,Mesteacan,46.792,26.4492,halokinetic potash-bearing salt,https://mrdata.usgs.gov/to-json.php?db=potash&id=gid&labno=467
494,468,Metedzhan,38.857,64.2561,stratabound potash-bearing salt,https://mrdata.usgs.gov/to-json.php?db=potash&id=gid&labno=468
495,469,Mianaj,36.9219,47.4583,halokinetic potash-bearing salt,https://mrdata.usgs.gov/to-json.php?db=potash&id=gid&labno=469
496,470,Midland,43.6229,-84.2167,stratabound potash-bearing salt,https://mrdata.usgs.gov/to-json.php?db=potash&id=gid&labno=470
497,471,Mieroszyno,54.7812,18.3548,stratabound potash-bearing salt,https://mrdata.usgs.gov/to-json.php?db=potash&id=gid&labno=471
498,472,Mikhailov,54.7,56.2333,stratabound potash-bearing salt,https://mrdata.usgs.gov/to-json.php?db=potash&id=gid&labno=472
499,473,Milena,37.468,13.764,halokinetic potash-bearing salt,https://mrdata.usgs.gov/to-json.php?db=potash&id=gid&labno=473
500,474,Milestone,50.2394,-104.2639,stratabound potash-bearing salt,https://mrdata.usgs.gov/to-json.php?db=potash&id=gid&labno=474
501,475,Millstream,45.5469,-65.6022,halokinetic potash-bearing salt,https://mrdata.usgs.gov/to-json.php?db=potash&id=gid&labno=475
502,476,Miloradov,51.6167,48.7667,stratabound potash-bearing salt,https://mrdata.usgs.gov/to-json.php?db=potash&id=gid&labno=476
503,477,Mississippi Chemical Company,32.3066,-104.0024,stratabound potash-bearing salt,https://mrdata.usgs.gov/to-json.php?db=potash&id=gid&labno=477
504,478,Moab Canyon,38.6244,-109.6667,halokinetic potash-bearing salt,https://mrdata.usgs.gov/to-json.php?db=potash&id=gid&labno=478
505,479,Mobik,38.665,66.8619,stratabound potash-bearing salt,https://mrdata.usgs.gov/to-json.php?db=potash&id=gid&labno=479
506,482,Molodkov,48.6422,24.5278,halokinetic potash-bearing salt,https://mrdata.usgs.gov/to-json.php?db=potash&id=gid&labno=482
507,483,Montedoro,37.45,13.817,halokinetic potash-bearing salt,https://mrdata.usgs.gov/to-json.php?db=potash&id=gid&labno=483
508,485,Mors,56.8167,8.7333,halokinetic potash-bearing salt,https://mrdata.usgs.gov/to-json.php?db=potash&id=gid&labno=485
509,486,Morshin,49.1818,23.9504,halokinetic potash-bearing salt,https://mrdata.usgs.gov/to-json.php?db=potash&id=gid&labno=486
510,487,Morsleben,52.223,11.103,halokinetic potash-bearing salt,https://mrdata.usgs.gov/to-json.php?db=potash&id=gid&labno=487
511,488,Mosaic,32.335,-103.9282,stratabound potash-bearing salt,https://mrdata.usgs.gov/to-json.php?db=potash&id=gid&labno=488
512,534,Nurpur,32.6667,72.5833,halokinetic potash-bearing salt,https://mrdata.usgs.gov/to-json.php?db=potash&id=gid&labno=534
513,538,occurrence,-4.2432,11.6427,stratabound potash-bearing salt,https://mrdata.usgs.gov/to-json.php?db=potash&id=gid&labno=538
514,489,Mosaic Nash Draw,32.3501,-103.8852,stratabound potash-bearing salt,https://mrdata.usgs.gov/to-json.php?db=potash&id=gid&labno=489
515,492,Mozyr,52.0225,29.0951,stratabound potash-bearing salt,https://mrdata.usgs.gov/to-json.php?db=potash&id=gid&labno=492
516,493,Muhlwarts,50.8139,9.9762,stratabound potash-bearing salt,https://mrdata.usgs.gov/to-json.php?db=potash&id=gid&labno=493
517,494,Mukan,49.0595,53.5455,halokinetic potash-bearing salt,https://mrdata.usgs.gov/to-json.php?db=potash&id=gid&labno=494
518,495,Musely,14.2326,40.2541,stratabound potash-bearing salt,https://mrdata.usgs.gov/to-json.php?db=potash&id=gid&labno=495
519,496,Myitkyina,25.3833,97.4,potash-bearing brine,https://mrdata.usgs.gov/to-json.php?db=potash&id=gid&labno=496
520,497,Nahand,38.253,46.469,halokinetic potash-bearing salt,https://mrdata.usgs.gov/to-json.php?db=potash&id=gid&labno=497
521,498,Nahe,17.983,102.55,stratabound potash-bearing salt,https://mrdata.usgs.gov/to-json.php?db=potash&id=gid&labno=498
522,499,Nappan,45.7811,-64.2414,halokinetic potash-bearing salt,https://mrdata.usgs.gov/to-json.php?db=potash&id=gid&labno=499
523,500,Narazym,38.7622,63.5948,stratabound potash-bearing salt,https://mrdata.usgs.gov/to-json.php?db=potash&id=gid&labno=500
524,501,Narimanov,48.164,44.311,halokinetic potash-bearing salt,https://mrdata.usgs.gov/to-json.php?db=potash&id=gid&labno=501
525,502,National,32.5447,-104.0281,stratabound potash-bearing salt,https://mrdata.usgs.gov/to-json.php?db=potash&id=gid&labno=502
526,503,National Lead Co.,40.8961,-112.7056,potash-bearing brine,https://mrdata.usgs.gov/to-json.php?db=potash&id=gid&labno=503
527,504,Nekhvoroshchan,50.8833,53.1167,halokinetic potash-bearing salt,https://mrdata.usgs.gov/to-json.php?db=potash&id=gid&labno=504
528,505,Nepa,59.2476,108.2328,stratabound potash-bearing salt,https://mrdata.usgs.gov/to-json.php?db=potash&id=gid&labno=505
529,506,Neuhof Ellers,50.4601,9.5976,stratabound potash-bearing salt,https://mrdata.usgs.gov/to-json.php?db=potash&id=gid&labno=506
530,507,Neuquen Project,-37.19,-69.35,stratabound potash-bearing salt,https://mrdata.usgs.gov/to-json.php?db=potash&id=gid&labno=507
531,508,Neu-Sollstedt,51.3945,10.5273,stratabound potash-bearing salt,https://mrdata.usgs.gov/to-json.php?db=potash&id=gid&labno=508
532,509,Nezhinka,51.7655,55.374,halokinetic potash-bearing salt,https://mrdata.usgs.gov/to-json.php?db=potash&id=gid&labno=509
533,510,Nezhinsky,52.6529,28.1601,stratabound potash-bearing salt,https://mrdata.usgs.gov/to-json.php?db=potash&id=gid&labno=510
534,511,Nezhukhiv,49.3568,23.7973,halokinetic potash-bearing salt,https://mrdata.usgs.gov/to-json.php?db=potash&id=gid&labno=511
535,512,N'goya,0.124,9.762,stratabound potash-bearing salt,https://mrdata.usgs.gov/to-json.php?db=potash&id=gid&labno=512
536,513,Niedersachsen-Riedel,52.4912,10.11,halokinetic potash-bearing salt,https://mrdata.usgs.gov/to-json.php?db=potash&id=gid&labno=513
537,514,Nikolaveka,51.7789,28.7423,stratabound potash-bearing salt,https://mrdata.usgs.gov/to-json.php?db=potash&id=gid&labno=514
538,515,Nikulino,52.2773,29.4872,stratabound potash-bearing salt,https://mrdata.usgs.gov/to-json.php?db=potash&id=gid&labno=515
539,517,Nishan,38.622,65.687,stratabound potash-bearing salt,https://mrdata.usgs.gov/to-json.php?db=potash&id=gid&labno=517
540,518,Nizhne-Peledui,59.2775,112.3622,stratabound potash-bearing salt,https://mrdata.usgs.gov/to-json.php?db=potash&id=gid&labno=518
541,535,occurrence,-5.1081,12.2534,stratabound potash-bearing salt,https://mrdata.usgs.gov/to-json.php?db=potash&id=gid&labno=535
542,519,Non Sung,15.477,101.74,mixed stratabound potash-bearing salt and halokinetic potash-bearing salt,https://mrdata.usgs.gov/to-json.php?db=potash&id=gid&labno=519
543,788,sylvite occurrence,47.6376,59.1625,evaporite,https://mrdata.usgs.gov/to-json.php?db=potash&id=gid&labno=788
544,520,Nongbak,17.0047,104.7453,stratabound potash-bearing salt,https://mrdata.usgs.gov/to-json.php?db=potash&id=gid&labno=520
545,521,Nongle,30.8833,107.2167,halokinetic potash-bearing salt,https://mrdata.usgs.gov/to-json.php?db=potash&id=gid&labno=521
546,522,Nonglom,16.4,104.882,stratabound potash-bearing salt,https://mrdata.usgs.gov/to-json.php?db=potash&id=gid&labno=522
547,523,Nordsteimboke,52.423,10.758,halokinetic potash-bearing salt,https://mrdata.usgs.gov/to-json.php?db=potash&id=gid&labno=523
548,524,North,32.5689,-103.9189,stratabound potash-bearing salt,https://mrdata.usgs.gov/to-json.php?db=potash&id=gid&labno=524
549,525,North Bobrovichi,52.3025,29.196,stratabound potash-bearing salt,https://mrdata.usgs.gov/to-json.php?db=potash&id=gid&labno=525
550,526,North Gaurdak,37.9219,66.2085,mixed stratabound potash-bearing salt and halokinetic potash-bearing salt,https://mrdata.usgs.gov/to-json.php?db=potash&id=gid&labno=526
551,527,North Huobusan,36.9331,95.9331,potash-bearing brine,https://mrdata.usgs.gov/to-json.php?db=potash&id=gid&labno=527
552,528,North Kalinovo,52.6749,28.4063,stratabound potash-bearing salt,https://mrdata.usgs.gov/to-json.php?db=potash&id=gid&labno=528
553,529,North Kamashi,38.9784,65.7249,stratabound potash-bearing salt,https://mrdata.usgs.gov/to-json.php?db=potash&id=gid&labno=529
554,530,Novobogatin,47.3517,51.1942,halokinetic potash-bearing salt,https://mrdata.usgs.gov/to-json.php?db=potash&id=gid&labno=530
555,531,Novosolikamsk,59.6348,56.9071,stratabound potash-bearing salt,https://mrdata.usgs.gov/to-json.php?db=potash&id=gid&labno=531
556,532,Novostebnik,49.3,23.55,halokinetic potash-bearing salt,https://mrdata.usgs.gov/to-json.php?db=potash&id=gid&labno=532
557,533,Nowa Sol,51.8,15.7167,stratabound potash-bearing salt,https://mrdata.usgs.gov/to-json.php?db=potash&id=gid&labno=533
558,536,occurrence,-9.8119,13.3105,stratabound potash-bearing salt,https://mrdata.usgs.gov/to-json.php?db=potash&id=gid&labno=536
559,537,occurrence,-4.4865,12.0529,stratabound potash-bearing salt,https://mrdata.usgs.gov/to-json.php?db=potash&id=gid&labno=537
560,789,sylvite occurrence,45.7877,57.5732,evaporite,https://mrdata.usgs.gov/to-json.php?db=potash&id=gid&labno=789
561,539,occurrence,50.0657,57.4641,halokinetic potash-bearing salt,https://mrdata.usgs.gov/to-json.php?db=potash&id=gid&labno=539
562,541,occurrence,30.2,18.75,evaporite,https://mrdata.usgs.gov/to-json.php?db=potash&id=gid&labno=541
563,542,occurrence,29.083,21.583,evaporite,https://mrdata.usgs.gov/to-json.php?db=potash&id=gid&labno=542
564,543,occurrence,23.0167,-102.167,halokinetic potash-bearing salt,https://mrdata.usgs.gov/to-json.php?db=potash&id=gid&labno=543
565,544,occurrence,17.8667,-94.7,halokinetic potash-bearing salt,https://mrdata.usgs.gov/to-json.php?db=potash&id=gid&labno=544
566,545,occurrence,31.7186,-107.5752,not determined,https://mrdata.usgs.gov/to-json.php?db=potash&id=gid&labno=545
567,546,occurrence,31.1564,-107.3084,not determined,https://mrdata.usgs.gov/to-json.php?db=potash&id=gid&labno=546
568,547,occurrence,31.7349,-107.1855,not determined,https://mrdata.usgs.gov/to-json.php?db=potash&id=gid&labno=547
569,548,occurrence,31.0577,-107.8795,not determined,https://mrdata.usgs.gov/to-json.php?db=potash&id=gid&labno=548
570,549,occurrence,24.8909,-101.4893,halokinetic potash-bearing salt,https://mrdata.usgs.gov/to-json.php?db=potash&id=gid&labno=549
571,550,occurrence,24.7376,-101.9423,not determined,https://mrdata.usgs.gov/to-json.php?db=potash&id=gid&labno=550
572,551,occurrence,24.841,-100.3409,halokinetic potash-bearing salt,https://mrdata.usgs.gov/to-json.php?db=potash&id=gid&labno=551
573,552,occurrence,24.4867,-100.3614,halokinetic potash-bearing salt,https://mrdata.usgs.gov/to-json.php?db=potash&id=gid&labno=552
574,553,occurrence,24.3862,-101.0578,halokinetic potash-bearing salt,https://mrdata.usgs.gov/to-json.php?db=potash&id=gid&labno=553
575,554,occurrence,24.2335,-101.9311,halokinetic potash-bearing salt,https://mrdata.usgs.gov/to-json.php?db=potash&id=gid&labno=554
576,555,occurrence,24.2181,-101.8349,halokinetic potash-bearing salt,https://mrdata.usgs.gov/to-json.php?db=potash&id=gid&labno=555
577,556,Ochapowace-Chacachas,50.48,-102.38,stratabound potash-bearing salt,https://mrdata.usgs.gov/to-json.php?db=potash&id=gid&labno=556
578,557,Ochoa Polyhalite Project,32.1459,-103.1451,stratabound potash-bearing salt,https://mrdata.usgs.gov/to-json.php?db=potash&id=gid&labno=557
579,558,Oedesse-Berkhopen,52.3947,10.2367,halokinetic potash-bearing salt,https://mrdata.usgs.gov/to-json.php?db=potash&id=gid&labno=558
580,559,Oelsburg-Molme,52.24,10.183,halokinetic potash-bearing salt,https://mrdata.usgs.gov/to-json.php?db=potash&id=gid&labno=559
581,573,Pantanelle,37.429,13.737,halokinetic potash-bearing salt,https://mrdata.usgs.gov/to-json.php?db=potash&id=gid&labno=573
582,560,Oktyabrsk,52.6322,28.7035,stratabound potash-bearing salt,https://mrdata.usgs.gov/to-json.php?db=potash&id=gid&labno=560
583,561,Okuzbulak,37.4945,66.3969,mixed stratabound potash-bearing salt and halokinetic potash-bearing salt,https://mrdata.usgs.gov/to-json.php?db=potash&id=gid&labno=561
584,562,Orangedale,45.9135,-61.1309,halokinetic potash-bearing salt,https://mrdata.usgs.gov/to-json.php?db=potash&id=gid&labno=562
585,563,Orel,50.938,47.928,halokinetic potash-bearing salt,https://mrdata.usgs.gov/to-json.php?db=potash&id=gid&labno=563
586,564,Otkaznensk,44.2856,43.825,potash-bearing brine,https://mrdata.usgs.gov/to-json.php?db=potash&id=gid&labno=564
587,565,Oued Mellah,33.4167,-7.2333,mixed stratabound potash-bearing salt and halokinetic potash-bearing salt,https://mrdata.usgs.gov/to-json.php?db=potash&id=gid&labno=565
588,566,Oxford,45.7079,-63.8213,halokinetic potash-bearing salt,https://mrdata.usgs.gov/to-json.php?db=potash&id=gid&labno=566
589,567,Ozinki,51.1616,49.7075,halokinetic potash-bearing salt,https://mrdata.usgs.gov/to-json.php?db=potash&id=gid&labno=567
590,568,Palangana,27.667,-98.375,halokinetic potash-bearing salt,https://mrdata.usgs.gov/to-json.php?db=potash&id=gid&labno=568
591,569,Palasher,59.2279,56.7752,stratabound potash-bearing salt,https://mrdata.usgs.gov/to-json.php?db=potash&id=gid&labno=569
592,570,Palo,37.485,13.88,halokinetic potash-bearing salt,https://mrdata.usgs.gov/to-json.php?db=potash&id=gid&labno=570
593,571,Pampa de Tamarugal,-19.6667,-69.6667,not determined,https://mrdata.usgs.gov/to-json.php?db=potash&id=gid&labno=571
594,602,Privolnin,48.236,44.187,halokinetic potash-bearing salt,https://mrdata.usgs.gov/to-json.php?db=potash&id=gid&labno=602
595,572,Pamplona,42.8,-1.5667,mixed stratabound potash-bearing salt and halokinetic potash-bearing salt,https://mrdata.usgs.gov/to-json.php?db=potash&id=gid&labno=572
596,574,Paromnaya,48.8457,44.7303,halokinetic potash-bearing salt,https://mrdata.usgs.gov/to-json.php?db=potash&id=gid&labno=574
597,575,Pasquasia,37.524,14.17,halokinetic potash-bearing salt,https://mrdata.usgs.gov/to-json.php?db=potash&id=gid&labno=575
598,576,Patience Lake,52.0899,-106.3776,stratabound potash-bearing salt,https://mrdata.usgs.gov/to-json.php?db=potash&id=gid&labno=576
599,577,PCA,32.5994,-103.9756,stratabound potash-bearing salt,https://mrdata.usgs.gov/to-json.php?db=potash&id=gid&labno=577
600,578,Penobsquis-Piccadilly,45.7473,-65.4138,halokinetic potash-bearing salt,https://mrdata.usgs.gov/to-json.php?db=potash&id=gid&labno=578
601,579,Perdon,42.7333,-1.7167,mixed stratabound potash-bearing salt and halokinetic potash-bearing salt,https://mrdata.usgs.gov/to-json.php?db=potash&id=gid&labno=579
602,580,Perevolot,51.875,54.1989,stratabound potash-bearing salt,https://mrdata.usgs.gov/to-json.php?db=potash&id=gid&labno=580
603,581,Pereyaslovka-Ivangorodekaya,51.2487,31.943,stratabound potash-bearing salt,https://mrdata.usgs.gov/to-json.php?db=potash&id=gid&labno=581
604,582,Petrikov,52.134,28.5548,stratabound potash-bearing salt,https://mrdata.usgs.gov/to-json.php?db=potash&id=gid&labno=582
605,584,Petrobras potash occurrence,-3.7983,-58.9716,stratabound potash-bearing salt,https://mrdata.usgs.gov/to-json.php?db=potash&id=gid&labno=584
606,585,Petrobras potash occurrence,-3.6175,-58.9716,stratabound potash-bearing salt,https://mrdata.usgs.gov/to-json.php?db=potash&id=gid&labno=585
607,586,Petrobras potash occurrence,-3.6175,-59.0166,stratabound potash-bearing salt,https://mrdata.usgs.gov/to-json.php?db=potash&id=gid&labno=586
608,587,Petrobras potash occurrence,-3.7372,-59.0086,stratabound potash-bearing salt,https://mrdata.usgs.gov/to-json.php?db=potash&id=gid&labno=587
609,588,Petrobras potash occurrence,-3.7183,-59.0056,stratabound potash-bearing salt,https://mrdata.usgs.gov/to-json.php?db=potash&id=gid&labno=588
610,589,Petrobras potash occurrence,-3.7384,-58.9969,stratabound potash-bearing salt,https://mrdata.usgs.gov/to-json.php?db=potash&id=gid&labno=589
611,590,Petropavlovka,50.5321,57.4603,halokinetic potash-bearing salt,https://mrdata.usgs.gov/to-json.php?db=potash&id=gid&labno=590
612,591,Piapot-Muscowpetung,50.76,-104.27,stratabound potash-bearing salt,https://mrdata.usgs.gov/to-json.php?db=potash&id=gid&labno=591
613,592,Pieterburen,53.4011,6.4459,halokinetic potash-bearing salt,https://mrdata.usgs.gov/to-json.php?db=potash&id=gid&labno=592
614,593,Pirambu-Aquilhada area,-10.6333,-36.8583,stratabound potash-bearing salt,https://mrdata.usgs.gov/to-json.php?db=potash&id=gid&labno=593
615,594,Pisida,33.0833,11.75,potash-bearing brine,https://mrdata.usgs.gov/to-json.php?db=potash&id=gid&labno=594
616,595,Piter,50.584,47.44,halokinetic potash-bearing salt,https://mrdata.usgs.gov/to-json.php?db=potash&id=gid&labno=595
617,596,Pitts 1,38.6394,-109.6614,halokinetic potash-bearing salt,https://mrdata.usgs.gov/to-json.php?db=potash&id=gid&labno=596
618,597,Pointe Indienne,-4.6875,11.8045,stratabound potash-bearing salt,https://mrdata.usgs.gov/to-json.php?db=potash&id=gid&labno=597
619,598,Pointe Noire,-4.1547,11.7215,stratabound potash-bearing salt,https://mrdata.usgs.gov/to-json.php?db=potash&id=gid&labno=598
620,599,Pol,27.0333,55.7667,halokinetic potash-bearing salt,https://mrdata.usgs.gov/to-json.php?db=potash&id=gid&labno=599
621,600,Polovodov,59.6929,56.9547,stratabound potash-bearing salt,https://mrdata.usgs.gov/to-json.php?db=potash&id=gid&labno=600
622,601,Port Richmond,45.5883,-61.2597,halokinetic potash-bearing salt,https://mrdata.usgs.gov/to-json.php?db=potash&id=gid&labno=601
623,603,Projecto Carnalita da Vale,-10.5566,-37.0059,stratabound potash-bearing salt,https://mrdata.usgs.gov/to-json.php?db=potash&id=gid&labno=603
624,604,Puck Gulf,54.76,18.3,stratabound potash-bearing salt,https://mrdata.usgs.gov/to-json.php?db=potash&id=gid&labno=604
625,605,Pugwash,45.8434,-63.6552,halokinetic potash-bearing salt,https://mrdata.usgs.gov/to-json.php?db=potash&id=gid&labno=605
626,606,Qarhan Salt Plain,36.981,95.147,potash-bearing brine,https://mrdata.usgs.gov/to-json.php?db=potash&id=gid&labno=606
627,607,Querfurter Mulde - Bad Bibra,51.2,11.583,stratabound potash-bearing salt,https://mrdata.usgs.gov/to-json.php?db=potash&id=gid&labno=607
628,608,Wynyard,51.7062,-104.1063,stratabound potash-bearing salt,https://mrdata.usgs.gov/to-json.php?db=potash&id=gid&labno=608
629,609,Racalmuto,37.4307,13.7538,halokinetic potash-bearing salt,https://mrdata.usgs.gov/to-json.php?db=potash&id=gid&labno=609
630,610,Rahrahak,35.267,52.289,halokinetic potash-bearing salt,https://mrdata.usgs.gov/to-json.php?db=potash&id=gid&labno=610
631,611,Ramadah 1,27.9682,33.3612,halokinetic potash-bearing salt,https://mrdata.usgs.gov/to-json.php?db=potash&id=gid&labno=611
632,612,Ras El Behar 1,27.6913,33.5414,halokinetic potash-bearing salt,https://mrdata.usgs.gov/to-json.php?db=potash&id=gid&labno=612
633,613,Ras El Behar 6,27.7326,33.5442,halokinetic potash-bearing salt,https://mrdata.usgs.gov/to-json.php?db=potash&id=gid&labno=613
634,673,Salt Wells,39.3333,-118.5,potash-bearing brine,https://mrdata.usgs.gov/to-json.php?db=potash&id=gid&labno=673
635,614,Ras Gemsa,27.6663,33.5816,halokinetic potash-bearing salt,https://mrdata.usgs.gov/to-json.php?db=potash&id=gid&labno=614
636,615,Ra's Hassis,16.745,42.05,halokinetic potash-bearing salt,https://mrdata.usgs.gov/to-json.php?db=potash&id=gid&labno=615
637,616,Ra's Karkuma,25.8514,36.6536,halokinetic potash-bearing salt,https://mrdata.usgs.gov/to-json.php?db=potash&id=gid&labno=616
638,617,Ratum,51.9769,6.8006,stratabound potash-bearing salt,https://mrdata.usgs.gov/to-json.php?db=potash&id=gid&labno=617
639,618,Realmonte,37.307,13.461,halokinetic potash-bearing salt,https://mrdata.usgs.gov/to-json.php?db=potash&id=gid&labno=618
640,619,Rechitsa,52.3187,30.312,stratabound potash-bearing salt,https://mrdata.usgs.gov/to-json.php?db=potash&id=gid&labno=619
641,620,Red Wash,38.7531,-110.0672,halokinetic potash-bearing salt,https://mrdata.usgs.gov/to-json.php?db=potash&id=gid&labno=620
642,621,Redd Ranch,38.3368,-109.1728,halokinetic potash-bearing salt,https://mrdata.usgs.gov/to-json.php?db=potash&id=gid&labno=621
643,622,Reeder 1,38.9208,-109.8222,halokinetic potash-bearing salt,https://mrdata.usgs.gov/to-json.php?db=potash&id=gid&labno=622
644,623,Reilly Wendover,40.6914,-114.0356,potash-bearing brine,https://mrdata.usgs.gov/to-json.php?db=potash&id=gid&labno=623
645,624,Reinkenhagen,54.2,13.1833,stratabound potash-bearing salt,https://mrdata.usgs.gov/to-json.php?db=potash&id=gid&labno=624
646,625,Rhodes Marsh,38.2869,-118.0747,potash-bearing brine,https://mrdata.usgs.gov/to-json.php?db=potash&id=gid&labno=625
647,626,Ringbolt leases,38.1896,-109.2254,halokinetic potash-bearing salt,https://mrdata.usgs.gov/to-json.php?db=potash&id=gid&labno=626
648,627,Rio Colorado,-37.1144,-69.3842,stratabound potash-bearing salt,https://mrdata.usgs.gov/to-json.php?db=potash&id=gid&labno=627
649,628,Rio Verde,22.283,-100.017,halokinetic potash-bearing salt,https://mrdata.usgs.gov/to-json.php?db=potash&id=gid&labno=628
650,629,Robertshall-Immenrode,51.3667,10.7333,stratabound potash-bearing salt,https://mrdata.usgs.gov/to-json.php?db=potash&id=gid&labno=629
651,630,Robinsons,48.2622,-58.7693,halokinetic potash-bearing salt,https://mrdata.usgs.gov/to-json.php?db=potash&id=gid&labno=630
652,631,Rocanville,50.4736,-101.545,stratabound potash-bearing salt,https://mrdata.usgs.gov/to-json.php?db=potash&id=gid&labno=631
653,632,Rodolphe,47.8479,7.2847,stratabound potash-bearing salt,https://mrdata.usgs.gov/to-json.php?db=potash&id=gid&labno=632
654,633,Roi-Et,16.03,103.82,mixed stratabound potash-bearing salt and halokinetic potash-bearing salt,https://mrdata.usgs.gov/to-json.php?db=potash&id=gid&labno=633
655,634,Romanovo,59.1497,56.8,stratabound potash-bearing salt,https://mrdata.usgs.gov/to-json.php?db=potash&id=gid&labno=634
656,635,Romny,50.7402,33.5888,halokinetic potash-bearing salt,https://mrdata.usgs.gov/to-json.php?db=potash&id=gid&labno=635
657,636,Ronnenberg,52.3128,9.6451,halokinetic potash-bearing salt,https://mrdata.usgs.gov/to-json.php?db=potash&id=gid&labno=636
658,637,Ronnenberg-Hansa,52.325,9.645,halokinetic potash-bearing salt,https://mrdata.usgs.gov/to-json.php?db=potash&id=gid&labno=637
659,638,Rosilna,48.7267,24.3224,halokinetic potash-bearing salt,https://mrdata.usgs.gov/to-json.php?db=potash&id=gid&labno=638
660,639,Rossleben,51.2998,11.4693,stratabound potash-bearing salt,https://mrdata.usgs.gov/to-json.php?db=potash&id=gid&labno=639
661,640,Rothenfelde-Hehlingen,52.391,10.852,halokinetic potash-bearing salt,https://mrdata.usgs.gov/to-json.php?db=potash&id=gid&labno=640
662,904,Zarechen,49.347,48.084,halokinetic potash-bearing salt,https://mrdata.usgs.gov/to-json.php?db=potash&id=gid&labno=904
663,642,RR-89-3,27.7646,33.5596,halokinetic potash-bearing salt,https://mrdata.usgs.gov/to-json.php?db=potash&id=gid&labno=642
664,643,RR-89-5B,27.7512,33.5669,halokinetic potash-bearing salt,https://mrdata.usgs.gov/to-json.php?db=potash&id=gid&labno=643
665,644,Rudersdorf,52.4708,13.7991,halokinetic potash-bearing salt,https://mrdata.usgs.gov/to-json.php?db=potash&id=gid&labno=644
666,645,Russell-Binscarth,50.693,-101.461,stratabound potash-bearing salt,https://mrdata.usgs.gov/to-json.php?db=potash&id=gid&labno=645
667,646,Russell-Miniota,50.575,-101.384,stratabound potash-bearing salt,https://mrdata.usgs.gov/to-json.php?db=potash&id=gid&labno=646
668,647,RUT 1,-2.7847,-58.2048,stratabound potash-bearing salt,https://mrdata.usgs.gov/to-json.php?db=potash&id=gid&labno=647
669,648,S171A,35.7667,40.1167,stratabound potash-bearing salt,https://mrdata.usgs.gov/to-json.php?db=potash&id=gid&labno=648
670,649,S171B,35.65,40.0333,stratabound potash-bearing salt,https://mrdata.usgs.gov/to-json.php?db=potash&id=gid&labno=649
671,651,Sabkha Umm as Samim,21.6403,55.8994,potash-bearing brine,https://mrdata.usgs.gov/to-json.php?db=potash&id=gid&labno=651
672,652,Sabkhah Hazawza,30.783,38.15,potash-bearing brine,https://mrdata.usgs.gov/to-json.php?db=potash&id=gid&labno=652
673,653,Saeid Mohammad,35.8592,48.7394,halokinetic potash-bearing salt,https://mrdata.usgs.gov/to-json.php?db=potash&id=gid&labno=653
674,654,Safi,32.3333,-9.1667,mixed stratabound potash-bearing salt and halokinetic potash-bearing salt,https://mrdata.usgs.gov/to-json.php?db=potash&id=gid&labno=654
675,655,Safronov,47.74,43.083,halokinetic potash-bearing salt,https://mrdata.usgs.gov/to-json.php?db=potash&id=gid&labno=655
676,656,Sagiz,47.5075,53.2742,halokinetic potash-bearing salt,https://mrdata.usgs.gov/to-json.php?db=potash&id=gid&labno=656
677,657,Sakar,38.8685,63.1728,stratabound potash-bearing salt,https://mrdata.usgs.gov/to-json.php?db=potash&id=gid&labno=657
678,658,Sakmar,51.9579,55.3706,halokinetic potash-bearing salt,https://mrdata.usgs.gov/to-json.php?db=potash&id=gid&labno=658
679,659,Salar de Atacama,-23.526,-68.3463,potash-bearing brine,https://mrdata.usgs.gov/to-json.php?db=potash&id=gid&labno=659
680,660,Salar de Bellavista,-20.75,-69.617,potash-bearing brine,https://mrdata.usgs.gov/to-json.php?db=potash&id=gid&labno=660
681,661,Salar de Cauchari,-23.7868,-66.758,potash-bearing brine,https://mrdata.usgs.gov/to-json.php?db=potash&id=gid&labno=661
682,662,Salar de Centenario,-24.8351,-66.7015,potash-bearing brine,https://mrdata.usgs.gov/to-json.php?db=potash&id=gid&labno=662
683,663,Salar de Diablillos,-25.2453,-66.7677,potash-bearing brine,https://mrdata.usgs.gov/to-json.php?db=potash&id=gid&labno=663
684,664,Salar de Maricunga,-26.9167,-69.0833,potash-bearing brine,https://mrdata.usgs.gov/to-json.php?db=potash&id=gid&labno=664
685,665,Salar de Olaroz,-23.414,-66.6991,potash-bearing brine,https://mrdata.usgs.gov/to-json.php?db=potash&id=gid&labno=665
686,666,Salar de Rincon,-24.0833,-67.1667,potash-bearing brine,https://mrdata.usgs.gov/to-json.php?db=potash&id=gid&labno=666
687,667,Salar de Uyuni,-20.25,-67.44,potash-bearing brine,https://mrdata.usgs.gov/to-json.php?db=potash&id=gid&labno=667
688,668,Salar del Hombre Muerto,-25.4072,-67.1211,potash-bearing brine,https://mrdata.usgs.gov/to-json.php?db=potash&id=gid&labno=668
689,669,Salduro Salt Deposit,40.7211,-113.8933,potash-bearing brine,https://mrdata.usgs.gov/to-json.php?db=potash&id=gid&labno=669
690,671,Salt Mountain,41.9061,1.6769,halokinetic potash-bearing salt,https://mrdata.usgs.gov/to-json.php?db=potash&id=gid&labno=671
691,672,Salt Valley Anticline,38.9217,-109.8361,halokinetic potash-bearing salt,https://mrdata.usgs.gov/to-json.php?db=potash&id=gid&labno=672
692,724,Sobolev,51.933,51.717,stratabound potash-bearing salt,https://mrdata.usgs.gov/to-json.php?db=potash&id=gid&labno=724
693,675,Salvador,-13.0467,-38.7328,stratabound potash-bearing salt,https://mrdata.usgs.gov/to-json.php?db=potash&id=gid&labno=675
694,676,Salzdetfurth,52.0619,9.9987,halokinetic potash-bearing salt,https://mrdata.usgs.gov/to-json.php?db=potash&id=gid&labno=676
695,677,Salzgitter,52.156,10.324,halokinetic potash-bearing salt,https://mrdata.usgs.gov/to-json.php?db=potash&id=gid&labno=677
696,678,Saman-tepe,38.953,63.7051,stratabound potash-bearing salt,https://mrdata.usgs.gov/to-json.php?db=potash&id=gid&labno=678
697,679,San Antonio,37.4204,13.3172,halokinetic potash-bearing salt,https://mrdata.usgs.gov/to-json.php?db=potash&id=gid&labno=679
698,680,San Cataldo,37.492,13.964,halokinetic potash-bearing salt,https://mrdata.usgs.gov/to-json.php?db=potash&id=gid&labno=680
699,681,San Pablo,-2.1667,-80.7833,potash-bearing brine,https://mrdata.usgs.gov/to-json.php?db=potash&id=gid&labno=681
700,682,Santa Caterina,37.595,14.03,halokinetic potash-bearing salt,https://mrdata.usgs.gov/to-json.php?db=potash&id=gid&labno=682
701,683,Santa Rosa de Lima,-10.6446,-37.196,stratabound potash-bearing salt,https://mrdata.usgs.gov/to-json.php?db=potash&id=gid&labno=683
702,684,Santa Tecla Lago,26.9458,-101.9361,halokinetic potash-bearing salt,https://mrdata.usgs.gov/to-json.php?db=potash&id=gid&labno=684
703,685,Saratov,50.691,46.243,halokinetic potash-bearing salt,https://mrdata.usgs.gov/to-json.php?db=potash&id=gid&labno=685
704,687,Sarpinsky-Tingutin,48.095,44.409,halokinetic potash-bearing salt,https://mrdata.usgs.gov/to-json.php?db=potash&id=gid&labno=687
705,688,Satimola,49.142,52.368,halokinetic potash-bearing salt,https://mrdata.usgs.gov/to-json.php?db=potash&id=gid&labno=688
706,689,Satipura,29.6333,74.3167,stratabound potash-bearing salt,https://mrdata.usgs.gov/to-json.php?db=potash&id=gid&labno=689
707,690,Saunders,32.5695,-103.919,stratabound potash-bearing salt,https://mrdata.usgs.gov/to-json.php?db=potash&id=gid&labno=690
708,691,Savannakhet Plain-Kengkok,16.5,105.1833,stratabound potash-bearing salt,https://mrdata.usgs.gov/to-json.php?db=potash&id=gid&labno=691
709,692,Savich,52.3977,28.9692,stratabound potash-bearing salt,https://mrdata.usgs.gov/to-json.php?db=potash&id=gid&labno=692
710,693,Schonebeck-Salzelmen,52.013,11.736,stratabound potash-bearing salt,https://mrdata.usgs.gov/to-json.php?db=potash&id=gid&labno=693
711,694,Sciacca Ribera,37.5245,13.1723,halokinetic potash-bearing salt,https://mrdata.usgs.gov/to-json.php?db=potash&id=gid&labno=694
712,695,Scott Brothers,38.3067,-108.759,halokinetic potash-bearing salt,https://mrdata.usgs.gov/to-json.php?db=potash&id=gid&labno=695
713,696,Searles Lake,35.7333,-117.3342,potash-bearing brine,https://mrdata.usgs.gov/to-json.php?db=potash&id=gid&labno=696
714,697,Sebkha el Melah,33.3867,10.9769,potash-bearing brine,https://mrdata.usgs.gov/to-json.php?db=potash&id=gid&labno=697
715,698,Seid Lor,36.852,47.598,halokinetic potash-bearing salt,https://mrdata.usgs.gov/to-json.php?db=potash&id=gid&labno=698
716,699,Senie,37.0433,94.3034,potash-bearing brine,https://mrdata.usgs.gov/to-json.php?db=potash&id=gid&labno=699
717,700,Sevier Lake,38.8125,-113.2011,potash-bearing brine,https://mrdata.usgs.gov/to-json.php?db=potash&id=gid&labno=700
718,701,Shady,39.298,63.6523,stratabound potash-bearing salt,https://mrdata.usgs.gov/to-json.php?db=potash&id=gid&labno=701
719,702,Shar Tsaryn,47.55,44.45,halokinetic potash-bearing salt,https://mrdata.usgs.gov/to-json.php?db=potash&id=gid&labno=702
720,703,Sharlyk,52.9167,54.75,stratabound potash-bearing salt,https://mrdata.usgs.gov/to-json.php?db=potash&id=gid&labno=703
721,704,Sharnut,47.67,43.776,halokinetic potash-bearing salt,https://mrdata.usgs.gov/to-json.php?db=potash&id=gid&labno=704
722,705,Shcherbakov,50.5167,45.7667,stratabound potash-bearing salt,https://mrdata.usgs.gov/to-json.php?db=potash&id=gid&labno=705
723,706,Shchuchkin,51.6833,50.8167,stratabound potash-bearing salt,https://mrdata.usgs.gov/to-json.php?db=potash&id=gid&labno=706
724,707,Shehiry,34.65,38.3167,mixed stratabound potash-bearing salt and halokinetic potash-bearing salt(?),https://mrdata.usgs.gov/to-json.php?db=potash&id=gid&labno=707
725,790,sylvite occurrence,50.3114,57.4099,halokinetic potash-bearing salt,https://mrdata.usgs.gov/to-json.php?db=potash&id=gid&labno=790
726,708,Shestovichi,52.0953,28.5323,stratabound potash-bearing salt,https://mrdata.usgs.gov/to-json.php?db=potash&id=gid&labno=708
727,709,Shiggah,32.25,23.033,evaporite,https://mrdata.usgs.gov/to-json.php?db=potash&id=gid&labno=709
728,710,Shilovskaya,49.8795,34.393,stratabound potash-bearing salt,https://mrdata.usgs.gov/to-json.php?db=potash&id=gid&labno=710
729,711,Shoktybay,51.1692,53.935,halokinetic potash-bearing salt,https://mrdata.usgs.gov/to-json.php?db=potash&id=gid&labno=711
730,712,Shugul,49.384,53.125,halokinetic potash-bearing salt,https://mrdata.usgs.gov/to-json.php?db=potash&id=gid&labno=712
731,713,Shurtan,38.5292,66.1687,stratabound potash-bearing salt,https://mrdata.usgs.gov/to-json.php?db=potash&id=gid&labno=713
732,714,Shuvalov,51.75,54.6667,halokinetic potash-bearing salt,https://mrdata.usgs.gov/to-json.php?db=potash&id=gid&labno=714
733,715,Siegfried-Giesen,52.2043,9.8755,halokinetic potash-bearing salt,https://mrdata.usgs.gov/to-json.php?db=potash&id=gid&labno=715
734,716,Sierra del Fraile,25.0,-101.2833,halokinetic potash-bearing salt,https://mrdata.usgs.gov/to-json.php?db=potash&id=gid&labno=716
735,717,Sigmundshall,52.4182,9.3688,halokinetic potash-bearing salt,https://mrdata.usgs.gov/to-json.php?db=potash&id=gid&labno=717
736,718,Silver Peak,37.75,-117.6333,potash-bearing brine,https://mrdata.usgs.gov/to-json.php?db=potash&id=gid&labno=718
737,719,Sintoukola Project-Dougou,-4.234,11.608,stratabound potash-bearing salt,https://mrdata.usgs.gov/to-json.php?db=potash&id=gid&labno=719
738,720,Sintoukola Project-Kandi,-4.171,11.415,stratabound potash-bearing salt,https://mrdata.usgs.gov/to-json.php?db=potash&id=gid&labno=720
739,750,Sportivnaya,50.513,48.172,halokinetic potash-bearing salt,https://mrdata.usgs.gov/to-json.php?db=potash&id=gid&labno=750
740,721,Sintoukola Project-Kola,-4.093,11.695,stratabound potash-bearing salt,https://mrdata.usgs.gov/to-json.php?db=potash&id=gid&labno=721
741,722,Sivka,49.1836,24.5326,halokinetic potash-bearing salt,https://mrdata.usgs.gov/to-json.php?db=potash&id=gid&labno=722
742,723,Snowden-McSweeney 1,32.523,-103.883,stratabound potash-bearing salt,https://mrdata.usgs.gov/to-json.php?db=potash&id=gid&labno=723
743,725,Starobin 1,52.8168,27.5598,stratabound potash-bearing salt,https://mrdata.usgs.gov/to-json.php?db=potash&id=gid&labno=725
744,726,Starobin 2,52.8563,27.4697,stratabound potash-bearing salt,https://mrdata.usgs.gov/to-json.php?db=potash&id=gid&labno=726
745,727,Starobin 3,52.862,27.5918,stratabound potash-bearing salt,https://mrdata.usgs.gov/to-json.php?db=potash&id=gid&labno=727
746,728,Starobin 4,52.8,27.7643,stratabound potash-bearing salt,https://mrdata.usgs.gov/to-json.php?db=potash&id=gid&labno=728
747,729,Solikamsk 1,59.6191,56.7568,stratabound potash-bearing salt,https://mrdata.usgs.gov/to-json.php?db=potash&id=gid&labno=729
748,730,Solikamsk 2,59.5797,56.7648,stratabound potash-bearing salt,https://mrdata.usgs.gov/to-json.php?db=potash&id=gid&labno=730
749,731,Sollstedt,51.4224,10.5256,stratabound potash-bearing salt,https://mrdata.usgs.gov/to-json.php?db=potash&id=gid&labno=731
750,732,Solomatin,50.0,44.8667,stratabound potash-bearing salt,https://mrdata.usgs.gov/to-json.php?db=potash&id=gid&labno=732
751,783,sylvite occurrence,47.444,59.2574,evaporite,https://mrdata.usgs.gov/to-json.php?db=potash&id=gid&labno=783
752,734,Solvay,51.8013,11.7506,stratabound potash-bearing salt,https://mrdata.usgs.gov/to-json.php?db=potash&id=gid&labno=734
753,735,Solyan,51.6667,49.9667,stratabound potash-bearing salt,https://mrdata.usgs.gov/to-json.php?db=potash&id=gid&labno=735
754,736,Somboon,17.311,102.799,mixed stratabound potash-bearing salt and halokinetic potash-bearing salt,https://mrdata.usgs.gov/to-json.php?db=potash&id=gid&labno=736
755,737,Sonderhausen #5,51.3938,10.8155,stratabound potash-bearing salt,https://mrdata.usgs.gov/to-json.php?db=potash&id=gid&labno=737
756,738,Sondershausen,51.3918,10.83,stratabound potash-bearing salt,https://mrdata.usgs.gov/to-json.php?db=potash&id=gid&labno=738
757,739,Sorochin,52.4167,53.15,stratabound potash-bearing salt,https://mrdata.usgs.gov/to-json.php?db=potash&id=gid&labno=739
758,740,South Ershov,51.132,48.403,halokinetic potash-bearing salt,https://mrdata.usgs.gov/to-json.php?db=potash&id=gid&labno=740
759,741,South Huobusan,36.7271,95.8183,potash-bearing brine,https://mrdata.usgs.gov/to-json.php?db=potash&id=gid&labno=741
760,742,South Kislovo,49.8,45.3833,stratabound potash-bearing salt,https://mrdata.usgs.gov/to-json.php?db=potash&id=gid&labno=742
761,743,South Lyalimkin,37.9443,66.2686,mixed stratabound potash-bearing salt and halokinetic potash-bearing salt,https://mrdata.usgs.gov/to-json.php?db=potash&id=gid&labno=743
762,744,South Oman,19.2,55.7,halokinetic potash-bearing salt,https://mrdata.usgs.gov/to-json.php?db=potash&id=gid&labno=744
763,745,South Pamuk,39.029,65.097,stratabound potash-bearing salt,https://mrdata.usgs.gov/to-json.php?db=potash&id=gid&labno=745
764,746,South Umetov,50.23,45.191,stratabound potash-bearing salt,https://mrdata.usgs.gov/to-json.php?db=potash&id=gid&labno=746
765,747,Southside Harbour,45.6519,-61.8638,halokinetic potash-bearing salt,https://mrdata.usgs.gov/to-json.php?db=potash&id=gid&labno=747
766,748,Sperenberg,52.1378,13.368,halokinetic potash-bearing salt,https://mrdata.usgs.gov/to-json.php?db=potash&id=gid&labno=748
767,749,Spina,37.52,13.724,halokinetic potash-bearing salt,https://mrdata.usgs.gov/to-json.php?db=potash&id=gid&labno=749
768,751,Spring Canyon,38.6817,-109.96,halokinetic potash-bearing salt,https://mrdata.usgs.gov/to-json.php?db=potash&id=gid&labno=751
