,deposit_id,deposit_name,latitude,longitude,deposit_model,url
0,1,Ain Kahla,34.4877777777778,4.02611111111111,NA,https://mrdata.usgs.gov/to-json.php?db=sedznpb&id=rec_id&labno=1
1,2,Boukdema/Kef Semmah,36.21,4.89,Fluid inclusions indicate 250200 ºC.,https://mrdata.usgs.gov/to-json.php?db=sedznpb&id=rec_id&labno=2
2,3,Kherzet Youcef,34.525,4.04388888888889,"In sphalerite, %: 0.091.47 Cd, 0.030.08 Ge; 3,0005,000 ppm Ag.",https://mrdata.usgs.gov/to-json.php?db=sedznpb&id=rec_id&labno=3
3,4,Mesloula,35.8713888888889,7.83416666666667,Produced 500 Kt Pb+Zn. Salt dome related mineralization. Three generations of galena. 0 m cover.,https://mrdata.usgs.gov/to-json.php?db=sedznpb&id=rec_id&labno=4
4,5,Aguilar,-23.2036111111111,-65.7169444444445,"25 Mt production + 5 Mt reserve. Ore-hosting quartzite interpreted by D. Sangster  (personal communication of 1988, in Sureda and Martin, 1990) as recrystallized exhalative chert. SEDEX ore overprinted by contact metamorphism related to the Cretaceous Aguilar granite (Gemmell and others, 1992).",https://mrdata.usgs.gov/to-json.php?db=sedznpb&id=rec_id&labno=5
5,6,Esperanza,-23.1294444444444,-65.7161111111111,Tonnage estimated.,https://mrdata.usgs.gov/to-json.php?db=sedznpb&id=rec_id&labno=6
6,7,Gualilan,-30.7361111111111,-68.9577777777778,Mined for gold. Exoskarn.,https://mrdata.usgs.gov/to-json.php?db=sedznpb&id=rec_id&labno=7
7,8,Yanzi,-31.405,-67.3277777777778,Tonnage: 14 Kt production + 42 Kt resource. Exoskarn.,https://mrdata.usgs.gov/to-json.php?db=sedznpb&id=rec_id&labno=8
8,9,Abra,-24.6444444444444,118.586111111111,Orebodies occur beneath 200500 m cover of Mesoproterozoic rocks.  |Pb-Ag stratabound lode (93 Mt at 4% Pb and 10 g/t Ag; 2.5% Pb cutoff) underlain by cone-shaped Cu-Au stringer zone (14 Mt at 0.6% Cu and 0.5 g/t Au; 0.4% Cu cutoff). ?3.6% Ba in resource. Pre-feasibility studies in 2008.,https://mrdata.usgs.gov/to-json.php?db=sedznpb&id=rec_id&labno=9
9,10,Admiral Bay,-19.2269444444444,122.28,"Fluid inclusions indicate 15666 ºC.  Earlier paragenesis of hematite, jasper, magnetite, and siderite is considered to be not related to epigenetic Pb-Zn MVT mineralization. >1000 m cover.",https://mrdata.usgs.gov/to-json.php?db=sedznpb&id=rec_id&labno=10
10,11,Ban Ban,-25.8063888888889,151.963055555556,"Stratabound skarn. Tonnage and grades from Seccombe and others (2005), 0.08% Pb and 0.07% Cu in ore.  Exoskarn.",https://mrdata.usgs.gov/to-json.php?db=sedznpb&id=rec_id&labno=11
11,12,Blendvale,-18.32,125.778055555556,142 g/t Cd in ore. Fluid inclusions indicate 11055 ºC.  >100 m cover.,https://mrdata.usgs.gov/to-json.php?db=sedznpb&id=rec_id&labno=12
12,13,Broken Hill,-31.9666666666667,141.466666666667,"1,000 to 37,000 ppb Hg content in different orebodies.",https://mrdata.usgs.gov/to-json.php?db=sedznpb&id=rec_id&labno=13
13,14,Bulman,-13.42,134.41,"Ore emplacement at 200170 ºC, oxidized.",https://mrdata.usgs.gov/to-json.php?db=sedznpb&id=rec_id&labno=14
14,15,Cadjebut,-18.7186111111111,125.964444444444,Fluid inclusions indicate 10080 ºC. Peak paleotemperatures at 110100 ºC. 0 m cover.,https://mrdata.usgs.gov/to-json.php?db=sedznpb&id=rec_id&labno=15
15,16,Cannington,-21.8691666666667,140.923055555556,Broken Hill-type Ag-Zn-Pb mineralization in premetamorphic sequence of immature clastic rocks with interbedded basic volcanics and minor carbonates,https://mrdata.usgs.gov/to-json.php?db=sedznpb&id=rec_id&labno=16
16,17,Century,-18.725,138.605,Pyrobitumen reflectance shows 250180 ºC; fluid inclusions in coarse-grained sphalerite indicate 12570 ºC.,https://mrdata.usgs.gov/to-json.php?db=sedznpb&id=rec_id&labno=17
17,18,Chillagoe,-17.1658333333333,144.538333333333,Au is byproduct from the Ti-tree deposit. Zn grade approximated  on a base of drilling data of Kagara (2008). Exoskarn and endoskan.,https://mrdata.usgs.gov/to-json.php?db=sedznpb&id=rec_id&labno=18
18,19,Comstock,-41.8933333333333,145.285,Distal skarn.,https://mrdata.usgs.gov/to-json.php?db=sedznpb&id=rec_id&labno=19
19,20,Coxco,-16.5386111111111,136.149722222222,"Ore-hosting paleokarst related to unconformity. Fluid inclusions indicate 170100 ºC. Zn = 2.5%, Pb = 0.5%. 0 m cover.",https://mrdata.usgs.gov/to-json.php?db=sedznpb&id=rec_id&labno=20
20,21,Dugald River,-20.2477777777778,140.163333333333,NA,https://mrdata.usgs.gov/to-json.php?db=sedznpb&id=rec_id&labno=21
21,22,Elura,-31.1613888888889,145.656666666667,"Primary approximate estimate of ~0.8 g/t Au was not included in the pre-mining resource (Schmidt, 1990). Au is related probably to late quartz veins. Steeply dipping Main massive sulfide lode and five northern ore pods concordant to foliation extend to >1000 m depth.",https://mrdata.usgs.gov/to-json.php?db=sedznpb&id=rec_id&labno=22
22,23,Fossil Downs,-18.1391666666667,125.776666666667,NA,https://mrdata.usgs.gov/to-json.php?db=sedznpb&id=rec_id&labno=23
23,24,Grevillea,-19.1075,138.685,"Intersection: 25 m at 5.2% Zn, 1.1% Pb, and 29 g/t Ag; 16 m at 2% Cu.",https://mrdata.usgs.gov/to-json.php?db=sedznpb&id=rec_id&labno=24
24,25,Hilton/George Fisher,-20.5680555555556,139.475555555556,NA,https://mrdata.usgs.gov/to-json.php?db=sedznpb&id=rec_id&labno=25
25,26,Iron Blow,-13.5136111111111,131.544444444444,NA,https://mrdata.usgs.gov/to-json.php?db=sedznpb&id=rec_id&labno=26
26,27,Kamarga,-18.8166666666667,138.833333333333,"Potential 50 Mt at 3% Zn+Pb (Jones and others, 1999), or 80 Mt at 0.8% Zn (Large and others, 2005). Fluid inclusions indicate 335160 ºC. Ore-bearing unit belongs to the Gunpowder Creek Formation stratigraphically lowest in the area Mesoproterozoic sequence.",https://mrdata.usgs.gov/to-json.php?db=sedznpb&id=rec_id&labno=27
27,28,King Vol,-16.9341666666667,144.263611111111,Granite outcrop 9 km apart. Distal skarn,https://mrdata.usgs.gov/to-json.php?db=sedznpb&id=rec_id&labno=28
28,29,Lady Loretta,-19.7713888888889,139.045277777778,"Deposit development hampered. Indicated and inferred resources from (Natural..., 2005).  Mineable reserve 13.6 Mt at 17.1% Zn, 5.9% Pb, 97 g/t Ag (Buka  Noranda..., 2003).",https://mrdata.usgs.gov/to-json.php?db=sedznpb&id=rec_id&labno=29
29,30,Leadville,-32.0202777777778,149.540555555556,Produced 0.0503 Mt ore at 3.11% Pb and 185 g/t Ag. Interpreted by some investigators as metamorphosed VMS deposit. Distal skarn.,https://mrdata.usgs.gov/to-json.php?db=sedznpb&id=rec_id&labno=30
30,31,Maramungee,-21.58,140.92,NA,https://mrdata.usgs.gov/to-json.php?db=sedznpb&id=rec_id&labno=31
31,32,McArthur River,-16.4327777777778,136.995833333333,"1,300 ppb average Hg content (450 to 2,000 ppb). C and O isotopes in ore-related carbonates indicate 240120 ºC.",https://mrdata.usgs.gov/to-json.php?db=sedznpb&id=rec_id&labno=32
32,33,Menninnie,-32.6494444444444,136.416944444444,"Prospective resources  20 Mt. ?0.45 g/t Au in ore. High grade stratiform massive sulfide bands ?2.3 m thick contain up to 10.1% Pb, 15.0% Zn, 185 g/t Ag, 16% Fe, and 1.0% Mn. Highly metamorphosed Paleoproterozoic stratiform Pb-Zn deposit in schist-carbonate sequence.",https://mrdata.usgs.gov/to-json.php?db=sedznpb&id=rec_id&labno=33
33,34,Mount Bonnie,-13.5444444444444,131.550277777778,NA,https://mrdata.usgs.gov/to-json.php?db=sedznpb&id=rec_id&labno=34
34,35,Mount Garnet,-17.6847222222222,145.111111111111,"3% Zn (equivalent) cut-off. Skarn horizon 800 m in length, 50 m thick. ?0.33% Sn and ?0.1% W in ore,  exoskarn.",https://mrdata.usgs.gov/to-json.php?db=sedznpb&id=rec_id&labno=35
35,36,Mount Isa,-20.7166666666667,139.475555555556,"Combined pre-production reserves of lead-zinc and copper ores are shown. 8,300 ppb Hg content. Fluid inclusions indicate 350200 ºC of Cu-related dolomitizaion, silicification and chalcopyrite deposition.",https://mrdata.usgs.gov/to-json.php?db=sedznpb&id=rec_id&labno=36
36,37,Muldiva,-17.35,144.566666666667,"Production 20 Kt at 6% Pb, 1.4% Cu, 440 g/t Ag. 2007 drill intersection 6.0 m at 16.2% Zn, 4.0% Pb, 803 g/t Ag. Exoskarn.",https://mrdata.usgs.gov/to-json.php?db=sedznpb&id=rec_id&labno=37
37,38,Mungana,-17.1033333333333,144.381666666667,"Two-stage mineralized skarns; earliest pre-skarn annealed massive sulfide minerlization suggested VMS. Mungana production 18881927 328 Kt at 9.54% Pb, 2.37% Cu, and 304 g/t Ag (Ewers and Sun, 1989). Red Dome Au production 12.8 Mt at 2 g/t Au and 0.5% Cu (Nethery and Barr, 1998). According to Kagara (2007): (1) base metal resource 1.96 Mt at 14.4% Zn, 2.2% Pb, 2.8% Cu, 187 g/t Ag, 0.14 g/t Au; (2) gold resource 53.7 Mt at 0.2% Zn, 0.1% Pb, 0.1% Cu, 8 g/t Ag, 1.1 g/t Au. Exoskarn, endoskarn.",https://mrdata.usgs.gov/to-json.php?db=sedznpb&id=rec_id&labno=38
38,39,Narlarla,-17.2605555555556,124.728055555556,"Mined out. 0.1% Sb, 0.48% Cd, ?162 g/t Ag in ore.",https://mrdata.usgs.gov/to-json.php?db=sedznpb&id=rec_id&labno=39
39,40,Pegmont,-21.8511111111111,140.688611111111,NA,https://mrdata.usgs.gov/to-json.php?db=sedznpb&id=rec_id&labno=40
40,41,Pinnacles,-32.0519444444444,141.329166666667,"?4 g/t Au in ore. Small Zn-rich lodes contain 1% Pb, 1015% Zn, and 30 g/t Ag.",https://mrdata.usgs.gov/to-json.php?db=sedznpb&id=rec_id&labno=41
41,42,Sorby,-15.4427777777778,128.958888888889,Diagenetic bravoite. Fluid inclusions indicate 11585 ºC.  >20 m cover.,https://mrdata.usgs.gov/to-json.php?db=sedznpb&id=rec_id&labno=42
42,43,Squirrel Hills,-21.5,141.0,"100 ppb Hg average content (range 20 to 60,000 ppb).",https://mrdata.usgs.gov/to-json.php?db=sedznpb&id=rec_id&labno=43
43,44,Twelve Mile Bore,-18.6283333333333,125.858611111111,>100 m cover.,https://mrdata.usgs.gov/to-json.php?db=sedznpb&id=rec_id&labno=44
44,45,Wagon Pass,-17.1719444444444,124.639722222222,"0.5 Mt resource at 14% Pb + Zn. Fluid inclusions indicate 9575 ºC, dolomitization at 90 ºC. >200 m cover.",https://mrdata.usgs.gov/to-json.php?db=sedznpb&id=rec_id&labno=45
45,46,Woodcutters,-12.9794444444444,131.111111111111,"Up to: 5 g/t Au, 170 g/t In, 0.5% Sn, 1% Ni and Co. Tightly folded and fault-related stratabound orebodies.",https://mrdata.usgs.gov/to-json.php?db=sedznpb&id=rec_id&labno=46
46,47,Bleiberg,46.625,13.6516666666667,"Initial resource contained 1000 t Mo at 0.15% Mo. Mo-sulfide mineralization is late, post-Triassic. Fluid inclusions indicate 20080 ºC, followed by a temperature increase up to 250 ºC.",https://mrdata.usgs.gov/to-json.php?db=sedznpb&id=rec_id&labno=47
47,48,Lafatsch,47.3605555555556,11.4488888888889,NA,https://mrdata.usgs.gov/to-json.php?db=sedznpb&id=rec_id&labno=48
48,49,Filizchai,41.7172222222222,46.4141666666667,Deformed and partially dismembered stratiform ore body containing layered sulfide ore.,https://mrdata.usgs.gov/to-json.php?db=sedznpb&id=rec_id&labno=49
49,50,Kasdag,41.7463888888889,46.3686111111111,"Au and Ag are mentioned as available in resources (U.N. ..., 2000). 0.5 g/t Au implied. Highly deformed and metamorphosed,discordant and stratiform bodies of massive and disseminated sulfide ores.",https://mrdata.usgs.gov/to-json.php?db=sedznpb&id=rec_id&labno=50
50,51,Katekh,41.6461111111111,46.5438888888889,"Au and Ag  grades in resources (U.N. ..., 2000).  The deposit is planned for underground mining. 0.5 g/t Au implied. Folded and boudinaged stratiform ore bodies.",https://mrdata.usgs.gov/to-json.php?db=sedznpb&id=rec_id&labno=51
51,52,Verviers,50.7105555555556,6.00861111111111,"Total production: 1.1 Mt Zn, 0.13 Mt Pb (Dejonghe and Jans, 1983); the Schmalgraf deposit, 0.7 Mt at 24% Zn, 2.1% Pb (Leach and others, 2005). Cretaceous-Eocene age of nonsulfide mineralization. Fluid inclusions in willemite indicate 19080 ºC.  0 m cover.",https://mrdata.usgs.gov/to-json.php?db=sedznpb&id=rec_id&labno=52
52,53,Veovača,44.1522222222222,18.3680555555556,"Ore contains up to 2 g/t Au, 30% BaSO4, 0.02% Hg, 0.25% Sb. Approximate tonnage and grades estimated from Kryuchkov and Natarov (1979). There are bedded barite and stratiform ores of siderite and chert-hematite. Fluid inclusions in sphalerite indicate 14570 ºC.",https://mrdata.usgs.gov/to-json.php?db=sedznpb&id=rec_id&labno=53
53,54,Ambrósia,-17.1044444444444,-46.7638888888889,NA,https://mrdata.usgs.gov/to-json.php?db=sedznpb&id=rec_id&labno=54
54,55,Boquira,-12.8111111111111,-42.7325,400 g/t Cd. Temperature calculated from sulfur-isotope data 350±20 ºC.,https://mrdata.usgs.gov/to-json.php?db=sedznpb&id=rec_id&labno=55
55,56,Caboclo,-9.90805555555556,-41.5372222222222,NA,https://mrdata.usgs.gov/to-json.php?db=sedznpb&id=rec_id&labno=56
56,57,Canoas,-24.8336111111111,-48.8319444444444,NA,https://mrdata.usgs.gov/to-json.php?db=sedznpb&id=rec_id&labno=57
57,58,Fagundes,-16.9661111111111,-46.9305555555556,NA,https://mrdata.usgs.gov/to-json.php?db=sedznpb&id=rec_id&labno=58
58,59,Januária,-15.4888888888889,-44.3886111111111,"Resource: 0.1 Mt at 4% Zn and 7.5% Pb (Leach and others, 2005). 0 m cover.",https://mrdata.usgs.gov/to-json.php?db=sedznpb&id=rec_id&labno=59
59,60,Morro Agudo,-17.5038888888889,-46.8208333333333,"Average: 360 g/t Cd, 4.37 g/t Ga. Fluid inclusions indicate 300100 ºC.",https://mrdata.usgs.gov/to-json.php?db=sedznpb&id=rec_id&labno=60
60,61,Nova Redenção,-12.7966666666667,-41.1069444444444,Fluid inclusions indicate 220150 ºC.,https://mrdata.usgs.gov/to-json.php?db=sedznpb&id=rec_id&labno=61
61,62,Panelas,-24.6883333333333,-48.8708333333333,NA,https://mrdata.usgs.gov/to-json.php?db=sedznpb&id=rec_id&labno=62
62,63,Perau,-24.9283333333333,-49.0483333333333,NA,https://mrdata.usgs.gov/to-json.php?db=sedznpb&id=rec_id&labno=63
63,64,Três Irmãs,-11.325,-41.8033333333333,NA,https://mrdata.usgs.gov/to-json.php?db=sedznpb&id=rec_id&labno=64
64,65,Vazante,-17.9236111111111,-46.7841666666667,"Early sulfide mineralization at 317 ºC, hydrothermal willemite ore at 295250 ºC, supergene hemimorphite-hydrozincite (calamine). Predominant willemite in ore. Magnetite-franklinite intergrowths. Late post-willemite chlorite contains ?19.7% Zn, formed at 245230 ºC. Sphalerite contains 0.09% Fe and 8410 ppm Cd.",https://mrdata.usgs.gov/to-json.php?db=sedznpb&id=rec_id&labno=65
65,66,Madan,41.4886111111111,24.9241666666667,Replacement orebodies occur in six autochtonous and overthrust marble horizons 4 to 5 m thick. Fluid inclusions indicate 350260 ºC.,https://mrdata.usgs.gov/to-json.php?db=sedznpb&id=rec_id&labno=66
66,67,Sedmochislenitsi,43.1436111111111,23.4758333333333,"Lenticular and tabular sulfide bodies along 8 stratigraphic horizons. Two stages of ore deposition: (1) lead-zinc ore (14080 ºC); (2) silver-lead-copper replacement, breccia, veinlets (higher temperature).",https://mrdata.usgs.gov/to-json.php?db=sedznpb&id=rec_id&labno=67
67,68,Akie,57.3769444444445,-124.841388888889,"Gataga district. Resource shown as of 1996. 2007 balance of assay 24.54 m at 13.25% Zn, 2.24% Pb, 17 g/t Ag.",https://mrdata.usgs.gov/to-json.php?db=sedznpb&id=rec_id&labno=68
68,69,Bear,57.96,-125.79,"Gataga district. Drill intersections 25 and 30 m: 10% Zn, 5.7% Pb, and 52 g/t Ag.",https://mrdata.usgs.gov/to-json.php?db=sedznpb&id=rec_id&labno=69
69,70,Bear-Twit,64.0433333333333,-129.42,NA,https://mrdata.usgs.gov/to-json.php?db=sedznpb&id=rec_id&labno=70
70,71,Bend,52.0547222222222,-118.225,Concordant massive sulfide layer 5 to 10 m thick and 400 m long at the contact of dolomite with underlying schist. Intersection 35 m at 0.27 g/t Au and 2 g/t Ag in quartzite with trace amounts of galena.,https://mrdata.usgs.gov/to-json.php?db=sedznpb&id=rec_id&labno=71
71,72,Bermuda,76.655,-94.1591666666667,Three generations of sphalerite. Fluid inclusions  indicate 12575 ºC. 0 m cover.,https://mrdata.usgs.gov/to-json.php?db=sedznpb&id=rec_id&labno=72
72,73,Big Ledge,50.4675,-118.054444444444,NA,https://mrdata.usgs.gov/to-json.php?db=sedznpb&id=rec_id&labno=73
73,74,Blende,64.4,-134.666666666667,Fluid inclusions indicate 357158 ºC (283 ºC mean of primary inclusions). Stratabound discontinuous lenticular mineralization. 0 m cover.,https://mrdata.usgs.gov/to-json.php?db=sedznpb&id=rec_id&labno=74
74,75,Blue Bell,49.7625,-116.860833333333,0.025% Cd in ore. The deposit formed at 450370 ºC. About 10 km to intrusive.,https://mrdata.usgs.gov/to-json.php?db=sedznpb&id=rec_id&labno=75
75,76,Boylen,57.6611111111111,-69.445,Sialic basement of Archean metamorphic rocks at <10 km.,https://mrdata.usgs.gov/to-json.php?db=sedznpb&id=rec_id&labno=76
76,77,Cadieux,45.4177777777778,-76.7047222222222,NA,https://mrdata.usgs.gov/to-json.php?db=sedznpb&id=rec_id&labno=77
77,78,Caledonia,50.6444444444445,-127.603055555556,1 t mined in 1929. Exoskarn.,https://mrdata.usgs.gov/to-json.php?db=sedznpb&id=rec_id&labno=78
78,79,Cirque,57.5097222222222,-125.16,Gataga district. Combined resources of the Cirque and South Circue deposits by Macintyre and Jonasson (1992). 4550% BaSO4 in ore. Black clastics contain ?7 wt. % organic C and are host-rocks in area of facies change.,https://mrdata.usgs.gov/to-json.php?db=sedznpb&id=rec_id&labno=79
79,80,Clear Lake,62.7844444444444,-135.143333333333,7% Pb+Zn cutoff.,https://mrdata.usgs.gov/to-json.php?db=sedznpb&id=rec_id&labno=80
80,81,Colby,50.7305555555556,-118.737777777778,NA,https://mrdata.usgs.gov/to-json.php?db=sedznpb&id=rec_id&labno=81
81,82,Contact,59.32,-129.871388888889,"Produced 1.9 t Zn, 10 kg Ag, 25 kg Cu in 25 t ore. Massive magnetite body up to 2 m thick. Grab samples: 12.2% Zn, 2.64% Pb, 159 g/t Ag, 0.11% Sb, 250 ppm As, 880 ppm Cd.  Exoskarn.",https://mrdata.usgs.gov/to-json.php?db=sedznpb&id=rec_id&labno=82
82,83,Cottonbelt,51.4472222222222,-118.823333333333,NA,https://mrdata.usgs.gov/to-json.php?db=sedznpb&id=rec_id&labno=83
83,84,Craig,64.1558333333333,-133.356111111111,Pb-Zn mineralization in silicified dolomite breccia. Grab samples of felsic metavolcanics 1.5 km away contain ?16% Cu and 20.37 g/t Au.,https://mrdata.usgs.gov/to-json.php?db=sedznpb&id=rec_id&labno=84
84,85,Driftpile,58.0666666666667,-125.908055555556,Gataga district. 8% Zn cutoff grade.,https://mrdata.usgs.gov/to-json.php?db=sedznpb&id=rec_id&labno=85
85,86,Duncan,50.3638888888889,-116.951388888889,NA,https://mrdata.usgs.gov/to-json.php?db=sedznpb&id=rec_id&labno=86
86,87,Dy/Grum/Vangorda,62.2608333333333,-133.216944444444,Anvile district. 0.12% Cu in 17.24 Mt of the Dy deposit reserve. The Vangorda deposit totally and Grum deposit partially mined out.,https://mrdata.usgs.gov/to-json.php?db=sedznpb&id=rec_id&labno=87
87,88,Eclipse,75.5694444444444,-96.1938888888889,0 m cover.,https://mrdata.usgs.gov/to-json.php?db=sedznpb&id=rec_id&labno=88
88,89,Esker,66.9669444444445,-113.323611111111,"Reported geologic resources of 80.6 Mt at 4.5% Zn+Pb (Washowiak and others, 1998). Average 5.8 g/t Ag, according to drilling data (Anonymous, 1996).",https://mrdata.usgs.gov/to-json.php?db=sedznpb&id=rec_id&labno=89
89,90,Faro,62.3566666666667,-133.366944444444,Anvile district. Mined out. Magnetite mostly restricted to the NW contact with the intrusive where pyrrhotite occurs also in abundance.,https://mrdata.usgs.gov/to-json.php?db=sedznpb&id=rec_id&labno=90
90,91,Gayna River,64.9333333333333,-130.683333333333,Facies change. Fluid inclusions indicate 243119 ºC.,https://mrdata.usgs.gov/to-json.php?db=sedznpb&id=rec_id&labno=91
91,92,Gays River,45.0286111111111,-63.3388888888889,"Tonnage and Pb+Zn grade from Leach and others (2005), Zn and Pb grades divided according to grade proportion in Chagnon and others (1998). Unconformity at the base of ore-bearing unit. Fluid inclusions indicate 25070 ºC. Sphalerite of stratiform ore bodies contains ?100ppm Cd, Ag, Ni, Cu, Mn, and V.",https://mrdata.usgs.gov/to-json.php?db=sedznpb&id=rec_id&labno=92
92,93,George Lake,57.475,-103.753888888889,"1% Zn cutoff, to 150 m depth. Substantial 2008 drilling results deeper. Diorite associated with amphibolite. Archean sialic basement less 10 km.",https://mrdata.usgs.gov/to-json.php?db=sedznpb&id=rec_id&labno=93
93,94,Goz,64.4286111111111,-132.546388888889,0 m cover.,https://mrdata.usgs.gov/to-json.php?db=sedznpb&id=rec_id&labno=94
94,95,H.B.,49.1522222222222,-117.198611111111,"Total production between 1912 and 1978 included (besides Zn, Pb, and Ag) 2Kt Cd, 105 t Cu, and 6.16 kg Au (MINFILE, 2001).",https://mrdata.usgs.gov/to-json.php?db=sedznpb&id=rec_id&labno=95
95,96,Howards Pass,62.5644444444445,-129.527222222222,"The deposit occurs inside a belt of Selwyn plutonic suite (9590 Ma) (Gordey and Anderson, 1993). Sulphur isotopic fractionation at 22070 ºC, primary temperatures mostly less than 150 ºC.",https://mrdata.usgs.gov/to-json.php?db=sedznpb&id=rec_id&labno=96
96,97,Jason,63.1486111111111,-130.264722222222,Macmillan Pass district. 8% Pb+Zn cutoff. The deposit occurs inside a belt of Selwyn plutonic suite (9590 Ma). Mactung W-Cu skarn deposit 15 km NNE.,https://mrdata.usgs.gov/to-json.php?db=sedznpb&id=rec_id&labno=97
97,98,Jersey,49.1030555555556,-117.231944444444,"2.5 g/t Au average of Bismuth-Gold stratabound skarn zone. 2008, 28.5 m intersection at 3.98% Pb and 0.71% Zn.",https://mrdata.usgs.gov/to-json.php?db=sedznpb&id=rec_id&labno=98
98,99,Jubilee,45.9819444444444,-60.9630555555556,"?3.9 g/t Ag, 0.08% Cu, and 0.54% Cd in sphalerite;  0.26% Bi in galena. Fluid inclusions in sphalerite indicate 17065 ºC, reflectance indicates 230150 ºC. >10 m cover.",https://mrdata.usgs.gov/to-json.php?db=sedznpb&id=rec_id&labno=99
99,100,Kootenay King,49.7277777777778,-115.587222222222,"0.05 g/t Au in 1952-1953 production of 13,300 t ore.",https://mrdata.usgs.gov/to-json.php?db=sedznpb&id=rec_id&labno=100
100,101,Lafontaine/Lietch,46.1169444444444,-75.9555555555555,NA,https://mrdata.usgs.gov/to-json.php?db=sedznpb&id=rec_id&labno=101
101,102,Legion,49.2066666666667,-116.574444444444,"0.15 Mt at 6% Zn, ?0.5% Pb, 24% Ba.",https://mrdata.usgs.gov/to-json.php?db=sedznpb&id=rec_id&labno=102
102,103,Long Lake,44.6863888888889,-76.7622222222222,"Produced 9,467 t Zn. Grades ? 21% Zn, 3.3% Pb, 103 g/t Ag. Surrounding Mountain Grove mafic intrusion.",https://mrdata.usgs.gov/to-json.php?db=sedznpb&id=rec_id&labno=103
103,104,Lustdust,55.5658333333333,-125.414444444444,"Tonnage-grades at 1 g/t Au equivalent cutoff; at 3 g/t eq. cutoff: 2.45 Mt ore at 1.01% Zn, 0.1% Pb, 0.56% Cu, 1.82 g/t Au, and 59 g/t Ag. Mineralized horizon 200 to 100 m thick consists of limestone intercalated with phyllite. 0.1 km to intrusive",https://mrdata.usgs.gov/to-json.php?db=sedznpb&id=rec_id&labno=104
104,105,Matt Berry,61.4755555555556,-129.403888888889,NA,https://mrdata.usgs.gov/to-json.php?db=sedznpb&id=rec_id&labno=105
105,106,McDame Belle,59.2705555555556,-129.376666666667,Distal skarn.,https://mrdata.usgs.gov/to-json.php?db=sedznpb&id=rec_id&labno=106
106,107,McMillan,60.4905555555556,-127.942777777778,Covered by glacial drift 50 m thick.,https://mrdata.usgs.gov/to-json.php?db=sedznpb&id=rec_id&labno=107
107,108,Meat Cove,47.0111111111111,-60.5880555555556,"?235 g/t Cd in ore. Skarn-host dolomitic marble makes up roof pendant in Precambrian syenite. The stratabound ore contains banded sulfides. By Sangster and others (1990), the deposit pertains to SEDEX or MVT highly metamorphosed type. Exoskarn.",https://mrdata.usgs.gov/to-json.php?db=sedznpb&id=rec_id&labno=108
108,109,Mel,60.3552777777778,-127.398611111111,54.7% BaSO4 in ore.,https://mrdata.usgs.gov/to-json.php?db=sedznpb&id=rec_id&labno=109
109,110,Midway,59.9272222222222,-130.342222222222,7 km to intrusive.,https://mrdata.usgs.gov/to-json.php?db=sedznpb&id=rec_id&labno=110
110,111,Mineral King,50.3405555555556,-116.425,NA,https://mrdata.usgs.gov/to-json.php?db=sedznpb&id=rec_id&labno=111
111,112,Monarch-Kicking Horse,51.4238888888889,-116.447222222222,Fluid inclusions indicate 18263 ºC. 0 m cover.,https://mrdata.usgs.gov/to-json.php?db=sedznpb&id=rec_id&labno=112
112,113,Mosquito King,51.0472222222222,-119.506666666667,Past producer.,https://mrdata.usgs.gov/to-json.php?db=sedznpb&id=rec_id&labno=113
113,114,Mt. Alcoc,57.6647222222222,-125.400833333333,"Gataga district. 24 g/t Ag, 4.8% Zn, 13% Pb.",https://mrdata.usgs.gov/to-json.php?db=sedznpb&id=rec_id&labno=114
114,115,Mt. Hundere,60.5177777777778,-128.8775,Distal skarn.,https://mrdata.usgs.gov/to-json.php?db=sedznpb&id=rec_id&labno=115
115,116,Nanisivik,73.0616666666667,-84.5083333333333,"Closed the mine 2002. Fluid inclusions indicate 18050 ºC; and ?313 ºC near the crosscuting diabase dike. According to Sutherland and Dumka (1995), exotic minerals containing ore grade values of Ni, Co, and Cu occur along the dike in the pre-existing sulfides. The Mine diabase dike defined as the post-mineral (Arne and others, 1991; Clayton and Thorpe, 1982; Sutherland and Dumka, 1995; Symons and others, 2000), or as the pre-mineral (Sherlock and others, 2004). 0 m cover.",https://mrdata.usgs.gov/to-json.php?db=sedznpb&id=rec_id&labno=116
116,117,New Calumet,45.7005555555556,-76.6777777777778,24% to 34% Ag in tetrahedrite.,https://mrdata.usgs.gov/to-json.php?db=sedznpb&id=rec_id&labno=117
117,118,Newfoundland Zinc,50.2819444444444,-57.4711111111111,"Deposit age determinations: paleomagnetic, 380±7 Ma (Pan and Symons, 1993); Rb-Sr sphalerite isochrone, 375±75 Ma (Nakai and others, 1993); 40Ar/39Ar K-feldspar, 360±10 Ma (Hall and York, 1989). >10 m cover.",https://mrdata.usgs.gov/to-json.php?db=sedznpb&id=rec_id&labno=118
118,119,Paradise,50.4716666666667,-116.301666666667,"64,650 t mainly oxidized ore mined; 22.93 t Ag, 995 g Au, 7.25 Kt Pb, 3.62 Kt Zn, 10 t Cd produced. 12 km to intrusive.",https://mrdata.usgs.gov/to-json.php?db=sedznpb&id=rec_id&labno=119
119,120,Piedmont-Hope,49.7261111111111,-117.415555555556,"Grab samples contain: 13% Zn, 4.6% Pb, 0.24% Cd, 950 ppm Cu, 350 ppm Bi, 135 ppm Sb.  Exoskarn.",https://mrdata.usgs.gov/to-json.php?db=sedznpb&id=rec_id&labno=120
120,121,Pine Point,60.8322222222222,-114.448888888889,"Fluid inclusions  indicate 10060 ºC, apatite fission track 10085 ºC. >50m cover.",https://mrdata.usgs.gov/to-json.php?db=sedznpb&id=rec_id&labno=121
121,122,Polaris,75.3877777777778,-96.9311111111111,Closed the mine 2002. Fluid inclusions  indicate 14167 ºC. 0 m cover.,https://mrdata.usgs.gov/to-json.php?db=sedznpb&id=rec_id&labno=122
122,123,Prairie Creek,61.5555555555556,-124.796944444444,"The majority of the resource reports to veins; stratabound mineralization in dolomite consists of 1.52 Mt at 11.35 % Zn, 10.85% Pb, 0.35 % Cu, and 176 g/t Ag (Canadian Zinc, 2009). Mineralization open to north and to depth. Fluid inclusions indicate temperatures: (1) stratabound mineralization, 221131 ºC; (2) late Pb-Zn-Ag-Cu vein  mineralization (Laramide?), 265120 ºC; (3) MVT cavity-filling, ? ºC.",https://mrdata.usgs.gov/to-json.php?db=sedznpb&id=rec_id&labno=123
123,124,Reeves MacDonald,49.0302777777778,-117.344166666667,NA,https://mrdata.usgs.gov/to-json.php?db=sedznpb&id=rec_id&labno=124
124,125,Rift,51.875,-118.573611111111,0.060.25 g/t Au; 0.310 g/t Ag; 29.75% Zn; 5.28% Pb; 0.03% Cu; ?1.2% Ba (average of 25 samples).,https://mrdata.usgs.gov/to-json.php?db=sedznpb&id=rec_id&labno=125
125,126,Ritco,60.5477777777778,-128.878888888889,Exoskarn.,https://mrdata.usgs.gov/to-json.php?db=sedznpb&id=rec_id&labno=126
126,127,River Jordan,51.125,-118.412222222222,NA,https://mrdata.usgs.gov/to-json.php?db=sedznpb&id=rec_id&labno=127
127,128,Robb Lake,56.93,-123.713055555556,Fluid inclusions in sphalerite indicate 15487 ºC. 0 m cover.,https://mrdata.usgs.gov/to-json.php?db=sedznpb&id=rec_id&labno=128
128,129,Ruddock Creek,51.7763888888889,-118.901111111111,Extensive pegmatite sills.,https://mrdata.usgs.gov/to-json.php?db=sedznpb&id=rec_id&labno=129
129,130,Salerno Lake,44.8744444444444,-78.5047222222222,NA,https://mrdata.usgs.gov/to-json.php?db=sedznpb&id=rec_id&labno=130
130,131,Smithfield,45.2725,-63.0766666666667,Unconformity at the base of ore-bearing unit. Hydrothermal activity at 250180 ºC.,https://mrdata.usgs.gov/to-json.php?db=sedznpb&id=rec_id&labno=131
131,132,Sullivan,49.7083333333333,-116.005555555556,Total thickness of ore-bearing Aldridge Formation ~12.5 km (seismic data). North Star and Stemwinder are the deposits located in the Sullivan graben.,https://mrdata.usgs.gov/to-json.php?db=sedznpb&id=rec_id&labno=132
132,133,Swim,62.2075,-133.034722222222,Anvil district. 6% Pb+Zn cutoff.,https://mrdata.usgs.gov/to-json.php?db=sedznpb&id=rec_id&labno=133
133,134,Tom,63.1647222222222,-130.144444444444,Macmillan Pass district. 5% Pb+Zn cutoff. The deposit occurs inside a belt of Selwyn plutonic suite (9590 Ma). Mactung W-Cu skarn deposit 14 km N.,https://mrdata.usgs.gov/to-json.php?db=sedznpb&id=rec_id&labno=134
134,135,Upton,45.68,-72.67,Resource contains 46.5% BaSO4 and 0.11% Cd. Fluid inclusions indicate 13080 ºC.  0 m cover.,https://mrdata.usgs.gov/to-json.php?db=sedznpb&id=rec_id&labno=135
135,136,Vulcan,62.3,-128.166666666667,Stratiform lenticular orebodies occur above unconformity between dolomite and ore-hosting shale.,https://mrdata.usgs.gov/to-json.php?db=sedznpb&id=rec_id&labno=136
136,137,Walton,45.2055555555556,-64.0416666666667,"Production of 4.5 Mt at >90% BaSO4, 0.413 Mt Pb-Zn sulfide ore; 1941 start of barite production. Unconformity at the base of ore-bearing unit.",https://mrdata.usgs.gov/to-json.php?db=sedznpb&id=rec_id&labno=137
137,138,Wigwam,50.88,-117.967777777778,?111 g/t Ag. Folded sulfide layers.,https://mrdata.usgs.gov/to-json.php?db=sedznpb&id=rec_id&labno=138
138,139,Zip,50.3627777777778,-126.911944444444,Inferred resource 1966. Exoskarn.,https://mrdata.usgs.gov/to-json.php?db=sedznpb&id=rec_id&labno=139
139,140,Yava,45.8572222222222,-60.4108333333333,Zn intersections: 0.6 m at 2.26% Zn; 2.9 m at 1.02% Zn. Sialic basement <10 kmgranite and quartz feldspar porphyry (551±24 Ma).,https://mrdata.usgs.gov/to-json.php?db=sedznpb&id=rec_id&labno=140
140,141,El Faldeo,-47.4241666666667,-72.475,"In skarn: ?4% Zn, 0.43% Pb, 10100 g/t Ag, ?1.1 g/t Au; in epithermal low sulfidation mineralization: 2 g/t Au and 140 g/t Ag. Exoskarn.",https://mrdata.usgs.gov/to-json.php?db=sedznpb&id=rec_id&labno=141
141,142,El Toqui,-45.0338888888889,-71.9263888888889,"Production 19882004,  6.26 Mt (Briggs, 2006);  Production 20052007, 1.32 Mt (Breakwater, 2007); Resources 2007, 9.38 Mt (Breakwater, 2007).  0.86% Cd in ore. Combination of stratiform (inferred VMS) and discordant vein-like mineralization. Exoskarn.",https://mrdata.usgs.gov/to-json.php?db=sedznpb&id=rec_id&labno=142
142,143,Maria Cristina,-28.0661111111111,-70.4722222222222,"10 Kt ore at 11.48% Zn, 1.41% Pb, ?0.16 g/t Au, ?470 g/t Ag. Exoskarn.",https://mrdata.usgs.gov/to-json.php?db=sedznpb&id=rec_id&labno=143
143,144,Mina Silva/Rosillo,-46.57,-72.5491666666667,"Rosillo deposit 5.5 Mt at 4.07% Zn, 0.04% Pb, 0.06% Cu, 22 g/t Ag. No data on tonnage of Mina Silva deposit containing 9.6% Zn, 0.86% Pb, 0.015% Cu, 113.7 g/t Ag. In both deposits 0.040.07% Cd. Exoskarn.",https://mrdata.usgs.gov/to-json.php?db=sedznpb&id=rec_id&labno=144
144,145,Bafangshan,33.59,106.88,"Trace-elements, ppm, in sphalerite: 25.4 Ga, 7.92 Ge, 4.25 In; in pyrite: 174 Co, 181 Ni.",https://mrdata.usgs.gov/to-json.php?db=sedznpb&id=rec_id&labno=145
145,146,Baiyinnuo,44.4491666666667,118.887777777778,Exoskarn.,https://mrdata.usgs.gov/to-json.php?db=sedznpb&id=rec_id&labno=146
146,147,Bajiazi,40.5861111111111,120.098611111111,"According to Hou and Zhao (1993), the deposit was originally SEDEX altered to skarn in exocontact of Yanshanian intrusion. Exoskarn.",https://mrdata.usgs.gov/to-json.php?db=sedznpb&id=rec_id&labno=147
147,148,Bao’an,25.4086111111111,108.981111111111,Model Pb-Pb age 470420 Ma.  Pre-Sinian cratonal sialic basement <10 km.,https://mrdata.usgs.gov/to-json.php?db=sedznpb&id=rec_id&labno=148
148,149,Beishan,25.1925,108.143333333333,"Trace-elements, ppm, in sphalerite: 1,700 Cd, 89 Ge,; in galena:<10 Ag, 2650 Sb, 200 Bi; in pyrite: 50 Co, 199 Ni, 375 As.",https://mrdata.usgs.gov/to-json.php?db=sedznpb&id=rec_id&labno=149
149,150,Bijiashan,33.8605555555556,105.681111111111,"Xicheng district. 1 g/t Au and 29 g/t Ag reported; Zn/Pb=2.07. Trace-elements, ppm, in sphalerite: 1,88 Cd, 35.9 Ga, 9.8 Ge, 10 In; in pyrite: 42.3 Co, 193.3 Ni, 375 As.",https://mrdata.usgs.gov/to-json.php?db=sedznpb&id=rec_id&labno=150
150,151,Changba/Lijiagou,33.9794444444444,105.691111111111,"Xicheng district. ?1.0 g/t Au, 530 g/t Ag, 0.0070.038% Cd reported.  Fluid inclusions indicate  320 to 100 ºC. Trace-elements, ppm, in sphalerite: 1,42 Cd, 3.4 Ga, 1.4 Ge, 3.2 In; in pyrite: 19 Co, 55 Ni.",https://mrdata.usgs.gov/to-json.php?db=sedznpb&id=rec_id&labno=151
151,152,Dabaoshan,24.5541666666667,113.722222222222,"Tonnage and grades include: 126 Mt at 0.72% Cu with 100 Kt at average 0.12% WO, and separated by fault 21 Mt at 4% Zn and 2.33% Pb. Concordant massive sulfide bodies considered as (1) near-granodiorite skarn+replacement or (2) as Devonian SEDEX transformed by overprinted Mesozoic granitoids with tungsten enrichment.",https://mrdata.usgs.gov/to-json.php?db=sedznpb&id=rec_id&labno=152
152,153,Daliangzi,26.6316666666667,102.869722222222,Fluid inclusions indicate  250 to 150ºC. 0 m cover.,https://mrdata.usgs.gov/to-json.php?db=sedznpb&id=rec_id&labno=153
153,154,Dengjiashan,33.8458333333333,105.360277777778,"Xicheng district. 0.1 g/t Au, 160 g/t Cd, 650 g/t Hg in ore. Trace-elements, ppm, in sphalerite: 1,94 Cd, 50.8 Ga, 55.5 Ge, 2.6 In; in pyrite: 60 Co, 380 Ni.",https://mrdata.usgs.gov/to-json.php?db=sedznpb&id=rec_id&labno=154
154,155,Dongjiahe,28.1930555555556,110.461388888889,Stratiform; fluid inclusions indicate 170130 ºC.,https://mrdata.usgs.gov/to-json.php?db=sedznpb&id=rec_id&labno=155
155,156,Dongshengmiao,41.11,107.073333333333,"Trace-elements, ppm, in sphalerite up to: 137 Cd, 6 Ga, 5.8 Ge, 22 In; in pyrite up to: 2,100 Co, 410 Ni, 54 As. Fluid inclusions indicate 350200 ºC.",https://mrdata.usgs.gov/to-json.php?db=sedznpb&id=rec_id&labno=156
156,157,Fankou,25.0961111111111,113.601388888889,"Concordant lenticular massive sulfide bodies ~600 m long and ?5 m thick in Lower Carboniferous shale combined with discordant mineralization along steeply dipping syn-sedimentary fault in Upper Devonian sequence. Trace-elements, ppm, in sphalerite: 1,900 Cd, 310 Ga, 103 Ge, 22 In, 210 Ag; in galena: 1,640 Ag, 1,210 Sb, 300 Hg, 120 Bi, 500 As; in pyrite: 47 Co, 43 Ni, 3,500 As, 2.2 Se, 5.0 Te. Fluid inclusions in sphalerite indicate 190145 ºC by Song and Tan, (1997), 305 to 200 ºC by Deng and others (2005).",https://mrdata.usgs.gov/to-json.php?db=sedznpb&id=rec_id&labno=157
157,158,Fozichong,23.0494444444444,111.193333333333,"Approximate tonnage and grades estimate on a base of data from Chen and others (2007) and Lei and others (2002). 1.5 t Au at 0.3 g/t Au removed (Chen and others, 2007). Combination of stratiform and crosscut ore bodies. Exoskarn.",https://mrdata.usgs.gov/to-json.php?db=sedznpb&id=rec_id&labno=158
158,159,Gaobanhe,40.7808333333333,118.232222222222,"Fluid inclusions indicate 360 to 150 ºC. Trace-elements, in sphalerite, ppm: 2390 Cd, 48 Ga, 184 Ge.",https://mrdata.usgs.gov/to-json.php?db=sedznpb&id=rec_id&labno=159
159,160,Guangmenshan,42.6458333333333,124.287777777778,"Fluid inclusions in sphalerite indicate 307202 ºC ( Tu and others, 1990); 150100 ºC in sphalerite and generally 300150 ºC in quartz and dolomite (Rui and others, 1991). Model age of mineralization 16201560 Ma; late mineralization 467 Ma. Traces to 1,200 g/t Ag in galena; 890 to 1800 ppm Hg in sphalerite.",https://mrdata.usgs.gov/to-json.php?db=sedznpb&id=rec_id&labno=160
160,161,Guantangzhi,40.8480555555556,118.233055555556,Medium deposit.,https://mrdata.usgs.gov/to-json.php?db=sedznpb&id=rec_id&labno=161
161,162,Haobugao,44.6375,119.263055555556,Tonnage approximate. Exoskarn.,https://mrdata.usgs.gov/to-json.php?db=sedznpb&id=rec_id&labno=162
162,163,Houhongqiao,25.3,111.72,NA,https://mrdata.usgs.gov/to-json.php?db=sedznpb&id=rec_id&labno=163
163,164,Huangshaping,25.7336111111111,112.699722222222,"Additional grades:  0.10.5% WO3, 0.010.3% Mo. Silver grade estimate from data of Zhong and others (1997). Exoskarn.",https://mrdata.usgs.gov/to-json.php?db=sedznpb&id=rec_id&labno=164
164,165,Huanren,41.2977777777778,125.365277777778,Exoskarn.,https://mrdata.usgs.gov/to-json.php?db=sedznpb&id=rec_id&labno=165
165,166,Huayuan,28.5325,109.375,Sphalerite contains 6218 g/t Cd. Fluid inclusions indicate 19090ºC.,https://mrdata.usgs.gov/to-json.php?db=sedznpb&id=rec_id&labno=166
166,167,Huogeqi,41.2955555555556,106.778888888889,"Trace-elements, ppm, in pyrite: 114 Co, 208 Ni, 4.3 Se.",https://mrdata.usgs.gov/to-json.php?db=sedznpb&id=rec_id&labno=167
167,168,Jiashengpan,41.22,109.333888888889,"Trace-elements, ppm, in sphalerite: 1280 Cd; in galena: 4.3 Ag; in fine-grained pyrite: 14.9 Co, 23.1 Ni, 814 As; in coarse-grained pyrite: 195 Co, 120 Ni, 420 As; in pyrrhotite: 212 Co, 289 Ni, 135 As",https://mrdata.usgs.gov/to-json.php?db=sedznpb&id=rec_id&labno=168
168,169,Jinding,26.4269444444444,99.4072222222222,"In ore: 120 g/t Ag, 0.010.2% Cd, 1318% Sr, 620 g/t Tl. Coarse continental siliclastic fan-delta facies of host-rocks. Disseminated sulfide mineralization related to growth fault. Fluid inclusions indicate 30954 ºC, average 154 ºC in sphalerite. Blind Tertiary intrusion is indicated in the deposit area by gravity and remote sensing data (Xue and others, 2004). Sialic Proterozoic basement (source of ore host rocks) exposed at <10 km.",https://mrdata.usgs.gov/to-json.php?db=sedznpb&id=rec_id&labno=169
169,170,Kuangshanchang,26.6338888888889,103.700277777778,Zn and Pb grades are calculated from from 30.6 (Zn+Pb)%. Fluid inclusions and isotope data indicate 220165 ºC.  0 m cover.,https://mrdata.usgs.gov/to-json.php?db=sedznpb&id=rec_id&labno=170
170,171,Lame,24.8180555555556,107.583611111111,Exoskarn.,https://mrdata.usgs.gov/to-json.php?db=sedznpb&id=rec_id&labno=171
171,172,Luoba,34.3222222222222,105.070555555556,"Xicheng district. Located inside North Qinling magmatic arc, 13 km to nearest mapped Mesozoic granite pluton.",https://mrdata.usgs.gov/to-json.php?db=sedznpb&id=rec_id&labno=172
172,173,Maozu,27.3519444444444,102.984166666667,NA,https://mrdata.usgs.gov/to-json.php?db=sedznpb&id=rec_id&labno=173
173,174,Niujiaotang,26.2358333333333,107.665277777778,"The reserve includes 5 Kt Cd at average 5,370 g/t Cd (up to 13,400 g/t.). Fluid inclusions indicate 131104ºC.",https://mrdata.usgs.gov/to-json.php?db=sedznpb&id=rec_id&labno=174
174,175,Qiandongshan,33.59,110.794444444444,"Trace-elements, ppm, in sphalerite: 2,300 Cd, 26 Ga, 35 Ge, 22 In, 210 Ag; in galena: 820 Ag, 721 Sb, <10 Bi; in pyrite: 67 Co, 57 Ni, 3,500 As, <6 Se, <0.1 Te.",https://mrdata.usgs.gov/to-json.php?db=sedznpb&id=rec_id&labno=175
175,176,Qilinchang,26.6430555555556,103.723333333333,"Ge, Cd, In, and Ga by-products. Fluid inclusions and isotope data indicate 220165 ºC.  0 m cover.",https://mrdata.usgs.gov/to-json.php?db=sedznpb&id=rec_id&labno=176
176,177,Qingchengzi,40.7338888888889,123.616944444444,?7.18 g/t Au in ore (~1 g/t Au implied). Gold superposed at 239 Ma. Fluid inclusions indicate  256 to 96 ºC.,https://mrdata.usgs.gov/to-json.php?db=sedznpb&id=rec_id&labno=177
177,178,Qixiashan,32.1583333333333,118.965277777778,Steeply dipping concordant bedded and massive sulfide orebody accompanied by ore clasts in sulfide turbidite; mineralized collapse breccia related to paleokarst.  Fluid inclusions indicate 360 to 80 ºC.,https://mrdata.usgs.gov/to-json.php?db=sedznpb&id=rec_id&labno=178
178,179,Shuikoushan,26.5488888888889,112.583611111111,Early fluid inclusions indicate 375276 ºC. Exoskarn and endoskarn.,https://mrdata.usgs.gov/to-json.php?db=sedznpb&id=rec_id&labno=179
179,180,Siding,24.8783333333333,109.500555555556,Fluid inclusions indicate 26080ºC.,https://mrdata.usgs.gov/to-json.php?db=sedznpb&id=rec_id&labno=180
180,181,Tanyaokou,40.9522222222222,106.805277777778,"Trace-elements in pyrite, ppm: 330 Co, 320 Ni, 5 Se.",https://mrdata.usgs.gov/to-json.php?db=sedznpb&id=rec_id&labno=181
181,182,Tianbaoshan,42.9172222222222,128.988333333333,Exoskarn.,https://mrdata.usgs.gov/to-json.php?db=sedznpb&id=rec_id&labno=182
182,183,Tianbaoshan,26.9625,102.160833333333,Fluid inclusions indicate 250  <150 ºC. 0 m cover.,https://mrdata.usgs.gov/to-json.php?db=sedznpb&id=rec_id&labno=183
183,184,Tongmugou,33.4447222222222,109.938055555556,Granite intrusion at a depth near deposit is inferred from rocks and minerals.,https://mrdata.usgs.gov/to-json.php?db=sedznpb&id=rec_id&labno=184
184,185,Weiquan,41.8841666666667,91.7319444444444,"Cu-Ag-(Pb-Zn) deposit with primary resource 2001 of 400 Kt Cu at 0.2 to 4.1% Cu, 2.7% Pb+Zn, 466 g/t Ag (~18 Mt ore). Reserve 2006 59.5 Kt Cu and 1272 t Ag. Zn and Pb grade approximate. Fluid inclusions indicate 297150 ºC. Exoskarn.",https://mrdata.usgs.gov/to-json.php?db=sedznpb&id=rec_id&labno=185
185,186,Xidonggou,33.0983333333333,109.149166666667,NA,https://mrdata.usgs.gov/to-json.php?db=sedznpb&id=rec_id&labno=186
186,187,Xiyupi,37.5997222222222,111.9825,The deposit is defined by Tu (1996) as stratabound metamorphic-migmatized. Post-mineral granite dikes of Paleoproterozoic age. Exoskarn.,https://mrdata.usgs.gov/to-json.php?db=sedznpb&id=rec_id&labno=187
187,188,Yindongzi,33.5433333333333,108.931111111111,"Tonnage estimated from Wu and others (1993). Produced ore at 0.1 g/t Au, 107 g/t Ag, 0.56% Cu, 2% Zn, 10% Pb. Trace-elements, ppm, in sphalerite: 17 Ga, 7 Ge,  1 In;  in pyrite: 91.1 Co, 127 Ni.",https://mrdata.usgs.gov/to-json.php?db=sedznpb&id=rec_id&labno=188
188,189,Yinmusi,33.7513888888889,106.849722222222,NA,https://mrdata.usgs.gov/to-json.php?db=sedznpb&id=rec_id&labno=189
189,190,M’Passa,-4.37527777777778,14.1569444444444,"Tonnage ~0.2 Mt ore. Stratiform bed and discordant breccia-pipe, funnel, chimney orebodies mined underground, produced 200 Kt Pb+Zn, 2 Kt Cu. Fault and paleokarst related mineralization of two main mineral association: (1) chalcocite, tennantite, (2) sphalerite-galena-pyrite.",https://mrdata.usgs.gov/to-json.php?db=sedznpb&id=rec_id&labno=190
190,191,Yanga-Koubanza,-4.37,13.8491666666667,"Production 660 Kt Pb, 220 Kt Zn. Resource 5.5 Mt at 7.95% Zn, 6.97% Pb, 1.87% Cu. Stratiform replacement and discordant pipe-like breccia orebodies.",https://mrdata.usgs.gov/to-json.php?db=sedznpb&id=rec_id&labno=191
191,192,Castellanos/La Esperanza,22.6355555555556,-83.9769444444444,"(1) Castellanos reserve: 11.9 Mt at 6.2% Zn, 3.23% Pb, 1.6 g/t Au, 43 g/t Ag, 7.9% Ba in main stratabound orebody; and 0.5 Mt at 1.2% Cu in copper stringer zones. |(2) La Esperanza reserve: 2.5 Mt at 1.55% Cu.",https://mrdata.usgs.gov/to-json.php?db=sedznpb&id=rec_id&labno=192
192,193,Matahambre,22.5911111111111,-83.9419444444444,"Tonnage-grades include: (1) main reserve, 13.8 Mt at 5.0% Cu, 0.12 g/t Au; and (2) reserve of the body #70, 2.0 Mt at 0.21% Cu, 4.2% Zn, 1.97% Pb.",https://mrdata.usgs.gov/to-json.php?db=sedznpb&id=rec_id&labno=193
193,194,Nieves,22.5705555555556,-83.9491666666667,NA,https://mrdata.usgs.gov/to-json.php?db=sedznpb&id=rec_id&labno=194
194,195,Santa Lucia,22.6427777777778,-83.9558333333333,Au grade implied. In oxidized ore 0.5 g/t Au and 52 g/t Ag; in primary ore 14% BaSO4.,https://mrdata.usgs.gov/to-json.php?db=sedznpb&id=rec_id&labno=195
195,196,Kipushi,-11.7611111111111,27.2455555555556,"0.3% Ge in ore. Ore-bearing breccia might have had a carbonate-(evaporite) karst origin or related to olistostrome and/or to thrusts of Lufilian arc. Concordant radiologic ages might have expressed a time of the last geothermal  event (syenite 458427 Ma, by Cosi and others, 1992).",https://mrdata.usgs.gov/to-json.php?db=sedznpb&id=rec_id&labno=196
196,197,Um Gheig,25.7202777777778,34.5305555555556,NA,https://mrdata.usgs.gov/to-json.php?db=sedznpb&id=rec_id&labno=197
197,198,Rauhala,64.0588888888889,24.7908333333333,NA,https://mrdata.usgs.gov/to-json.php?db=sedznpb&id=rec_id&labno=198
198,199,Arrens,42.9561111111111,0.214166666666667,The deposit contains +3.0 Mt of barite; tens of g/t Ag. 0.5 m-thick  lenses of pure celsian in barite beds.,https://mrdata.usgs.gov/to-json.php?db=sedznpb&id=rec_id&labno=199
199,200,Carboire,42.7502777777778,1.30055555555556,NA,https://mrdata.usgs.gov/to-json.php?db=sedznpb&id=rec_id&labno=200
200,201,Les Malines,43.9241666666667,3.62277777777778,Fluid inclusions indicate 15075 ºC. U-Pb dating of fluorite shows 33 Ma. Paleomagnetic analysis confirms Early-Middle Eocene age of mineralization. 0 m cover.,https://mrdata.usgs.gov/to-json.php?db=sedznpb&id=rec_id&labno=201
201,202,Trèves,44.0777777777778,3.38888888888889,"Tonnage calculated from production and reserves by Stolojan and Viland (1991) using Zn, Pb, and Ag grades from Leach and others (2005). Paleomagnetic analysis shows Early-Middle Eocene age of mineralization.",https://mrdata.usgs.gov/to-json.php?db=sedznpb&id=rec_id&labno=202
202,203,Villemagne,44.11,3.46583333333333,"Tonnage from production and reserves by Stolojan and Viland (1991), grades from Leach and others (2005). Paleomagnetic data show Early-Middle Eocene age of mineralization. >10 m cover.",https://mrdata.usgs.gov/to-json.php?db=sedznpb&id=rec_id&labno=203
203,204,Largentiere,44.5405555555556,4.29194444444445,"Mined out 18561885, 19641981. Fluid inclusions in sphalerite indicate 15463.5 ºC. Combination of fault-related discordant and stratiform ore bodies. The latter are considered synsedimentary by some authors. Oreclasts were discovered in intraformational Triassic conglomerate (Bernard and Samama, 1976). Local horst of Carboniferous clastic rocks. Granite, gneiss and migmatite of the Massif Central sialic basement are exposed at <10 km.",https://mrdata.usgs.gov/to-json.php?db=sedznpb&id=rec_id&labno=204
204,205,Kroussou,-1.47916666666667,10.2402777777778,"Stratiform Pb-(Zn) mineralization. Sialic basement of Paleoproterozoic gneiss, granite at <10 km.",https://mrdata.usgs.gov/to-json.php?db=sedznpb&id=rec_id&labno=205
205,206,Maubach,50.7458333333333,6.44472222222222,0.2% Co and 0.1% Ni in ore. Orebody cut by several clearly post-mineral faults and joints. ~140 ºC estimated for sulfide. Sialic basement of Paleozoic metamorphic rocks at <10 km.,https://mrdata.usgs.gov/to-json.php?db=sedznpb&id=rec_id&labno=206
206,207,Mechernich,50.5727777777778,6.61166666666667,~140 ºC estimated temperature for sulfides. Sialic basement of Paleozoic metamorphic rocks at <10 km.,https://mrdata.usgs.gov/to-json.php?db=sedznpb&id=rec_id&labno=207
207,208,Meggen,51.1291666666667,8.07777777777778,"+9.5 Mt @ 97% BaSO4. Trace elements, %: 0.3 to 0.79 Sr, 0.083 As, 0.017 Ni, 0.002 Co, 0.016 Sb, 0.031 Cd, 0.023 Tl. Meggen tuff possibly derived from trachyte (Dornsiepen, 1985).",https://mrdata.usgs.gov/to-json.php?db=sedznpb&id=rec_id&labno=208
208,209,Oberpfalz,49.6094444444444,11.9347222222222,0.20.3% Co in ore. Sialic basement of Precambrian gneiss intruded by Variscan granite at <10 km.,https://mrdata.usgs.gov/to-json.php?db=sedznpb&id=rec_id&labno=209
209,210,Rammelsberg,51.8905555555556,10.4194444444444,"?2.8 g/t Au, 22% barite; +5 Mt at 9% Zn+Pb+Cu. Trace-elements, %: 0.05 As, 0.08 Sb, 0.015 Co, 0.007 Bi, 0.005 Sn.",https://mrdata.usgs.gov/to-json.php?db=sedznpb&id=rec_id&labno=210
210,211,Kassandra,40.5197222222222,23.7961111111111,Massive and disseminated sulfide mineralization in the marble horizon 30 to 300 m thick. Nebel and others (1991) suggested synsedimentary origin of massive sulfide ore metamorphosed to upper amphibolite grade and partially overprinted by skarn.,https://mrdata.usgs.gov/to-json.php?db=sedznpb&id=rec_id&labno=211
211,212,Laurium,37.7036111111111,24.0591666666667,"Two ore bearing marble horizons: lower horizon >100 m thick, mostly mineralized in upper 60 m under the schist unit; upper horizon 60 m thick, mostly mineralized in the upper part under overthrust phyllite. Succession of mineral stages  by Leleu and others (1973): (1) volcanic- sedimentary pyrite+Pb-Zn-Ag; (2) skarn (+replacement) (Miocene) mt, po+ Pb-Zn-Ag; (3) karst Pb-Zn-Ag sulfide and oxide minerals.",https://mrdata.usgs.gov/to-json.php?db=sedznpb&id=rec_id&labno=212
212,213,Olympias,40.6008333333333,23.7491666666667,"The marble horizon 30 to 300 m thick, hosting the Olympias as well as the Kassandra stratabound ores (8 km apart), is the lower of  the three marble horizons in the Kerdilia gneiss-marble formation. Banded deformed sulfide ore from Olympas  is clearly intersected by the undeformed pegmatite vein on the photograph Fig. 4 from Kaloceropoulos (1989).",https://mrdata.usgs.gov/to-json.php?db=sedznpb&id=rec_id&labno=213
213,214,Black Angel,71.1261111111111,-51.2780555555556,Planned production restart in 2008.,https://mrdata.usgs.gov/to-json.php?db=sedznpb&id=rec_id&labno=214
214,215,Citronen Fjord,83.0786111111111,-28.415,350 Mt  preliminary estimated total ore tonnage.,https://mrdata.usgs.gov/to-json.php?db=sedznpb&id=rec_id&labno=215
215,216,Nunngarut,71.0961111111111,-51.2338888888889,NA,https://mrdata.usgs.gov/to-json.php?db=sedznpb&id=rec_id&labno=216
216,217,El Mochito,14.8616666666667,-88.075,19482006 production 18.4 Mt; 2006 resources 5.7 Mt. distal skarn,https://mrdata.usgs.gov/to-json.php?db=sedznpb&id=rec_id&labno=217
217,218,Askot,29.7619444444444,80.3125,Lenticular massive sulfide body 645 m long mostly in mica schist.,https://mrdata.usgs.gov/to-json.php?db=sedznpb&id=rec_id&labno=218
218,219,Bajta Central,25.8183333333333,75.2669444444445,NA,https://mrdata.usgs.gov/to-json.php?db=sedznpb&id=rec_id&labno=219
219,220,Corubathan,26.975,88.6513888888889,The ores are annealed.,https://mrdata.usgs.gov/to-json.php?db=sedznpb&id=rec_id&labno=220
220,221,Devpura/South Dedwas,25.3977777777778,74.6177777777778,NA,https://mrdata.usgs.gov/to-json.php?db=sedznpb&id=rec_id&labno=221
221,222,Ganeshpura,25.8038888888889,75.2436111111111,NA,https://mrdata.usgs.gov/to-json.php?db=sedznpb&id=rec_id&labno=222
222,223,Kankariya,26.5272222222222,74.6863888888889,NA,https://mrdata.usgs.gov/to-json.php?db=sedznpb&id=rec_id&labno=223
223,224,Kayar,26.5894444444444,74.6863888888889,NA,https://mrdata.usgs.gov/to-json.php?db=sedznpb&id=rec_id&labno=224
224,225,Kolari,20.7886111111111,79.5119444444444,NA,https://mrdata.usgs.gov/to-json.php?db=sedznpb&id=rec_id&labno=225
225,226,Madarpura,26.5002777777778,74.6680555555556,NA,https://mrdata.usgs.gov/to-json.php?db=sedznpb&id=rec_id&labno=226
226,227,Mamandur,12.0147222222222,78.9513888888889,Two generations of gahnite related respectively (1) to prograde granulite metamorphism and (2) to retrogressive greenschist metamorphism.,https://mrdata.usgs.gov/to-json.php?db=sedznpb&id=rec_id&labno=227
227,228,Rajpura-Dariba,24.9502777777778,74.1338888888889,"Tonnage and grade calculated from Geological Survey of India (1994), Haldar and Deb, (2001), Raghu Nandan and others (1981).",https://mrdata.usgs.gov/to-json.php?db=sedznpb&id=rec_id&labno=228
228,229,Rampura-Agucha,25.8322222222222,74.7386111111111,?0.1% Cu in ore. Partial melting and metamorphic remobilization of ore.,https://mrdata.usgs.gov/to-json.php?db=sedznpb&id=rec_id&labno=229
229,230,Rangpo,27.1802777777778,88.5330555555555,Ores show annealing fabric.,https://mrdata.usgs.gov/to-json.php?db=sedznpb&id=rec_id&labno=230
230,231,Rewara,25.0991666666667,74.3541666666667,NA,https://mrdata.usgs.gov/to-json.php?db=sedznpb&id=rec_id&labno=231
231,232,Saladipura,27.6158333333333,75.5247222222222,0.5 to 2.0% Zn content.,https://mrdata.usgs.gov/to-json.php?db=sedznpb&id=rec_id&labno=232
232,233,Sargipali,22.0519444444444,83.9205555555555,NA,https://mrdata.usgs.gov/to-json.php?db=sedznpb&id=rec_id&labno=233
233,234,Sawar/Tikhi,25.7522222222222,75.2191666666667,Reported noticeable contents of Cd and Ag.,https://mrdata.usgs.gov/to-json.php?db=sedznpb&id=rec_id&labno=234
234,235,Tiranga,25.32,74.5347222222222,Ore-host metamorphic sequence is classified as BIF (banded iron formation),https://mrdata.usgs.gov/to-json.php?db=sedznpb&id=rec_id&labno=235
235,236,Zawar,24.3636111111111,73.7161111111111,Tonnage and grades calculated from Geological Survey of India (1994).,https://mrdata.usgs.gov/to-json.php?db=sedznpb&id=rec_id&labno=236
236,237,Kelapa Kampit,-2.70555555555556,108.073611111111,Hutchinson and Taylor (1978) assumed primary synngenetic stratiform ore. Bedded ore zone seems crossed by late cassiterite-polymetallic veins . Adjoining unrelated (?) bedded Sn skarn deposit with 3 Mt at 1.5% Sn. Distal skarn.,https://mrdata.usgs.gov/to-json.php?db=sedznpb&id=rec_id&labno=237
237,238,Sopokomil,2.50694444444444,98.2277777777778,"Stratiform massive sulfide body in black shale; sulfide veins and collapse breccia of """"feeder stockwork"""" containing up to 92 g/t Ag in underlying massive dolostone.",https://mrdata.usgs.gov/to-json.php?db=sedznpb&id=rec_id&labno=238
238,239,Āhangarān,34.0894444444444,49.2447222222222,"(1) composite (average) sample: 13.1% Pb, 2.3% Zn, 0.5% Cu; (2) 87 to 2400 g/t Ag; (3) relatively high As content.",https://mrdata.usgs.gov/to-json.php?db=sedznpb&id=rec_id&labno=239
239,240,Angouran,36.6247222222222,47.4052777777778,"In sulfide ore: 760 g/t As, 300 g/t Sb, 20 g/t Hg, 400 g/t Co, 350 g/t Ni. Arsenopyrite contains ?14% Co. Superposed (remobilized) MVT and oxide Zn-Pb mineralizations. Fluid inclusions in early sphalerite indicate 162125 ºC, and in late sphalerite 14073 ºC .",https://mrdata.usgs.gov/to-json.php?db=sedznpb&id=rec_id&labno=240
240,241,Anjireh-Vejin,32.7305555555556,51.1488888888889,"Average 5.66% Pb+Zn (1.2 Mt at 8.4% Pb+Zn, and 0.8 Mt at 1.64% Pb+Zn); our estimate: 3.66% Zn and 2% Pb. Ag, Hg (high content), and Cd recovered. Fluid inclusions indicate 180150ºC.  0 m cover.",https://mrdata.usgs.gov/to-json.php?db=sedznpb&id=rec_id&labno=241
241,242,Emarat,33.8508333333333,49.6080555555556,10240 g/t Ag in ore (our estimate 50 g/t Ag),https://mrdata.usgs.gov/to-json.php?db=sedznpb&id=rec_id&labno=242
242,243,Irankuh,32.4555555555556,51.5633333333333,Fluid inclusions indicate 12090ºC. 0 m cover.,https://mrdata.usgs.gov/to-json.php?db=sedznpb&id=rec_id&labno=243
243,244,Kuh-e-Surmeh,28.0825,52.0938888888889,1979 mine closure. Fluid inclusions indicate 15050ºC.,https://mrdata.usgs.gov/to-json.php?db=sedznpb&id=rec_id&labno=244
244,245,Kushk,31.7525,55.7636111111111,NA,https://mrdata.usgs.gov/to-json.php?db=sedznpb&id=rec_id&labno=245
245,246,Lakan,33.7375,49.8927777777778,Produced 13 Kt Pb before 1959. Combination of structure- related and stratiform bodies.  0 m cover.,https://mrdata.usgs.gov/to-json.php?db=sedznpb&id=rec_id&labno=246
246,247,Mehdiabad,31.0330555555556,55.2805555555556,"2% Zn cutoff grade. Mining reserve 239 Mt contain  67 Mt oxide and 172 Mt sulfide ores. In sulfide ore: 269 ppm As, 1634 ppm Cd, 21.8 ppm Hg, 3.9% Mn. Significant Cu intersections: 40.1 m at 2.1% and 35 m at 4.3% Cu.  0 m cover.",https://mrdata.usgs.gov/to-json.php?db=sedznpb&id=rec_id&labno=247
247,248,Ozbak-Kuh,34.65,57.1333333333333,"19541968 production ~ 40 Kt Pb at ~9% Pb, 3% Zn. Estimate primary (pre-mine) resource ~0.7 Mt ore.  0 m cover.",https://mrdata.usgs.gov/to-json.php?db=sedznpb&id=rec_id&labno=248
248,249,Abbeytown,54.2144444444445,-8.52666666666667,Fluid inclusions in sphalerite indicate 170 to 88 ºC; in late calcite 175 to 140 ºC.,https://mrdata.usgs.gov/to-json.php?db=sedznpb&id=rec_id&labno=249
249,250,Ballinalack,53.6177777777778,-7.46944444444444,"Boulangerite is argentiferous. Temperature 285 ºC by conodont index (Jones, 1992); +300 ºC by mesophase pyrobitumen (Johnston, 1999).",https://mrdata.usgs.gov/to-json.php?db=sedznpb&id=rec_id&labno=250
250,251,Boston Hill,53.2261111111111,-6.92666666666667,NA,https://mrdata.usgs.gov/to-json.php?db=sedznpb&id=rec_id&labno=251
251,252,Carrickittle,52.5211111111111,-8.33833333333333,NA,https://mrdata.usgs.gov/to-json.php?db=sedznpb&id=rec_id&labno=252
252,253,Courtbrown,52.64,-8.98055555555556,"Fluid inclusions indicate 200 to 160 oC, vitrinite reflectance shows ~310 ºC.",https://mrdata.usgs.gov/to-json.php?db=sedznpb&id=rec_id&labno=253
253,254,Galmoy,52.7847222222222,-7.58611111111111,30 m intersection of oolitic micrite below ore-bearing horizon contains 2.08% Cu and 70 g/t Ag.,https://mrdata.usgs.gov/to-json.php?db=sedznpb&id=rec_id&labno=254
254,255,Gortdrum,52.5222222222222,-8.18694444444444,Mineralization is believed to be younger than Irish-sedex polymetallic deposits. The orebody is controlled by wedge-like fault structure. Fluid inclusions indicate 180100 ºC. Cinnabar and gortdrumite occur in late post-copper veinlets mostly in the upper 35 m of the deposit.,https://mrdata.usgs.gov/to-json.php?db=sedznpb&id=rec_id&labno=255
255,256,Harberton Bridge/Allenwood West,53.2838888888889,-6.86388888888889,Fluid inclusions indicate ? 100ºC. Hydrothermal karst model is proposed.  >10 m cover.,https://mrdata.usgs.gov/to-json.php?db=sedznpb&id=rec_id&labno=256
256,257,Keel/Garrycam,53.6488888888889,-7.73555555555556,"Combination of steeply dipping feeder(?) veins (Keel, 0.12% Cd) with flat stratiform body (Garrycam, 36.1% BaSO4). Fluid inclusions indicate 285117 ºC.",https://mrdata.usgs.gov/to-json.php?db=sedznpb&id=rec_id&labno=257
257,258,Lisheen,52.7591666666667,-7.71138888888889,Fluid inclusions in sulfide-related carbonates indicate 256 (?300 ºC) to 182 ºC.,https://mrdata.usgs.gov/to-json.php?db=sedznpb&id=rec_id&labno=258
258,259,Moyvoughly,53.4444444444444,-7.69944444444444,Fluid inclusions indicate 220120 ºC.,https://mrdata.usgs.gov/to-json.php?db=sedznpb&id=rec_id&labno=259
259,260,Navan,53.6544444444444,-6.71527777777778,"Tonnage by Ashton and others (2003). Fluid inclusions indicate 270120 ºC. Early mineralization at <130 ºC. Late mineralization (Chadian to early Arundian) is in Boulder Conglomerate that contains oreclasts of the early phase, the conglomerate overlies erosion surface that cuts the ore bodies of the early phase (Courceyan).",https://mrdata.usgs.gov/to-json.php?db=sedznpb&id=rec_id&labno=260
260,261,Oldcastle,53.7563888888889,-7.09777777777778,NA,https://mrdata.usgs.gov/to-json.php?db=sedznpb&id=rec_id&labno=261
261,262,Rickardstown,53.1911111111111,-6.81972222222222,NA,https://mrdata.usgs.gov/to-json.php?db=sedznpb&id=rec_id&labno=262
262,263,Silvermines,52.7897222222222,-8.25444444444445,+5.5 Mt containing 84% BaSO4. Fluid inclusions indicate 330150 ºC; chemical geothermometry 330185 ºC.,https://mrdata.usgs.gov/to-json.php?db=sedznpb&id=rec_id&labno=263
263,264,Tatestown,53.6844444444444,-6.73694444444444,?1.86% Cd in sphalerite. Fluid inclusions indicate 190140 ºC.,https://mrdata.usgs.gov/to-json.php?db=sedznpb&id=rec_id&labno=264
264,265,Tynagh,53.165,-8.37638888888889,Fluid inclusions indicate 31470 oC; sulphur isotope fractionation in sphalerite-galena pair shows 298224 ºC; oxygen isotope fractionation in postore carbonates ranges 447103 ºC .,https://mrdata.usgs.gov/to-json.php?db=sedznpb&id=rec_id&labno=265
265,266,Campiglia,43.0969444444444,10.6011111111111,Tonnage-grades estimated by Boni (2005); 20 to 70 g/t Ag. Silver grade estimate. Exoskarn.,https://mrdata.usgs.gov/to-json.php?db=sedznpb&id=rec_id&labno=266
266,267,Funtana Raminosa,39.8775,9.17166666666667,Tonnage-grades estimated by Boni (2005). Stratabound mineralization conformable to schistosity.  Exoskarn.,https://mrdata.usgs.gov/to-json.php?db=sedznpb&id=rec_id&labno=267
267,268,Gorno,45.8636111111111,9.8425,NA,https://mrdata.usgs.gov/to-json.php?db=sedznpb&id=rec_id&labno=268
268,269,Iglesiente,39.3172222222222,8.50305555555556,"Mined out in 1970s, approximate estimates of tonnage and grades.  Fluid inclusions indicate 180 to 80ºC. Possible combination of early SEDEX and late MVT polymetallic mineralizations. Nonsulfide ore (>20% Zn) formed in  Tertiary.",https://mrdata.usgs.gov/to-json.php?db=sedznpb&id=rec_id&labno=269
269,270,Oridda,39.3891666666667,8.56,Tonnage-grades estimated by Boni (2005). Late Variscan stratabound skarn-sulfide mineralization superposed on previously mineralized paleokarst and carbonate rocks along Cambrian-Ordovician unconformity. Exoskarn and endoskarn.,https://mrdata.usgs.gov/to-json.php?db=sedznpb&id=rec_id&labno=270
270,271,Raibl,46.4411111111111,13.5713888888889,"Sphalerite contains ?0.204% Cd, 1335 ppm Ge, 1620 ppm As, 1335 ppm Tl.  0 m cover.",https://mrdata.usgs.gov/to-json.php?db=sedznpb&id=rec_id&labno=271
271,272,Salafossa,46.5669444444445,12.5833333333333,0 m cover.,https://mrdata.usgs.gov/to-json.php?db=sedznpb&id=rec_id&labno=272
272,273,Southern Sulcis,38.9613888888889,8.78944444444445,Tonnage-grades estimated by Boni (2005) and Zuffardi (1989). Exoskarn.,https://mrdata.usgs.gov/to-json.php?db=sedznpb&id=rec_id&labno=273
273,274,Su Zurfuru,39.4236111111111,8.50111111111111,Tonnage-grades estimated by Boni (2005). Late Variscan stratabound skarn-sulfide mineralization superposed on previously mineralized paleokarst and carbonate rocks along Cambro-Ordovician unconformity. Exoskarn,https://mrdata.usgs.gov/to-json.php?db=sedznpb&id=rec_id&labno=274
274,275,Tregiovo,46.4383333333333,11.0533333333333,Pb and Cu grades are approximate. Estimated temperature <100 ºC. Close similarity of Pb-isotopic composition between Tregiovo and Southern Alps Triassic carbonate-hosted polymetallic deposits (Bleiberg group). Sialic basement of Lower Permian felsic subvolcanics and volcanics <10 km.,https://mrdata.usgs.gov/to-json.php?db=sedznpb&id=rec_id&labno=275
275,276,Chichibu,35.9844444444444,138.926388888889,Fluid inclusions indicate 375200 ºC.  Exoskarn.,https://mrdata.usgs.gov/to-json.php?db=sedznpb&id=rec_id&labno=276
276,277,Hoei,32.8775,131.502222222222,1.3% Sn in ore. Estimated temperature 350320 ºC. Exoskarn.,https://mrdata.usgs.gov/to-json.php?db=sedznpb&id=rec_id&labno=277
277,278,Kamioka,36.3277777777778,137.318888888889,Fluid inclusions indicate 380180 ºC.  Exoskarn and endoskarn.,https://mrdata.usgs.gov/to-json.php?db=sedznpb&id=rec_id&labno=278
278,279,Magome,37.0733333333333,139.553055555556,Exoskarn.,https://mrdata.usgs.gov/to-json.php?db=sedznpb&id=rec_id&labno=279
279,280,Mizuhiki,37.0144444444444,139.515,exoskarn,https://mrdata.usgs.gov/to-json.php?db=sedznpb&id=rec_id&labno=280
280,281,Nakatatsu,35.8777777777778,136.571388888889,"Molybdenum ore (early stage) at 54.4 Ma. Fluid inclusions 360±25 ºC, and stannite-sphalerite thermometer 340320 ºC. Exoskarn.",https://mrdata.usgs.gov/to-json.php?db=sedznpb&id=rec_id&labno=281
281,282,Nikko/Doukura,36.9872222222222,139.571111111111,"Production 250 t at 5% Cu, 15% Zn, 3% Pb, 150 g/t Ag, 1 g/t Au.",https://mrdata.usgs.gov/to-json.php?db=sedznpb&id=rec_id&labno=282
282,283,Ohori |,38.7355555555556,140.519444444444,"Bedded skarn and late (?) vein-type mineralization. Exoskarn, endoskarn",https://mrdata.usgs.gov/to-json.php?db=sedznpb&id=rec_id&labno=283
283,284,Shokawa,36.0266666666667,136.986666666667,Exoskarn.,https://mrdata.usgs.gov/to-json.php?db=sedznpb&id=rec_id&labno=284
284,285,Tsumo,34.6455555555556,131.8975,"Ore tonnage includes 0.5% WO3. Stratabound skarn ore bodies (500350 ºC), late-stage scheelite-bearing veins (300250 ºC). Exoskarn.",https://mrdata.usgs.gov/to-json.php?db=sedznpb&id=rec_id&labno=285
285,286,Achisay,43.5286111111111,68.8944444444445,"0.010.02% Hg in oxide ore. Fluid inclusions indicate 22060 ºC. Local thermal anomaly in the Achisay area (Lyubetskiy and others, 1988). Gold being recovered from old slag.",https://mrdata.usgs.gov/to-json.php?db=sedznpb&id=rec_id&labno=286
286,287,Bayzhansay,43.1619444444444,69.925,NA,https://mrdata.usgs.gov/to-json.php?db=sedznpb&id=rec_id&labno=287
287,288,Bestyube,48.2180555555556,72.0972222222222,Atasu-type in the regional classification. >0.001% Hg in sphalerite,https://mrdata.usgs.gov/to-json.php?db=sedznpb&id=rec_id&labno=288
288,289,Burabai/Zhalgyzagash,43.8225,67.4938888888889,NA,https://mrdata.usgs.gov/to-json.php?db=sedznpb&id=rec_id&labno=289
289,290,Kairakty,48.4627777777778,73.2119444444444,Atasu-type in the regional classification. ?1% Hg in sphalerite.,https://mrdata.usgs.gov/to-json.php?db=sedznpb&id=rec_id&labno=290
290,291,Karagaily,49.3691666666667,75.7086111111111,Atasu-type in the regional classification. The deposit is located in the roof pendant of post-mineral granitoid.,https://mrdata.usgs.gov/to-json.php?db=sedznpb&id=rec_id&labno=291
291,292,Mirgalimsay,43.5077777777778,68.4619444444444,Disseminated cerussite is considered to be an original  admixture in carbonate rocks around the deposit. Fluid inclusions indicate 21045 ºC.,https://mrdata.usgs.gov/to-json.php?db=sedznpb&id=rec_id&labno=292
292,293,Shaimerden,52.0155555555556,62.345,"Mostly non-sulfide ore, probably Late or post-Carboniferous.  40 m cover.",https://mrdata.usgs.gov/to-json.php?db=sedznpb&id=rec_id&labno=293
293,294,Shalkiya,43.9608333333333,67.3744444444445,0.10.78% Cd in sphalerite.,https://mrdata.usgs.gov/to-json.php?db=sedznpb&id=rec_id&labno=294
294,295,Talap,43.6647222222222,67.6113888888889,12003500 ppm Cd in sphalerite; 50200 ppm Ag in galena,https://mrdata.usgs.gov/to-json.php?db=sedznpb&id=rec_id&labno=295
295,296,Tekeli,44.8108333333333,78.8619444444444,"0.1% Ni in pyrrhotite; 1290 1800 g/t Ag, 1.35% Sb in galena. Age of the deposit and host-rocks is considered by some authors as Ordovician or younger (Shadlun, 1959; Kravchenko and others, 1984; Bindeman, 1989).",https://mrdata.usgs.gov/to-json.php?db=sedznpb&id=rec_id&labno=296
296,297,Ushkatyn I,48.4313888888889,70.2647222222222,Atasu-type in the regional classification.,https://mrdata.usgs.gov/to-json.php?db=sedznpb&id=rec_id&labno=297
297,298,Ushkatyn III,48.3744444444444,70.3208333333333,Atasu-type in the regional classification.,https://mrdata.usgs.gov/to-json.php?db=sedznpb&id=rec_id&labno=298
298,299,Zhairem,48.2763888888889,70.2294444444444,"Atasu-type in the regional classification. Central lenticular Ba-Zn-Pb body up to 200 m thick branching at flanks, associated with Fe-Mn layers that contain: 2.534.2% Fe, 3.5424.2% Mn.",https://mrdata.usgs.gov/to-json.php?db=sedznpb&id=rec_id&labno=299
299,300,Sumsar,41.2925,71.33,Barite content ?7.4%; ?0.001% Ag.,https://mrdata.usgs.gov/to-json.php?db=sedznpb&id=rec_id&labno=300
300,301,Sasa,42.0616666666667,22.5366666666667,Estimated total production until 2002: 8 Mt ore at 4% Zn and 6% Pb. Ore-host limestone-marble beds are as much as 30 m thick.  0 km to intrusive,https://mrdata.usgs.gov/to-json.php?db=sedznpb&id=rec_id&labno=301
301,302,Toranica,42.1694444444444,22.4905555555556,"Estimated total production until 2000: 7 Mt ore at 4.4% Zn and 4.8% Pb. Fluid inclusions in early sphalerite, quartz, and calcite indicate 370320 ºC.  0 km to intrusive",https://mrdata.usgs.gov/to-json.php?db=sedznpb&id=rec_id&labno=302
302,303,Bismark,31.2344444444444,-107.585555555556,?3% Bi in some mantos. Exoskarn,https://mrdata.usgs.gov/to-json.php?db=sedznpb&id=rec_id&labno=303
303,304,Capote Basin,30.9847222222222,-110.351666666667,Distal skarn.,https://mrdata.usgs.gov/to-json.php?db=sedznpb&id=rec_id&labno=304
304,305,Catorce,23.6894444444444,-100.88,Predominant polymetallic veins. Deep magmatic body  inferred from geophysics. 0.5 km to intrusive,https://mrdata.usgs.gov/to-json.php?db=sedznpb&id=rec_id&labno=305
305,306,Cerro San Pedro,22.2219444444444,-100.803055555556,"Polymetallic replacement chimneys were mined out in 19251948  by ASARCO. 03/2007 openpit measured and indicated resources were 116 Mt at 0.54 g/t Au and 20.2 g/t Ag (Mining Weekly, 2008).",https://mrdata.usgs.gov/to-json.php?db=sedznpb&id=rec_id&labno=306
306,307,Chalchihuites,23.3802777777778,-103.757777777778,NA,https://mrdata.usgs.gov/to-json.php?db=sedznpb&id=rec_id&labno=307
307,308,Charcas,23.1405555555556,-101.150277777778,Mantos and other replacement orebodies occur in limestone throughout whole thickness of the ore-hosting unit.,https://mrdata.usgs.gov/to-json.php?db=sedznpb&id=rec_id&labno=308
308,309,La Encantada,28.3658333333333,-102.577777777778,Chimneys and mantos occur within whole 700 m thickness of the ore hosting unit. Gonzales-Partida and others (2003) believe that manto fluorite deposits of the district are MVT.,https://mrdata.usgs.gov/to-json.php?db=sedznpb&id=rec_id&labno=309
309,310,La Negra,20.8425,-99.4908333333333,exoskarn,https://mrdata.usgs.gov/to-json.php?db=sedznpb&id=rec_id&labno=310
310,311,La Reforma,26.9472222222222,-108.1725,"Mainly skarn. Production 19701980: 1.36 Mt at 30.0% Zn, 9.11% Pb, 2.52% Cu, 0.5 g/t Au, 91.1 g/t Ag. 0 km to intrusive.",https://mrdata.usgs.gov/to-json.php?db=sedznpb&id=rec_id&labno=311
311,312,Mapimi,25.7930555555556,-103.791111111111,"?3% Cu. Five ore horizons: (1) at the contact with the overlying Upper Cretaceous shale, (2) below the contact between 80 to 160 m  in intercalated limestone and shale, (3) between 150 to 160 m in limestone, (4) at 230 m, and (5) at ~400 m below the contact. 2 km to intrusive.",https://mrdata.usgs.gov/to-json.php?db=sedznpb&id=rec_id&labno=312
312,313,Naica,27.8508333333333,-105.488888888889,0 km to intrusive.,https://mrdata.usgs.gov/to-json.php?db=sedznpb&id=rec_id&labno=313
313,314,Nuestra Señora,24.4008333333333,-106.600277777778,"Production 19401968 ~4 Mt (Consejo... , 1992). Distal skarn.",https://mrdata.usgs.gov/to-json.php?db=sedznpb&id=rec_id&labno=314
314,315,Plomosas,29.0797222222222,-105.243611111111,2 km to intrusive.,https://mrdata.usgs.gov/to-json.php?db=sedznpb&id=rec_id&labno=315
315,316,Porroquio-Magistral,20.7719444444444,-101.191944444444,NA,https://mrdata.usgs.gov/to-json.php?db=sedznpb&id=rec_id&labno=316
316,317,Providencia,24.6933333333333,-101.465,0.15% Cu in 1.12 Mt ore of Mazapil. Limestone and marble ?100 m thick contain main orebodies.,https://mrdata.usgs.gov/to-json.php?db=sedznpb&id=rec_id&labno=317
317,318,Real de Angeles,22.4141666666667,-101.9125,Recoverable amount of 0.67% Cd in sphalerite. Inverted cone of veined-disseminated ore in clastic rocks close to limestone; 300 x 400 m area and 400 m of explored depth. Formation at 298285 ºC. Inferred granitic intrusion at a depth is indicated by dome structure and magnetic anomaly.,https://mrdata.usgs.gov/to-json.php?db=sedznpb&id=rec_id&labno=318
318,319,Santa Eulalia,28.6077777777778,-105.875555555556,"Au grade calculated from  production data. Chimneys, mantos and veins occur within whole thickness of the unit. Sn (4,000 t) and V (700 t) produced  in 19301940 from deep level skarn-magnetite-cassiterite-sulfide chimneys of the San Antonio mine.",https://mrdata.usgs.gov/to-json.php?db=sedznpb&id=rec_id&labno=319
319,320,Sierra Mojada,27.2733333333333,-103.689722222222,"Main manto confined to dolomitic bed 50 m thick in limestone sequence. Fragments of felsic and mafic volcanics, and coarse granite in overlying agglomerate unit might have indicated hidden intrusion in vicinity.",https://mrdata.usgs.gov/to-json.php?db=sedznpb&id=rec_id&labno=320
320,321,Sombrerete,23.6308333333333,-103.623888888889,Deposit formation at 280170 ºC. Mineralization occurs inside continuous Tertiary volcanic belt. 13 km to exposed intrusive.,https://mrdata.usgs.gov/to-json.php?db=sedznpb&id=rec_id&labno=321
321,322,Taxco,18.5336111111111,-99.5961111111111,Mineralized blanket in limestone 5 to 30 m thick and weak mineralization in shale horizon 25 to 110 m thick where the limestone wedges out.,https://mrdata.usgs.gov/to-json.php?db=sedznpb&id=rec_id&labno=322
322,323,Velardeña,25.0341666666667,-103.715277777778,Replacement orebodies occur along contacts of rhyolite dikes throughout whole thickness of the limestone.,https://mrdata.usgs.gov/to-json.php?db=sedznpb&id=rec_id&labno=323
323,324,Zimapan,20.7383333333333,-99.4002777777778,"Replacement blankets are mainly in two horizons of massive limestone, each up to 35 m thick, among bedded carbonate rocks. Exoskarn.",https://mrdata.usgs.gov/to-json.php?db=sedznpb&id=rec_id&labno=324
324,325,Khartolgoi,42.1333333333333,104.916666666667,The resource contains 2 to 5% Sb.,https://mrdata.usgs.gov/to-json.php?db=sedznpb&id=rec_id&labno=325
325,326,Tumurtiin Ovoo,46.7822222222222,113.326388888889,0.024% Cd in ore. Exoskarn.,https://mrdata.usgs.gov/to-json.php?db=sedznpb&id=rec_id&labno=326
326,327,Tumurtui South,45.2166666666667,106.916666666667,0.45% Mo in ore. Exoskarn.,https://mrdata.usgs.gov/to-json.php?db=sedznpb&id=rec_id&labno=327
327,328,Ulaan,49.0841666666667,114.092222222222,"Polymetallic mineralization related to pipes of fluid-explosive breccia (Jargalsaihan and others, 1996; Dejidmaa and others, 2005)",https://mrdata.usgs.gov/to-json.php?db=sedznpb&id=rec_id&labno=328
328,329,Bou Mia,32.7163888888889,-5.10388888888889,220 g/t Ag in 72% Pb-concentrate. Basalt and trachyte lava in Triassic sequence. Sialic basement of Paleozoic granite and schist at <10 km.,https://mrdata.usgs.gov/to-json.php?db=sedznpb&id=rec_id&labno=329
329,330,Bou-Sellam,32.65,-4.06861111111111,14% Pb. Sialic basement of Jurassic sandstone at <10 km.,https://mrdata.usgs.gov/to-json.php?db=sedznpb&id=rec_id&labno=330
330,331,Mibladen,32.7663888888889,-4.6325,Galena contains 300 g/t Ag (estimate 9 g/t Ag in ore). 0 m cover.,https://mrdata.usgs.gov/to-json.php?db=sedznpb&id=rec_id&labno=331
331,332,Zeïda,34.4727777777778,-1.72777777777778,?0.08% Zn and ~4% BaSO4 in ore. Basalt and trachyte lava in Triassic sequence. Sialic basement of Paleozoic granite and schist at <10 km.,https://mrdata.usgs.gov/to-json.php?db=sedznpb&id=rec_id&labno=332
332,333,Touissit-Bou Beker-El Abed,32.8236111111111,-4.9375,"El Abed deposit, Algeria, contains ?600 g/t Ag. Fluid inclusions indicate 13070 ºC. Multistage ore deposition. Early galena I contains 0.3% Sb; galena III contains inclusions of chalcopyrite and antimony.",https://mrdata.usgs.gov/to-json.php?db=sedznpb&id=rec_id&labno=333
333,334,Berg Aukas,-19.5161111111111,18.2675,0.86% V2O5 in ore. Combination of stratiform and karst-breccia ores. 0 m cover.,https://mrdata.usgs.gov/to-json.php?db=sedznpb&id=rec_id&labno=334
334,335,Border,-19.475,17.9166666666667,Estimate resource 12 Mt at 5 to 6% Pb+Zn. Typical intersections: 18.9 m at 11.18% Pb+Zn; 11 m at 15.92% Pb+Zn. The deposit appears to be amenable to open-pit mining with potential resources about 30 Mt. 0 m cover.,https://mrdata.usgs.gov/to-json.php?db=sedznpb&id=rec_id&labno=335
335,336,Driehoek,-19.6008333333333,17.7791666666667,Preliminary resources 36 Mt at 4% Pb+Zn. Intersection 40 m at 8.57% Pb+Zn and 9.3 g/t Ag. The deposit appears to be amenable to open-pit mining with potential resource >6 Mt. 0 m cover.,https://mrdata.usgs.gov/to-json.php?db=sedznpb&id=rec_id&labno=336
336,337,Harasib,-19.4811111111111,17.8319444444444,Preliminary resources 1 Mt at 4% Pb+Zn. 0 m cover.,https://mrdata.usgs.gov/to-json.php?db=sedznpb&id=rec_id&labno=337
337,338,Khusib Spring,-19.4261111111111,18.0219444444444,"Ore contains 0.714.7% As, ?1.8% Sb. Fluid inclusions in dolomite II indicate 370291 ºC.",https://mrdata.usgs.gov/to-json.php?db=sedznpb&id=rec_id&labno=338
338,339,Kombat,-19.71,17.7058333333333,"(1) Zinc content is economically insignificant. (2) Suggested bedded Fe-Mn-Cu protore.|(3) Superposed mineralized veins (remobilization) and paleokarst. (4) Presence of skarn minerals along with cassiterite, molybdenite, monazite, etc. suggests a possible plutonic influence that is not reported.",https://mrdata.usgs.gov/to-json.php?db=sedznpb&id=rec_id&labno=339
339,340,Rosh Pinah,-27.9505555555556,16.7644444444444,7 to 11% Zn in past production and reserve.,https://mrdata.usgs.gov/to-json.php?db=sedznpb&id=rec_id&labno=340
340,341,Skorpion,-27.8202777777778,16.6088888888889,Dominant non-sulfide zinc ore resulted from Cenozoic oxidation of original stratiform sulfide mineralization in Neoproterozoic clastic-carbonate sequence underwent complex deformation and metamorphism.,https://mrdata.usgs.gov/to-json.php?db=sedznpb&id=rec_id&labno=341
341,342,Tsongoari,-18.7805555555556,13.4077777777778,Fluid inclusions indicate 260110 ºC.,https://mrdata.usgs.gov/to-json.php?db=sedznpb&id=rec_id&labno=342
342,343,Tsumeb,-19.2394444444444,17.7161111111111,"Mined out, contained economically important As, Cd, Ge (50 g/t). ?1,800 g/t Ag in tennantite. Ge amount prior to mining calculated 2160 t, 87 t Ge extracted. Inside steeply dipping pipe-like ore body was mineralized feldspatic sandstone of internal sediments as well as dolomitic and marble breccia. Willemite formation in Otavi Mountain Land at 490550 Ma (Schneider and others, 2008), probable metamorphism age.",https://mrdata.usgs.gov/to-json.php?db=sedznpb&id=rec_id&labno=343
343,344,Ganesh Himal,28.3919444444444,85.1202777777778,"300 ppm Cd in ore. Ore-host dolomite horizon 0.5 to 15 m thick, defined by Uhlir and others (1998) as most probable PermianCarboniferous.",https://mrdata.usgs.gov/to-json.php?db=sedznpb&id=rec_id&labno=344
344,345,Motukokako,-35.1644444444444,174.339166666667,"The skarn contains 16% Zn, 0.21% Pb, ?100 g/t Ag. There are no igneous rocks exposed in the Piercy island. Igneous stock may lie under sea. Distal skarn?",https://mrdata.usgs.gov/to-json.php?db=sedznpb&id=rec_id&labno=345
345,346,Geomdeok,40.3819444444444,128.83,Exoskarn.,https://mrdata.usgs.gov/to-json.php?db=sedznpb&id=rec_id&labno=346
346,347,Bleikvassli,65.9086111111111,13.8072222222222,Tonnage includes 4.9 Mt production.,https://mrdata.usgs.gov/to-json.php?db=sedznpb&id=rec_id&labno=347
347,348,Galåa,61.1283333333333,11.3694444444444,Sialic basement of Proterozoic granite at <10 km.,https://mrdata.usgs.gov/to-json.php?db=sedznpb&id=rec_id&labno=348
348,349,Husvika,65.8283333333333,12.6502777777778,Tonnage-grades from Sundblad and Bergman (2005). Ore-host strata of uncertain age from Mesoproterozoic to Late Paleozoic. 1.5 km long subvertical mineralized zone concordant to schistosity. Granitic dikes cut skarn mineralization. Exoskarn.,https://mrdata.usgs.gov/to-json.php?db=sedznpb&id=rec_id&labno=349
349,350,Konnerudkollen,59.735,10.125,Drammen batholith roof. Exoskarn.,https://mrdata.usgs.gov/to-json.php?db=sedznpb&id=rec_id&labno=350
350,351,Mofjellet,66.2836111111111,14.2011111111111,"?7.39 g/t Au and 2.5% BaSO4 in ore. Past production of 19281987 4.35 Mt; indicated and inferred resources of 2007 2.02 Mt (Petersson, 2007). Ore-host gneiss protolith was possibly metapelite.",https://mrdata.usgs.gov/to-json.php?db=sedznpb&id=rec_id&labno=351
351,352,Nyseter,60.2577777777778,10.6155555555556,Skarn deposits are located 3 km from the contact with the Nordmarka syenite. Distal skarn.,https://mrdata.usgs.gov/to-json.php?db=sedznpb&id=rec_id&labno=352
352,353,Osen,61.3036111111111,11.7780555555556,Sialic basement of Proterozoic granite (1598 Ma) at <10 km.,https://mrdata.usgs.gov/to-json.php?db=sedznpb&id=rec_id&labno=353
353,354,Skårnesdalen,68.3658333333333,16.7055555555556,NA,https://mrdata.usgs.gov/to-json.php?db=sedznpb&id=rec_id&labno=354
354,355,Snertingdal,60.88,10.3858333333333,Sialic basement of Proterozoic granite at <10 km.,https://mrdata.usgs.gov/to-json.php?db=sedznpb&id=rec_id&labno=355
355,356,Duddar,26.2233333333333,66.8363888888889,Mineralization occurs in prevailing mudstone intercalated with limestone.,https://mrdata.usgs.gov/to-json.php?db=sedznpb&id=rec_id&labno=356
356,357,Gunga,27.7447222222222,66.5347222222222,1.4 Mt of barite reserve. Mineralization occurs in prevailing shale intercalated with limestone.,https://mrdata.usgs.gov/to-json.php?db=sedznpb&id=rec_id&labno=357
357,358,Lahore,34.9133333333333,72.9130555555556,NA,https://mrdata.usgs.gov/to-json.php?db=sedznpb&id=rec_id&labno=358
358,359,Shekran,27.8525,66.4316666666667,Ore in prevailing shale intercalated with limestone.,https://mrdata.usgs.gov/to-json.php?db=sedznpb&id=rec_id&labno=359
359,360,Antamina,-9.54166666666667,-77.0513888888889,0.029% Mo in ore; 0.7% Cu cutoff. Exoskarn and endoskarn.,https://mrdata.usgs.gov/to-json.php?db=sedznpb&id=rec_id&labno=360
360,361,Atacocha,-10.5780555555556,-76.1919444444444,"Two approaches to the deposit classification: (1) Replacement-type by Johnson (1955), Johnson and others (1955); (2) SEDEX or VMS by Gunnesch and Baumann (1984), Hirdes (1990), Hirdes and Amstutz (1978).",https://mrdata.usgs.gov/to-json.php?db=sedznpb&id=rec_id&labno=361
361,362,Cercapuquio,-12.3825,-75.3161111111111,"Tonnage and grades are approximate. Four mineralized horizons 2 to 6 m thick containing ~5% Zn and ~5% Pb, with stratal paleokarst features with ore-clasts in breccia. >1% Cd, <10 ppm Ge in ore; 40 ppm In in sphalerite, <10 g/t Ag in galena.  General Ag (4 g/t) and Bi (1 g/t) very low contents in ores.  SEDEX-type by Solar (1986), MVT-type by Cedillo (1990). 4 km to intrusive.",https://mrdata.usgs.gov/to-json.php?db=sedznpb&id=rec_id&labno=362
362,363,Cerro de Pasco,-10.6775,-76.2611111111111,"Concentrator heads: 19552.28% Cu, 19611.21% Cu. Tonnage and grades calculated on data from Baumgartner and others (2008).  Mineral parageneses sequence: (1) massive py1 (with chert beds)+ sl1+gn; (2) po+mt+cp+asp+py2+gn+sl2+wt+sn+cass (250200 ºC); (3) al+py3+mc+sl3+gn+re+bn+en+tn+Ag- & Bi-minerals (230196 ºC) (Baumgartner and others, 2002, 2003, 2008; Einaudy, 1977).",https://mrdata.usgs.gov/to-json.php?db=sedznpb&id=rec_id&labno=363
363,364,Colquijirca,-10.7522222222222,-76.2716666666667,"Tonnage includes Colquijirca deposit, 30 Mt at 8% Zn+Pb (~5.6% Zn, 2.4% Pb); and Smelter deposit, 50 Mt at 2% Cu. Early production obtained from tennantite and Bi-minerals composed ore containing more than 40 Moz Ag. Four mantos and conformable ore lenses occur in the limestone bed 30 to 50 m thick. Two approaches to the deposit classification: (1) Epigenetic REPLACEMENT-type by Bendezù and Fonboté (2003), Bendezù and others (2003), Lindgren (1935), McKinstry (1936), Pauca (1983), Vidal and others (1984, 1997); (2) SEDEX-type (metamorphosed) by Lehne (1990), Lehne and Amstutz (1980), Soler (1986). 0 km to intrusive",https://mrdata.usgs.gov/to-json.php?db=sedznpb&id=rec_id&labno=364
364,365,Florida Canyon,-5.89111111111111,-78.0591666666667,NA,https://mrdata.usgs.gov/to-json.php?db=sedznpb&id=rec_id&labno=365
365,366,Hualgayoc,-6.75333333333333,-78.5858333333333,"Tonnage and grades approximate estimates. 1,500 t Ag produced from veins in colonial time, and in 18-19th centuries; and later from mantos and veins (Pb, Zn, Ag, Cu, and Au). Grades in manto La Argolla: 8% Zn, 9% Pb, traces of Cu, 190 g/t Ag.  Stratiform orebodies are intersected by ore veins. According to Macfarlane and Petersen (1990), Cretaceous SEDEX mantos are combined with crosscuting Miocene veins. Manto ores are affected along with sedimentary host rocks at a Tertiary intrusion contact (Canchaya, 1990). 0 km to intrusive.",https://mrdata.usgs.gov/to-json.php?db=sedznpb&id=rec_id&labno=366
366,367,Huanzala,-9.86416666666667,-77.0005555555556,"Mineralized beds and lenses occur over whole thickness of limestone interbedded with shale. Two approaches to the deposit classification: (1) REPLACEMENT-type related to Miocene granodiorite porphyry stock (Imai, 1986, 1999; Imai and others,1985; Tsuchiya and others, 1983). (2) SEDEX-type transformed by Miocene igneous rocks (Carrascal and others, 1983; Carrascal and Saez, 1990; Soler and others, 1986).",https://mrdata.usgs.gov/to-json.php?db=sedznpb&id=rec_id&labno=367
367,368,Iscaycruz,-10.7936111111111,-76.73,1 km to intrusive,https://mrdata.usgs.gov/to-json.php?db=sedznpb&id=rec_id&labno=368
368,369,San Gregorio,-10.7905555555556,-76.2711111111111,Mineralization occurs over whole thickness of limestone.,https://mrdata.usgs.gov/to-json.php?db=sedznpb&id=rec_id&labno=369
369,370,San Vicente,-11.2347222222222,-75.385,"Fluid inclusions indicate 14070 ºC. Age of mineralization is interpreted as Late Jurassic (Fonboté and Gorzawski, 1990) or Tertiary (Badoux and others, 2001). 0 m cover.",https://mrdata.usgs.gov/to-json.php?db=sedznpb&id=rec_id&labno=370
370,371,Santander,-11.2333333333333,-76.5333333333333,"The tonnage includes past-production. Recent sampling  4.539.8% Zn, 0.138.98% Pb, 0.111.6% Cu, 28324 g/t Ag. Distal skarn",https://mrdata.usgs.gov/to-json.php?db=sedznpb&id=rec_id&labno=371
371,372,Uchucchacua,-10.3936111111111,-76.7538888888889,"Tonnage and grades estimates based on combined data on skarn, replacement and vein-type production and reserve of the deposit. Exoskarn.",https://mrdata.usgs.gov/to-json.php?db=sedznpb&id=rec_id&labno=372
372,373,Yauricocha,-12.3936111111111,-75.7538888888889,NA,https://mrdata.usgs.gov/to-json.php?db=sedznpb&id=rec_id&labno=373
373,374,Thanksgiving,16.3697222222222,120.603611111111,"Related to porphyry copper deposit. Ag, Zn, Cd and Cu recovered. Exoskarn.",https://mrdata.usgs.gov/to-json.php?db=sedznpb&id=rec_id&labno=374
374,375,Upper Silesia,50.2833333333333,19.5333333333333,Additional oxidized ore reserves 57 Mt at 5.6% Zn and 1.4% Pb.  Age of mineralization contentiousfrom Triassic (synsedimentary) to Jurassic and Tertiary (epigenetic). Fluid inclusions indicate 15640 ºC. 0 m cover.,https://mrdata.usgs.gov/to-json.php?db=sedznpb&id=rec_id&labno=375
375,376,Băita,46.0319444444444,22.8738888888889,"In production 1 to 2 g/t Au, 0.09% Mo, and 0.64% Bi in ore. The deposit affected by hydrothermal karst with caverns ?550 m in length. Exoskarn.",https://mrdata.usgs.gov/to-json.php?db=sedznpb&id=rec_id&labno=376
376,377,Dognecea,45.2844444444444,21.7569444444444,Closed 1989. Exoskarn and distal skarn.,https://mrdata.usgs.gov/to-json.php?db=sedznpb&id=rec_id&labno=377
377,378,Akatuevskoe,51.065,117.773888888889,"Vein-shaped ore bodies and chimneys conformable to host-rock bedding, contain 0.9213.4% Pb, 1.533.36% Zn, 234597 g/t Ag, 0.31 g/t Au, and ?4.94% As. 0 km to intrusive.",https://mrdata.usgs.gov/to-json.php?db=sedznpb&id=rec_id&labno=378
378,379,Blagodatskoe,51.2722222222222,119.554444444444,"Chimney, manto, pocket-like, and vein-shaped orebodies. Ore stack average grades: 8.06% Pb, 11.14% Zn, 0.3% Sn, 214 g/t Ag, 2.7 g/t Au, ?2.28% As. Mined ore 18001822 contained 10.25% Pb and 434 g/t Ag; and 67.5% Zn in waste dump. 0 km to intrusive.",https://mrdata.usgs.gov/to-json.php?db=sedznpb&id=rec_id&labno=379
379,380,Dal’negorskoe,44.5527777777778,135.597777777778,"Current miningopen pit for boron and three underground mines for Pb, Zn, Bi, Ag, Cd, and In (Mineralogical Record, 2001), the Nikolaevskoe deposit is mined at >800 m depth (Rogulina and Sveshnikova, 2008). Approximate tonnage and grades based on data from Dunham(1950) and Ratkin (1995). Ore contains considerable amounts of Au and Ag. Exoskarn.",https://mrdata.usgs.gov/to-json.php?db=sedznpb&id=rec_id&labno=380
380,381,Gorevskoe,58.1305555555556,93.5027777777778,"Yenisei Ridge. Tonnage and Zn-Pb grades from Leach and others (2005), Ag grade from Yakubchuk and others (2005).",https://mrdata.usgs.gov/to-json.php?db=sedznpb&id=rec_id&labno=381
381,382,Gorno-Zerentuiskoe,51.2325,119.552222222222,"30 Kt ore mined prior to 1904 from small pocket and chimney orebodies. Mined out ore grades: 1.177.26% Pb, trace0.48% Zn, 1.8710.88% As, 25108 g/t Ag, 1.89 g/t Au. 0 km to intrusive.",https://mrdata.usgs.gov/to-json.php?db=sedznpb&id=rec_id&labno=382
382,383,Kholodninskoe,56.2577777777778,109.918611111111,"In ore: 0.20.5 g/t Au, 80100 ppm Cd, 200500 ppm As, 3050 ppm Sb, up to 4% Mn, average 3% C. Tonnage and grades from Leach and others (2005), Au approximate. Pyrrhotite-gudmundite graphic intergrowth.",https://mrdata.usgs.gov/to-json.php?db=sedznpb&id=rec_id&labno=383
383,384,Klichkinskoe,50.4347222222222,117.989444444444,"Conformable narrow vein-shaped ore bodies containing ?11.25% Pb, 4.21% Zn and  300 to 2500 g/t Ag. Exoskarn.",https://mrdata.usgs.gov/to-json.php?db=sedznpb&id=rec_id&labno=384
384,385,Moryanikhinskoe,58.5291666666667,93.2458333333333,Yenisei Ridge.,https://mrdata.usgs.gov/to-json.php?db=sedznpb&id=rec_id&labno=385
385,386,Pavlovskoe,72.86,53.5738888888889,Conformable band-like ore zones adjacent to local synsedimentary high. Four generations of sphalerite. Silver grade is estimated minimum. ?3.17% BaO in Ba-muscovite.,https://mrdata.usgs.gov/to-json.php?db=sedznpb&id=rec_id&labno=386
386,387,Rassokhinskoe,58.3866666666667,93.3352777777778,Yenisei Ridge. Tonnage and grades of the Limonitovoe deposit from Leach and others (2005). 0.2 to 4% MnO in hosting shale. Up to 35% phlogopite in rocks of hanging wall.,https://mrdata.usgs.gov/to-json.php?db=sedznpb&id=rec_id&labno=387
387,388,Sardana,60.2022222222222,136.667222222222,Tonnage and grades from Leach and others (2005). 0 m cover.,https://mrdata.usgs.gov/to-json.php?db=sedznpb&id=rec_id&labno=388
388,389,Urultun,63.6655555555556,148.699166666667,"The resource contains 10% fluorite. Genetic model implies an evolution from original SEDEX (Early Devonian, Emsian) to MVT (Permian).  0 m cover.",https://mrdata.usgs.gov/to-json.php?db=sedznpb&id=rec_id&labno=389
389,390,Jabal Dhaylan,25.5030555555556,37.0311111111111,Salt-related. 0 m cover.,https://mrdata.usgs.gov/to-json.php?db=sedznpb&id=rec_id&labno=390
390,391,Blagodat,42.5263888888889,22.2405555555556,Approximate ore tonnage. Massive orebodies and disseminations along schist foliation. 0 km to intrusive.,https://mrdata.usgs.gov/to-json.php?db=sedznpb&id=rec_id&labno=391
391,392,Kopaonik,43.2425,20.8233333333333,"Reserve 2007: 1.4 Mt at 5.26% Zn, 5.99% Pb, 86 g/t Ag. 0 km to intrusive",https://mrdata.usgs.gov/to-json.php?db=sedznpb&id=rec_id&labno=392
392,393,Rudnik,44.1325,20.4955555555556,"Lead concentrate contains 0.33% Ag, and 0.7% Bi. 0 km to intrusive",https://mrdata.usgs.gov/to-json.php?db=sedznpb&id=rec_id&labno=393
393,394,Trepča,42.9344444444445,20.9211111111111,"Ore-bearing limestone horizon 100150 m thick contains mineralized paleokarst  breccia. Skarn paragenesis at 355 ºC, replacement ore at 330270 ºC. 0 km to intrusive",https://mrdata.usgs.gov/to-json.php?db=sedznpb&id=rec_id&labno=394
394,395,Veliki Majdan,44.2708333333333,19.3405555555556,0 km to intrusive,https://mrdata.usgs.gov/to-json.php?db=sedznpb&id=rec_id&labno=395
395,396,Mežica,46.5144444444444,14.8522222222222,"Stratabound replacement chimneys are predominant. Replacement-type was proposed by Cissarz (1958), Jancovic (1982). Strucl (1981, 1984) pointed to syn-sedimentary ore deposition. Spangenberg and others (2001, 2006) ascribed epigenetic MVT to the deposit. Fluid inclusions indicate 159122 ºC. 0 m cover.",https://mrdata.usgs.gov/to-json.php?db=sedznpb&id=rec_id&labno=396
396,397,Topla,46.4766666666667,14.7780555555556,Mined out 19741988. 0 m cover.,https://mrdata.usgs.gov/to-json.php?db=sedznpb&id=rec_id&labno=397
397,398,Big Syncline,-29.2147222222222,18.7894444444444,NA,https://mrdata.usgs.gov/to-json.php?db=sedznpb&id=rec_id&labno=398
398,399,Black Mountain,-29.2325,18.7302777777778,NA,https://mrdata.usgs.gov/to-json.php?db=sedznpb&id=rec_id&labno=399
399,400,Broken Hill,-29.2572222222222,18.8019444444444,NA,https://mrdata.usgs.gov/to-json.php?db=sedznpb&id=rec_id&labno=400
400,401,Bushy Park,-28.4741666666667,23.5969444444444,Tonnage and grades at 2% Zn and 2% Pb cutoff from Wheatley and others (1986). Fluid inclusions indicate 239121 ºC.,https://mrdata.usgs.gov/to-json.php?db=sedznpb&id=rec_id&labno=401
401,402,Gamsberg,-29.2519444444444,18.9811111111111,"Apatite contains: ?5.5% MnO, ?2.09% FeO, and ?7.76% PbO. Ba-muscovite contains 3.95 to 6.16% BaO.",https://mrdata.usgs.gov/to-json.php?db=sedznpb&id=rec_id&labno=402
402,403,Pering,-27.4305555555556,24.2697222222222,Fluid inclusions indicate 210100 ºC.  0 m cover.,https://mrdata.usgs.gov/to-json.php?db=sedznpb&id=rec_id&labno=403
403,404,Putsberg,-29.3236111111111,19.6905555555556,NA,https://mrdata.usgs.gov/to-json.php?db=sedznpb&id=rec_id&labno=404
404,405,Imok,37.1688888888889,128.668611111111,Exoskarn.,https://mrdata.usgs.gov/to-json.php?db=sedznpb&id=rec_id&labno=405
405,406,Janggun,36.8575,129.063888888889,Hydrothermal overprint at 71 Ma. Exoskarn.,https://mrdata.usgs.gov/to-json.php?db=sedznpb&id=rec_id&labno=406
406,407,Sinyemi,37.1947222222222,128.669166666667,"41% Fe, 0.23% MoS2 in ore. Exoskarn.",https://mrdata.usgs.gov/to-json.php?db=sedznpb&id=rec_id&labno=407
407,408,Uljin,37.0794444444444,129.2825,Tonnage includes 19641981 production.  Exoskarn,https://mrdata.usgs.gov/to-json.php?db=sedznpb&id=rec_id&labno=408
408,409,Yeonhwa I,37.0838888888889,129.021388888889,"Rhyolite dikes clearly cut ore bodies (Yun, 1979). Exoskarn, distal skarn",https://mrdata.usgs.gov/to-json.php?db=sedznpb&id=rec_id&labno=409
409,410,Yeonhwa II,37.1008333333333,129.156944444444,"exoskarn, endoskarn",https://mrdata.usgs.gov/to-json.php?db=sedznpb&id=rec_id&labno=410
410,411,Antonina/Santa Barbara,42.5161111111111,-6.60027777777778,NA,https://mrdata.usgs.gov/to-json.php?db=sedznpb&id=rec_id&labno=411
411,412,Arditurri,43.2838888888889,-1.805,10 to 20% F in ore.,https://mrdata.usgs.gov/to-json.php?db=sedznpb&id=rec_id&labno=412
412,413,Picos de Europa,43.1680555555556,-4.78666666666667,Mined out. Fluid inclusions indicate 174 to 80 ºC. 0 m cover.,https://mrdata.usgs.gov/to-json.php?db=sedznpb&id=rec_id&labno=413
413,414,Reocin,43.345,-4.08472222222222,Fluid inclusions indicate up to 10050 ºC.,https://mrdata.usgs.gov/to-json.php?db=sedznpb&id=rec_id&labno=414
414,415,Troya,43.0416666666667,-2.28972222222222,"?500 g/t Ag in galena. Primary fluid inclusions indicate 17580 ºC, and >200 ºC in stage II.",https://mrdata.usgs.gov/to-json.php?db=sedznpb&id=rec_id&labno=415
415,416,Abu Samar,17.7925,36.1786111111111,"0.13 to 0.84 g/t Au in ore; +0.42 Mt at 35% BaSO4. Ore-host metamorphic rocks, containing mostly metasedimentary rocks, compose a roof-pendant on granitoids.",https://mrdata.usgs.gov/to-json.php?db=sedznpb&id=rec_id&labno=416
416,417,Bellviksberg,64.4025,15.9272222222222,Sialic basement of Proterozoic granite at <10 km,https://mrdata.usgs.gov/to-json.php?db=sedznpb&id=rec_id&labno=417
417,418,Guttusjon,61.9502777777778,12.3336111111111,Ore control by local linear depression on eroded basement within altered diabase dike. Sialic basement of Proterozoic granite and sandstone at <10 km.,https://mrdata.usgs.gov/to-json.php?db=sedznpb&id=rec_id&labno=418
418,419,Laisvall,66.1497222222222,17.1638888888889,Reactivated growth faults. Fluid inclusions indicate 210110 ºC (180120 ºC in sphalerite). Sialic basement of Proterozoic granite.,https://mrdata.usgs.gov/to-json.php?db=sedznpb&id=rec_id&labno=419
419,420,Lovstrand,64.4872222222222,15.9933333333333,Sialic basement of Proterozoic granite.,https://mrdata.usgs.gov/to-json.php?db=sedznpb&id=rec_id&labno=420
420,421,Maiva,66.1866666666667,17.2483333333333,Sialic basement of Proterozoic granite.,https://mrdata.usgs.gov/to-json.php?db=sedznpb&id=rec_id&labno=421
421,422,Sagliden,62.0222222222222,12.3880555555556,Sialic basement of Proterozoic granite and sandstone.,https://mrdata.usgs.gov/to-json.php?db=sedznpb&id=rec_id&labno=422
422,423,Vassbo,61.9486111111111,12.5580555555556,Sialic basement of Proterozoic granite and sandstone.,https://mrdata.usgs.gov/to-json.php?db=sedznpb&id=rec_id&labno=423
423,424,Zinkgruvan,58.8127777777778,15.1097222222222,Broken Hill-type by Allen (1996).,https://mrdata.usgs.gov/to-json.php?db=sedznpb&id=rec_id&labno=424
424,425,Altyn-Topkan,40.6297222222222,69.5966666666667,"Estimated production of skarn deposits in Western Karamazar region including two major deposits of Altyn-Topkan and Kansay is  3 Mt Zn,  1.5 Mt Pb, 10 Kt Ag (Laznicka, 2006). Estimated ore excavation 1.5 Mt/year for 50 years (Sultanov, 2000). Exoskarn.",https://mrdata.usgs.gov/to-json.php?db=sedznpb&id=rec_id&labno=425
425,426,Padaeng,16.6613888888889,98.6619444444444,"In predominate non-sulfide ore: 3,000 g/t (up to >1%) Cd, 500 to 700 g/t Pb, 280 g/t As, and 132 g/t Sb. Additional sulfide resource: 0.75 Mt at 11.4% Zn and 1.1% Pb, ?1.27% Cd. 0 m cover.",https://mrdata.usgs.gov/to-json.php?db=sedznpb&id=rec_id&labno=426
426,427,Bou Grine,36.11,8.94,"Resource of 1985 at 4% Zn cutoff.  Salt dome related, peridiapiric polymetallic deposit composed of  stratabound lenticular orebodies at the Triassic-Cretaceous unconformity, and dome-centered fault-related stratiform mineralization in Cretaceous.  Fluid inclusions indicate 23055 ºC. >50 m cover.",https://mrdata.usgs.gov/to-json.php?db=sedznpb&id=rec_id&labno=427
427,428,Bou Jabeur,35.78,8.28,"33.8% BaSO4, 9.3% CaF2 in reserve. Peridiapiric polymetallic deposit related to salt dome.",https://mrdata.usgs.gov/to-json.php?db=sedznpb&id=rec_id&labno=428
428,429,Djebba,36.4627777777778,9.08611111111111,Peridiapiric polymetallic deposit related to salt dome.,https://mrdata.usgs.gov/to-json.php?db=sedznpb&id=rec_id&labno=429
429,430,Fedj-el Adoum,36.3788888888889,9.10416666666667,"Peridiapiric polymetallic deposit related to salt dome, composed of lenticular orebodies along Triassic-Cretaceous unconformity. 80% of resource confined to stratabound lenticular Zn>>Pb orebodies, 20% of resource related to Pb>>Zn veins and stockwork. Plenty of strontium in reserve. >30 m cover.|",https://mrdata.usgs.gov/to-json.php?db=sedznpb&id=rec_id&labno=430
430,431,Sidi Driss,37.0533333333333,9.10833333333333,Peridiapiric polymetallic stratiform deposit related to salt dome. ?0.65% Cd in sphalerite.,https://mrdata.usgs.gov/to-json.php?db=sedznpb&id=rec_id&labno=431
431,432,Akdağmadeni,39.6630555555556,35.8838888888889,Distal skarn.,https://mrdata.usgs.gov/to-json.php?db=sedznpb&id=rec_id&labno=432
432,433,Balya,39.7530555555556,27.5905555555556,"18801939 production 4 Mt ore containing 400 Kt Pb, 400 Kt Zn, 1 Kt Ag, 3 t Au. Approximate Au grade. Lead-zinc skarn  overprinted by epithermal mineralization. Exoskarn.",https://mrdata.usgs.gov/to-json.php?db=sedznpb&id=rec_id&labno=433
433,434,Bolkardag,37.4211111111111,34.8427777777778,Mainly oxidized zone. 10 km to intrusive,https://mrdata.usgs.gov/to-json.php?db=sedznpb&id=rec_id&labno=434
434,435,Demirboku,39.59,28.4816666666667,Exoskarn.,https://mrdata.usgs.gov/to-json.php?db=sedznpb&id=rec_id&labno=435
435,436,Keskin,39.6647222222222,33.6152777777778,Lead and silver grades approximate. Exoskarn.,https://mrdata.usgs.gov/to-json.php?db=sedznpb&id=rec_id&labno=436
436,437,Yahyali,38.1658333333333,35.5272222222222,Tonnage and grades by Koptagel and others (2005); production Celada?i Desandre and Göynük deposits by MMAJ (2001). Orebodies occur in different thrust nappes. Fluid inclusions indicate 22950 ºC. 0 m cover.,https://mrdata.usgs.gov/to-json.php?db=sedznpb&id=rec_id&labno=437
437,438,Foss,56.6652777777778,-3.93638888888889,The deposit contains 0.5 Mt at ?10% Zn+Pb; 2 Mt of bedded barite; 10 Mt of Ba-bearing chert and schist.,https://mrdata.usgs.gov/to-json.php?db=sedznpb&id=rec_id&labno=438
438,439,Ben Eagach,56.6852777777778,-3.87194444444444,"?8.5% Zn, 3.6% Pb, and 47 g/t Ag in mineralized carbonate rock.",https://mrdata.usgs.gov/to-json.php?db=sedznpb&id=rec_id&labno=439
439,440,American Fork,40.5333333333333,-111.616666666667,Combination of fissure veins with concordant replacements in carbonate rocks throughout the ore-host unit stratigraphy. 2.6 km to intrusive.,https://mrdata.usgs.gov/to-json.php?db=sedznpb&id=rec_id&labno=440
440,441,Anarraaq,68.1638888888889,-162.923333333333,"Barite body estimated as much as 1 billion t. The deposit occurs at 600 m depth. Mineralized zone traced by drillholes within 7 km north of Anarraak through Aktigiruk and Wulik prospects. Fluid inclusions indicate 210115ºC; conodont color index 200120 ºC, sulphur isotope in sphalerite-galena pair 255115 ºC.",https://mrdata.usgs.gov/to-json.php?db=sedznpb&id=rec_id&labno=441
441,442,Apex,37.0697222222222,-113.803888888889,"18711968 mainly oxide ore production 5.6 t Ag, 7  Kt Cu, 400 t Pb. 0.1% Ge and 0.037% Ga in ore. Ore-bearing breccia pipe 110 x 30 m to 425 m depth contains mostly oxide and sulphate minerals. Oxidation, jarosite, age  12.0±0.7 to 6.8±0.4 Ma .",https://mrdata.usgs.gov/to-json.php?db=sedznpb&id=rec_id&labno=442
442,443,Aravaipa,32.9677777777778,-110.323888888889,Exoskarn.,https://mrdata.usgs.gov/to-json.php?db=sedznpb&id=rec_id&labno=443
443,444,Aspen,39.1783333333333,-106.824166666667,"Zinc not recovered in early years but reportedly averaged ~2%; additional 16% Ba. Mantos as much as 12 m thick within stratabound breccia. MVT by De Voto (1983, 1988).",https://mrdata.usgs.gov/to-json.php?db=sedznpb&id=rec_id&labno=444
